pitch	roll	yaw	vgx	vgy	vgz	templ	temph	tof	h	bat	baro	time	agx	agy	agz	timestamp
1.0	0.0	10.0	0.0	0.0	0.0	77.0	80.0	10.0	0.0	69.0	968.05	109.0	35.0	6.0	-999.0	1636887353.106315
1.0	0.0	10.0	0.0	0.0	0.0	77.0	80.0	10.0	0.0	69.0	968.05	109.0	35.0	6.0	-999.0	1636887353.152402
1.0	0.0	10.0	0.0	0.0	0.0	77.0	80.0	10.0	0.0	69.0	968.02	109.0	34.0	6.0	-996.0	1636887353.152402
1.0	0.0	10.0	0.0	0.0	0.0	77.0	80.0	10.0	0.0	69.0	968.05	109.0	35.0	7.0	-999.0	1636887353.253186
1.0	0.0	10.0	0.0	0.0	0.0	77.0	80.0	10.0	0.0	69.0	968.02	109.0	32.0	6.0	-1000.0	1636887353.355551
1.0	0.0	10.0	0.0	0.0	0.0	77.0	80.0	10.0	0.0	69.0	968.03	109.0	33.0	7.0	-999.0	1636887353.457385
1.0	0.0	10.0	0.0	0.0	0.0	77.0	80.0	10.0	0.0	69.0	968.03	109.0	35.0	7.0	-999.0	1636887353.559038
1.0	0.0	10.0	0.0	0.0	0.0	77.0	80.0	10.0	0.0	69.0	968.03	109.0	34.0	4.0	-997.0	1636887353.65975
1.0	0.0	10.0	0.0	0.0	0.0	77.0	80.0	10.0	0.0	69.0	968.03	109.0	34.0	6.0	-1001.0	1636887353.764765
1.0	0.0	10.0	0.0	0.0	0.0	77.0	80.0	10.0	0.0	69.0	968.04	109.0	35.0	7.0	-1000.0	1636887353.865062
1.0	0.0	10.0	0.0	0.0	0.0	77.0	80.0	10.0	0.0	69.0	968.06	109.0	34.0	6.0	-997.0	1636887353.968237
1.0	0.0	10.0	0.0	0.0	0.0	77.0	80.0	10.0	0.0	69.0	968.04	109.0	33.0	7.0	-998.0	1636887354.070801
1.0	0.0	10.0	0.0	0.0	0.0	77.0	80.0	10.0	0.0	69.0	968.02	109.0	36.0	7.0	-998.0	1636887354.16956
1.0	0.0	10.0	0.0	0.0	0.0	77.0	80.0	10.0	0.0	69.0	968.04	109.0	34.0	7.0	-1000.0	1636887354.271781
1.0	0.0	10.0	0.0	0.0	0.0	77.0	80.0	10.0	0.0	69.0	968.02	109.0	34.0	8.0	-997.0	1636887354.373999
1.0	0.0	10.0	0.0	0.0	0.0	77.0	80.0	10.0	0.0	69.0	968.01	109.0	33.0	6.0	-1000.0	1636887354.476501
1.0	0.0	10.0	0.0	0.0	0.0	77.0	80.0	10.0	0.0	69.0	967.99	109.0	35.0	7.0	-998.0	1636887354.580769
1.0	0.0	10.0	0.0	0.0	0.0	77.0	80.0	10.0	0.0	69.0	968.06	109.0	35.0	8.0	-999.0	1636887354.681903
1.0	0.0	10.0	0.0	0.0	0.0	77.0	80.0	10.0	0.0	69.0	968.04	109.0	35.0	7.0	-999.0	1636887354.78238
1.0	0.0	10.0	0.0	0.0	0.0	77.0	80.0	10.0	0.0	69.0	968.01	109.0	35.0	6.0	-999.0	1636887354.886816
1.0	0.0	10.0	0.0	0.0	0.0	77.0	80.0	10.0	0.0	69.0	968.0	109.0	33.0	6.0	-1000.0	1636887354.990453
1.0	0.0	10.0	0.0	0.0	0.0	77.0	80.0	10.0	0.0	69.0	967.98	109.0	34.0	8.0	-999.0	1636887355.08763
1.0	0.0	10.0	0.0	0.0	0.0	77.0	80.0	10.0	0.0	69.0	968.01	109.0	32.0	6.0	-999.0	1636887355.188861
1.0	0.0	10.0	0.0	0.0	0.0	77.0	80.0	10.0	0.0	69.0	967.99	109.0	34.0	8.0	-998.0	1636887355.242241
1.0	0.0	10.0	0.0	0.0	0.0	77.0	80.0	10.0	0.0	69.0	968.06	109.0	33.0	6.0	-998.0	1636887355.341911
1.0	0.0	10.0	0.0	0.0	0.0	77.0	80.0	10.0	0.0	69.0	968.05	109.0	34.0	9.0	-998.0	1636887355.444197
1.0	0.0	10.0	0.0	0.0	0.0	77.0	80.0	10.0	0.0	69.0	968.05	109.0	36.0	6.0	-999.0	1636887355.549733
1.0	0.0	10.0	0.0	0.0	0.0	77.0	80.0	10.0	0.0	69.0	968.05	109.0	36.0	8.0	-1000.0	1636887355.651529
1.0	0.0	10.0	0.0	0.0	0.0	77.0	80.0	10.0	0.0	69.0	968.05	109.0	32.0	7.0	-998.0	1636887355.752644
1.0	0.0	10.0	0.0	0.0	0.0	77.0	80.0	10.0	0.0	69.0	968.01	109.0	34.0	5.0	-1000.0	1636887355.855382
1.0	0.0	10.0	0.0	0.0	0.0	77.0	80.0	10.0	0.0	69.0	968.03	109.0	35.0	6.0	-999.0	1636887355.956462
1.0	0.0	10.0	0.0	0.0	0.0	77.0	80.0	10.0	0.0	69.0	968.03	109.0	34.0	7.0	-998.0	1636887356.059711
1.0	0.0	10.0	0.0	0.0	0.0	77.0	80.0	10.0	0.0	69.0	968.02	109.0	34.0	6.0	-998.0	1636887356.161147
1.0	0.0	10.0	0.0	0.0	0.0	77.0	80.0	10.0	0.0	69.0	967.99	109.0	34.0	7.0	-999.0	1636887356.26066
1.0	0.0	10.0	0.0	0.0	0.0	77.0	80.0	10.0	0.0	69.0	968.03	109.0	35.0	7.0	-1000.0	1636887356.361803
1.0	0.0	10.0	0.0	0.0	0.0	77.0	80.0	10.0	0.0	69.0	968.0	109.0	34.0	8.0	-999.0	1636887356.467643
1.0	0.0	10.0	0.0	0.0	0.0	77.0	80.0	10.0	0.0	69.0	968.0	109.0	34.0	7.0	-997.0	1636887356.56743
1.0	0.0	10.0	0.0	0.0	0.0	77.0	80.0	10.0	0.0	69.0	968.04	109.0	33.0	7.0	-1001.0	1636887356.669113
1.0	0.0	10.0	0.0	0.0	0.0	77.0	80.0	10.0	0.0	69.0	968.04	109.0	34.0	5.0	-999.0	1636887356.773542
1.0	0.0	10.0	0.0	0.0	0.0	77.0	80.0	10.0	0.0	69.0	968.03	109.0	35.0	7.0	-999.0	1636887356.872241
1.0	0.0	10.0	0.0	0.0	0.0	77.0	80.0	10.0	0.0	69.0	968.03	109.0	33.0	8.0	-999.0	1636887356.975161
1.0	0.0	10.0	0.0	0.0	0.0	77.0	79.0	10.0	0.0	69.0	968.02	109.0	34.0	8.0	-999.0	1636887357.077102
1.0	0.0	10.0	0.0	0.0	0.0	77.0	79.0	10.0	0.0	69.0	968.0	109.0	33.0	8.0	-1000.0	1636887357.179074
1.0	0.0	10.0	0.0	0.0	0.0	77.0	79.0	10.0	0.0	69.0	968.03	109.0	34.0	7.0	-999.0	1636887357.280596
1.0	0.0	10.0	0.0	0.0	0.0	77.0	79.0	10.0	0.0	69.0	968.01	109.0	32.0	7.0	-1000.0	1636887357.382712
1.0	0.0	10.0	0.0	0.0	0.0	77.0	79.0	10.0	0.0	69.0	968.02	109.0	34.0	8.0	-1000.0	1636887357.486078
1.0	0.0	10.0	0.0	0.0	0.0	77.0	79.0	10.0	0.0	69.0	968.03	109.0	33.0	6.0	-998.0	1636887357.588957
1.0	0.0	10.0	0.0	0.0	0.0	77.0	79.0	10.0	0.0	69.0	968.04	109.0	34.0	7.0	-1001.0	1636887357.691673
1.0	0.0	10.0	0.0	0.0	0.0	77.0	79.0	10.0	0.0	69.0	968.07	109.0	34.0	7.0	-998.0	1636887357.791068
1.0	0.0	10.0	0.0	0.0	0.0	77.0	79.0	10.0	0.0	69.0	968.03	109.0	32.0	7.0	-999.0	1636887357.892776
1.0	0.0	10.0	0.0	0.0	0.0	77.0	79.0	10.0	0.0	69.0	967.99	109.0	35.0	7.0	-999.0	1636887357.996754
1.0	0.0	10.0	0.0	0.0	0.0	77.0	79.0	10.0	0.0	69.0	968.03	109.0	35.0	8.0	-998.0	1636887358.096227
1.0	0.0	10.0	0.0	0.0	0.0	77.0	79.0	10.0	0.0	69.0	968.01	109.0	34.0	8.0	-998.0	1636887358.198528
1.0	0.0	10.0	0.0	0.0	0.0	77.0	79.0	10.0	0.0	69.0	968.09	109.0	34.0	8.0	-998.0	1636887358.30206
1.0	0.0	10.0	0.0	0.0	0.0	77.0	79.0	10.0	0.0	69.0	968.01	109.0	35.0	7.0	-997.0	1636887358.405255
1.0	0.0	10.0	0.0	0.0	0.0	77.0	79.0	10.0	0.0	69.0	967.98	109.0	33.0	6.0	-1000.0	1636887358.504464
1.0	0.0	10.0	0.0	0.0	0.0	77.0	79.0	10.0	0.0	69.0	967.99	109.0	33.0	7.0	-998.0	1636887358.557822
1.0	0.0	10.0	0.0	0.0	0.0	77.0	79.0	10.0	0.0	69.0	967.97	109.0	35.0	7.0	-1000.0	1636887358.658654
1.0	0.0	10.0	0.0	0.0	0.0	77.0	79.0	10.0	0.0	69.0	967.97	109.0	34.0	7.0	-1001.0	1636887358.762496
1.0	0.0	10.0	0.0	0.0	0.0	77.0	79.0	10.0	0.0	69.0	968.06	109.0	35.0	7.0	-999.0	1636887358.863731
1.0	0.0	10.0	0.0	0.0	0.0	77.0	79.0	10.0	0.0	69.0	968.04	109.0	35.0	8.0	-997.0	1636887358.962877
1.0	0.0	10.0	0.0	0.0	0.0	77.0	79.0	10.0	0.0	69.0	968.02	109.0	34.0	8.0	-999.0	1636887359.065437
1.0	0.0	10.0	0.0	0.0	0.0	77.0	79.0	10.0	0.0	69.0	968.01	109.0	34.0	7.0	-1001.0	1636887359.169463
1.0	0.0	10.0	0.0	0.0	0.0	77.0	79.0	10.0	0.0	69.0	967.99	109.0	35.0	6.0	-998.0	1636887359.270297
1.0	0.0	10.0	0.0	0.0	0.0	77.0	79.0	10.0	0.0	69.0	968.01	109.0	34.0	7.0	-998.0	1636887359.372165
1.0	0.0	10.0	0.0	0.0	0.0	77.0	79.0	10.0	0.0	69.0	967.98	109.0	34.0	7.0	-999.0	1636887359.474267
1.0	0.0	10.0	0.0	0.0	0.0	77.0	79.0	10.0	0.0	69.0	968.04	109.0	33.0	8.0	-999.0	1636887359.576101
1.0	0.0	10.0	0.0	0.0	0.0	77.0	79.0	10.0	0.0	69.0	967.98	109.0	34.0	7.0	-1000.0	1636887359.680808
1.0	0.0	10.0	0.0	0.0	0.0	77.0	79.0	10.0	0.0	69.0	968.03	109.0	33.0	8.0	-1000.0	1636887359.781597
1.0	0.0	10.0	0.0	0.0	0.0	77.0	79.0	10.0	0.0	69.0	968.0	109.0	34.0	7.0	-999.0	1636887359.882102
1.0	0.0	10.0	0.0	0.0	0.0	77.0	79.0	10.0	0.0	69.0	967.99	109.0	34.0	7.0	-1000.0	1636887359.98663
1.0	0.0	10.0	0.0	0.0	0.0	78.0	79.0	10.0	0.0	69.0	968.0	109.0	33.0	8.0	-999.0	1636887360.088328
1.0	0.0	10.0	0.0	0.0	0.0	78.0	79.0	10.0	0.0	69.0	968.0	109.0	34.0	8.0	-1000.0	1636887360.189029
1.0	0.0	10.0	0.0	0.0	0.0	78.0	79.0	10.0	0.0	69.0	968.0	109.0	33.0	7.0	-1000.0	1636887360.291866
1.0	0.0	10.0	0.0	0.0	0.0	78.0	79.0	10.0	0.0	69.0	968.01	109.0	35.0	7.0	-998.0	1636887360.393546
1.0	0.0	10.0	0.0	0.0	0.0	78.0	79.0	10.0	0.0	69.0	967.95	109.0	34.0	7.0	-999.0	1636887360.49376
1.0	0.0	10.0	0.0	0.0	0.0	78.0	79.0	10.0	0.0	69.0	968.0	109.0	35.0	8.0	-999.0	1636887360.598098
1.0	0.0	10.0	0.0	0.0	0.0	78.0	79.0	10.0	0.0	69.0	967.97	109.0	34.0	7.0	-999.0	1636887360.696874
1.0	0.0	10.0	0.0	0.0	0.0	78.0	79.0	10.0	0.0	69.0	968.04	109.0	34.0	8.0	-1000.0	1636887360.798684
1.0	0.0	10.0	0.0	0.0	0.0	78.0	79.0	10.0	0.0	69.0	968.0	109.0	36.0	8.0	-999.0	1636887360.904136
1.0	0.0	10.0	0.0	0.0	0.0	78.0	79.0	10.0	0.0	69.0	968.03	109.0	34.0	8.0	-1000.0	1636887361.0045
1.0	0.0	10.0	0.0	0.0	0.0	77.0	80.0	10.0	0.0	69.0	968.03	109.0	34.0	8.0	-995.0	1636887361.106127
1.0	0.0	10.0	0.0	0.0	0.0	77.0	80.0	10.0	0.0	69.0	968.06	109.0	34.0	8.0	-998.0	1636887361.209924
1.0	0.0	10.0	0.0	0.0	0.0	77.0	80.0	10.0	0.0	69.0	968.0	109.0	35.0	7.0	-997.0	1636887361.311492
1.0	0.0	10.0	0.0	0.0	0.0	77.0	80.0	10.0	0.0	69.0	968.05	109.0	34.0	9.0	-1000.0	1636887361.411437
1.0	0.0	10.0	0.0	0.0	0.0	77.0	80.0	10.0	0.0	69.0	968.04	109.0	34.0	7.0	-1000.0	1636887361.516001
1.0	0.0	10.0	0.0	0.0	0.0	77.0	80.0	10.0	0.0	69.0	968.03	109.0	36.0	7.0	-999.0	1636887361.618204
1.0	0.0	10.0	0.0	0.0	0.0	77.0	80.0	10.0	0.0	69.0	968.01	109.0	34.0	7.0	-997.0	1636887361.717131
1.0	0.0	10.0	0.0	0.0	0.0	77.0	80.0	10.0	0.0	69.0	968.02	109.0	31.0	9.0	-1000.0	1636887361.819978
1.0	0.0	10.0	0.0	0.0	0.0	77.0	80.0	10.0	0.0	69.0	968.01	109.0	34.0	7.0	-999.0	1636887361.922016
1.0	0.0	10.0	0.0	0.0	0.0	77.0	80.0	10.0	0.0	69.0	968.03	109.0	34.0	7.0	-999.0	1636887362.023643
1.0	0.0	10.0	0.0	0.0	0.0	78.0	80.0	10.0	0.0	69.0	967.99	109.0	33.0	9.0	-998.0	1636887362.126797
1.0	0.0	10.0	0.0	0.0	0.0	78.0	80.0	10.0	0.0	69.0	968.0	109.0	33.0	5.0	-1000.0	1636887362.230168
1.0	0.0	10.0	0.0	0.0	0.0	78.0	80.0	10.0	0.0	69.0	968.02	109.0	36.0	8.0	-998.0	1636887362.360364
1.0	0.0	10.0	0.0	0.0	0.0	78.0	80.0	10.0	0.0	69.0	968.05	109.0	33.0	7.0	-1000.0	1636887362.380422
1.0	0.0	10.0	0.0	0.0	0.0	78.0	80.0	10.0	0.0	69.0	968.01	109.0	34.0	7.0	-997.0	1636887362.482926
1.0	0.0	10.0	0.0	0.0	0.0	78.0	80.0	10.0	0.0	69.0	968.01	109.0	34.0	8.0	-998.0	1636887362.587013
1.0	0.0	10.0	0.0	0.0	0.0	78.0	80.0	10.0	0.0	69.0	967.98	109.0	35.0	7.0	-1001.0	1636887362.685615
1.0	0.0	10.0	0.0	0.0	0.0	78.0	80.0	10.0	0.0	69.0	968.06	109.0	36.0	8.0	-998.0	1636887362.788879
1.0	0.0	10.0	0.0	0.0	0.0	78.0	80.0	10.0	0.0	69.0	968.06	109.0	34.0	5.0	-999.0	1636887362.891042
1.0	0.0	10.0	0.0	0.0	0.0	78.0	80.0	10.0	0.0	69.0	967.98	109.0	35.0	6.0	-1002.0	1636887362.99264
1.0	0.0	10.0	0.0	0.0	0.0	78.0	79.0	10.0	0.0	69.0	968.01	109.0	34.0	7.0	-999.0	1636887363.096654
1.0	0.0	10.0	0.0	0.0	0.0	78.0	79.0	10.0	0.0	69.0	968.03	109.0	36.0	7.0	-997.0	1636887363.198973
1.0	0.0	10.0	0.0	0.0	0.0	78.0	79.0	10.0	0.0	69.0	968.05	109.0	34.0	7.0	-1000.0	1636887363.301013
1.0	0.0	10.0	0.0	0.0	0.0	78.0	79.0	10.0	0.0	69.0	968.02	109.0	34.0	7.0	-998.0	1636887363.401085
1.0	0.0	10.0	0.0	0.0	0.0	78.0	79.0	10.0	0.0	69.0	968.06	109.0	35.0	6.0	-1000.0	1636887363.503554
1.0	0.0	10.0	0.0	0.0	0.0	78.0	79.0	10.0	0.0	69.0	968.03	109.0	33.0	7.0	-999.0	1636887363.606564
1.0	0.0	10.0	0.0	0.0	0.0	78.0	79.0	10.0	0.0	69.0	968.01	109.0	36.0	7.0	-1000.0	1636887363.707237
1.0	0.0	10.0	0.0	0.0	0.0	78.0	79.0	10.0	0.0	69.0	968.02	109.0	35.0	7.0	-1001.0	1636887363.807956
1.0	0.0	10.0	0.0	0.0	0.0	78.0	79.0	10.0	0.0	69.0	968.04	109.0	35.0	8.0	-997.0	1636887363.913253
1.0	0.0	10.0	0.0	0.0	0.0	78.0	79.0	10.0	0.0	69.0	967.99	109.0	33.0	8.0	-1001.0	1636887364.014074
1.0	0.0	10.0	0.0	0.0	0.0	77.0	79.0	10.0	0.0	69.0	968.03	109.0	35.0	6.0	-996.0	1636887364.1155
1.0	0.0	10.0	0.0	0.0	0.0	77.0	79.0	10.0	0.0	69.0	968.03	109.0	34.0	9.0	-999.0	1636887364.215878
1.0	0.0	10.0	0.0	0.0	0.0	77.0	79.0	10.0	0.0	69.0	967.95	109.0	34.0	8.0	-1000.0	1636887364.31974
1.0	0.0	10.0	0.0	0.0	0.0	77.0	79.0	10.0	0.0	69.0	968.03	109.0	35.0	8.0	-999.0	1636887364.423328
1.0	0.0	10.0	0.0	0.0	0.0	77.0	79.0	10.0	0.0	69.0	968.05	109.0	34.0	8.0	-1000.0	1636887364.524158
1.0	0.0	10.0	0.0	0.0	0.0	77.0	79.0	10.0	0.0	69.0	968.03	109.0	35.0	7.0	-1000.0	1636887364.625614
1.0	0.0	10.0	0.0	0.0	0.0	77.0	79.0	10.0	0.0	69.0	967.99	109.0	33.0	7.0	-999.0	1636887364.729496
1.0	0.0	10.0	0.0	0.0	0.0	77.0	79.0	10.0	0.0	69.0	968.0	109.0	35.0	8.0	-999.0	1636887364.830025
1.0	0.0	10.0	0.0	0.0	0.0	77.0	79.0	10.0	0.0	69.0	967.99	109.0	34.0	7.0	-998.0	1636887364.933884
1.0	0.0	10.0	0.0	0.0	0.0	77.0	79.0	10.0	0.0	69.0	967.96	109.0	32.0	9.0	-997.0	1636887365.034179
1.0	0.0	10.0	0.0	0.0	0.0	77.0	80.0	10.0	0.0	69.0	968.0	109.0	36.0	7.0	-1000.0	1636887365.135209
1.0	0.0	10.0	0.0	0.0	0.0	77.0	80.0	10.0	0.0	69.0	967.98	109.0	34.0	7.0	-997.0	1636887365.240587
1.0	0.0	10.0	0.0	0.0	0.0	77.0	80.0	10.0	0.0	69.0	968.06	109.0	35.0	7.0	-999.0	1636887365.339785
1.0	0.0	10.0	0.0	0.0	0.0	77.0	80.0	10.0	0.0	69.0	968.03	109.0	35.0	7.0	-1000.0	1636887365.444536
1.0	0.0	10.0	0.0	0.0	0.0	77.0	80.0	10.0	0.0	69.0	968.05	109.0	35.0	7.0	-1001.0	1636887365.494229
1.0	0.0	10.0	0.0	0.0	0.0	77.0	80.0	10.0	0.0	69.0	967.99	109.0	33.0	7.0	-999.0	1636887365.592642
1.0	0.0	10.0	0.0	0.0	0.0	77.0	80.0	10.0	0.0	69.0	968.05	109.0	33.0	6.0	-998.0	1636887365.695899
1.0	0.0	10.0	0.0	0.0	0.0	77.0	80.0	10.0	0.0	69.0	967.98	109.0	34.0	6.0	-998.0	1636887365.800172
1.0	0.0	10.0	0.0	0.0	0.0	77.0	80.0	10.0	0.0	69.0	967.97	109.0	34.0	6.0	-998.0	1636887365.900217
1.0	0.0	10.0	0.0	0.0	0.0	77.0	80.0	10.0	0.0	69.0	968.03	109.0	34.0	7.0	-999.0	1636887366.00076
1.0	0.0	10.0	0.0	0.0	0.0	77.0	80.0	10.0	0.0	69.0	968.03	109.0	33.0	8.0	-996.0	1636887366.106324
1.0	0.0	10.0	0.0	0.0	0.0	77.0	80.0	10.0	0.0	69.0	967.97	109.0	33.0	7.0	-998.0	1636887366.204965
1.0	0.0	10.0	0.0	0.0	0.0	77.0	80.0	10.0	0.0	69.0	967.97	109.0	34.0	7.0	-998.0	1636887366.310263
1.0	0.0	10.0	0.0	0.0	0.0	77.0	80.0	10.0	0.0	69.0	968.03	109.0	33.0	6.0	-1000.0	1636887366.410778
1.0	0.0	10.0	0.0	0.0	0.0	77.0	80.0	10.0	0.0	69.0	968.0	109.0	32.0	6.0	-998.0	1636887366.513701
1.0	0.0	10.0	0.0	0.0	0.0	77.0	80.0	10.0	0.0	69.0	967.98	109.0	34.0	6.0	-999.0	1636887366.612597
1.0	0.0	10.0	0.0	0.0	0.0	77.0	80.0	10.0	0.0	69.0	967.96	109.0	35.0	7.0	-1000.0	1636887366.717355
1.0	0.0	10.0	0.0	0.0	0.0	77.0	80.0	10.0	0.0	69.0	967.99	109.0	35.0	7.0	-1000.0	1636887366.819696
1.0	0.0	10.0	0.0	0.0	0.0	77.0	80.0	10.0	0.0	69.0	968.0	109.0	34.0	8.0	-997.0	1636887366.920805
1.0	0.0	10.0	0.0	0.0	0.0	77.0	80.0	10.0	0.0	69.0	967.96	109.0	34.0	8.0	-1000.0	1636887367.022929
1.0	0.0	10.0	0.0	0.0	0.0	77.0	79.0	10.0	0.0	69.0	967.98	109.0	34.0	7.0	-998.0	1636887367.124266
1.0	0.0	10.0	0.0	0.0	0.0	77.0	79.0	10.0	0.0	69.0	967.96	109.0	34.0	8.0	-1000.0	1636887367.228217
1.0	0.0	10.0	0.0	0.0	0.0	77.0	79.0	10.0	0.0	69.0	967.99	109.0	34.0	7.0	-999.0	1636887367.328063
1.0	0.0	10.0	0.0	0.0	0.0	77.0	79.0	10.0	0.0	69.0	968.01	109.0	35.0	7.0	-998.0	1636887367.429577
1.0	0.0	10.0	0.0	0.0	0.0	77.0	79.0	10.0	0.0	69.0	968.0	109.0	36.0	7.0	-998.0	1636887367.535169
1.0	0.0	10.0	0.0	0.0	0.0	77.0	79.0	10.0	0.0	69.0	968.0	109.0	34.0	8.0	-998.0	1636887367.635296
1.0	0.0	10.0	0.0	0.0	0.0	77.0	79.0	10.0	0.0	69.0	967.95	109.0	35.0	8.0	-998.0	1636887367.736661
1.0	0.0	10.0	0.0	0.0	0.0	77.0	79.0	10.0	0.0	69.0	968.0	109.0	37.0	7.0	-1000.0	1636887367.841021
1.0	0.0	10.0	0.0	0.0	0.0	77.0	79.0	10.0	0.0	69.0	968.02	109.0	34.0	6.0	-1001.0	1636887367.942555
1.0	0.0	10.0	0.0	0.0	0.0	77.0	79.0	10.0	0.0	69.0	967.98	109.0	36.0	8.0	-998.0	1636887368.042748
1.0	0.0	10.0	0.0	0.0	0.0	77.0	80.0	10.0	0.0	69.0	967.98	109.0	35.0	7.0	-999.0	1636887368.147006
1.0	0.0	10.0	0.0	0.0	0.0	77.0	80.0	10.0	0.0	69.0	967.99	109.0	34.0	7.0	-999.0	1636887368.248626
1.0	0.0	10.0	0.0	0.0	0.0	77.0	80.0	10.0	0.0	69.0	968.01	109.0	34.0	8.0	-998.0	1636887368.350115
1.0	0.0	10.0	0.0	0.0	0.0	77.0	80.0	10.0	0.0	69.0	967.97	109.0	35.0	6.0	-999.0	1636887368.452133
1.0	0.0	10.0	0.0	0.0	0.0	77.0	80.0	10.0	0.0	69.0	967.96	109.0	34.0	7.0	-996.0	1636887368.503779
1.0	0.0	10.0	0.0	0.0	0.0	77.0	80.0	10.0	0.0	69.0	968.01	109.0	32.0	9.0	-998.0	1636887368.605596
1.0	0.0	10.0	0.0	0.0	0.0	77.0	80.0	10.0	0.0	69.0	968.04	109.0	34.0	8.0	-999.0	1636887368.70842
1.0	0.0	10.0	0.0	0.0	0.0	77.0	80.0	10.0	0.0	69.0	967.96	109.0	34.0	7.0	-999.0	1636887368.811329
1.0	0.0	10.0	0.0	0.0	0.0	77.0	80.0	10.0	0.0	69.0	967.98	109.0	33.0	7.0	-998.0	1636887368.912974
1.0	0.0	10.0	0.0	0.0	0.0	77.0	80.0	10.0	0.0	69.0	968.0	109.0	34.0	7.0	-999.0	1636887369.013731
1.0	0.0	10.0	0.0	0.0	0.0	77.0	79.0	10.0	0.0	69.0	968.01	109.0	34.0	8.0	-1000.0	1636887369.115333
1.0	0.0	10.0	0.0	0.0	0.0	77.0	79.0	10.0	0.0	69.0	968.02	109.0	34.0	6.0	-1001.0	1636887369.217507
1.0	0.0	10.0	0.0	0.0	0.0	77.0	79.0	10.0	0.0	69.0	967.98	109.0	35.0	7.0	-999.0	1636887369.32066
1.0	0.0	10.0	0.0	0.0	0.0	77.0	79.0	10.0	0.0	69.0	967.98	109.0	35.0	6.0	-997.0	1636887369.426018
1.0	0.0	10.0	0.0	0.0	0.0	77.0	79.0	10.0	0.0	69.0	968.02	109.0	35.0	7.0	-999.0	1636887369.525028
1.0	0.0	10.0	0.0	0.0	0.0	77.0	79.0	10.0	0.0	69.0	968.01	109.0	33.0	7.0	-997.0	1636887369.625234
1.0	0.0	10.0	0.0	0.0	0.0	77.0	79.0	10.0	0.0	69.0	967.98	109.0	36.0	5.0	-1000.0	1636887369.727833
1.0	0.0	10.0	0.0	0.0	0.0	77.0	79.0	10.0	0.0	69.0	968.0	109.0	35.0	8.0	-998.0	1636887369.829298
1.0	0.0	10.0	0.0	0.0	0.0	77.0	79.0	10.0	0.0	69.0	967.96	109.0	33.0	6.0	-999.0	1636887369.93115
1.0	0.0	10.0	0.0	0.0	0.0	77.0	79.0	10.0	0.0	69.0	968.02	109.0	33.0	6.0	-999.0	1636887370.032323
1.0	0.0	10.0	0.0	0.0	0.0	77.0	79.0	10.0	0.0	69.0	967.96	109.0	34.0	9.0	-999.0	1636887370.136606
1.0	0.0	10.0	0.0	0.0	0.0	77.0	79.0	10.0	0.0	69.0	968.05	109.0	34.0	5.0	-999.0	1636887370.23665
1.0	0.0	10.0	0.0	0.0	0.0	77.0	79.0	10.0	0.0	69.0	968.01	109.0	33.0	7.0	-1000.0	1636887370.337999
1.0	0.0	10.0	0.0	0.0	0.0	77.0	79.0	10.0	0.0	69.0	967.95	109.0	35.0	8.0	-999.0	1636887370.440923
1.0	0.0	10.0	0.0	0.0	0.0	77.0	79.0	10.0	0.0	69.0	967.95	109.0	32.0	7.0	-999.0	1636887370.542822
1.0	0.0	10.0	0.0	0.0	0.0	77.0	79.0	10.0	0.0	69.0	967.96	109.0	34.0	6.0	-1000.0	1636887370.64331
1.0	0.0	10.0	0.0	0.0	0.0	77.0	79.0	10.0	0.0	69.0	967.96	109.0	33.0	8.0	-997.0	1636887370.748248
1.0	0.0	10.0	0.0	0.0	0.0	77.0	79.0	10.0	0.0	69.0	967.98	109.0	32.0	8.0	-999.0	1636887370.84752
1.0	0.0	10.0	0.0	0.0	0.0	77.0	79.0	10.0	0.0	69.0	967.98	109.0	36.0	8.0	-998.0	1636887370.954709
1.0	0.0	10.0	0.0	0.0	0.0	77.0	79.0	10.0	0.0	69.0	968.03	109.0	36.0	9.0	-997.0	1636887371.051824
1.0	0.0	10.0	0.0	0.0	0.0	78.0	80.0	10.0	0.0	69.0	967.96	109.0	35.0	7.0	-999.0	1636887371.154029
1.0	0.0	10.0	0.0	0.0	0.0	78.0	80.0	10.0	0.0	69.0	967.98	109.0	34.0	5.0	-999.0	1636887371.257222
1.0	0.0	10.0	0.0	0.0	0.0	78.0	80.0	10.0	0.0	69.0	968.01	109.0	36.0	9.0	-999.0	1636887371.360435
1.0	0.0	10.0	0.0	0.0	0.0	78.0	80.0	10.0	0.0	69.0	968.01	109.0	34.0	8.0	-1000.0	1636887371.463206
1.0	0.0	10.0	0.0	0.0	0.0	78.0	80.0	10.0	0.0	69.0	968.0	109.0	35.0	7.0	-1002.0	1636887371.56494
1.0	0.0	10.0	0.0	0.0	0.0	78.0	80.0	10.0	0.0	69.0	967.97	109.0	33.0	7.0	-996.0	1636887371.664762
1.0	0.0	10.0	0.0	0.0	0.0	78.0	80.0	10.0	0.0	69.0	968.0	109.0	35.0	7.0	-999.0	1636887371.767663
1.0	0.0	10.0	0.0	0.0	0.0	78.0	80.0	10.0	0.0	69.0	968.01	109.0	34.0	8.0	-998.0	1636887371.871681
1.0	0.0	10.0	0.0	0.0	0.0	78.0	80.0	10.0	0.0	69.0	967.96	109.0	33.0	7.0	-999.0	1636887371.97329
1.0	0.0	10.0	0.0	0.0	0.0	78.0	80.0	10.0	0.0	69.0	968.0	109.0	35.0	7.0	-997.0	1636887372.02218
1.0	0.0	10.0	0.0	0.0	0.0	77.0	80.0	10.0	0.0	69.0	967.98	109.0	35.0	7.0	-1000.0	1636887372.175664
1.0	0.0	10.0	0.0	0.0	0.0	77.0	80.0	10.0	0.0	69.0	967.95	109.0	35.0	7.0	-998.0	1636887372.228311
1.0	0.0	10.0	0.0	0.0	0.0	77.0	80.0	10.0	0.0	69.0	968.02	109.0	34.0	7.0	-998.0	1636887372.33091
1.0	0.0	10.0	0.0	0.0	0.0	77.0	80.0	10.0	0.0	69.0	968.03	109.0	34.0	8.0	-998.0	1636887372.429773
1.0	0.0	10.0	0.0	0.0	0.0	77.0	80.0	10.0	0.0	69.0	967.97	109.0	36.0	6.0	-999.0	1636887372.531554
1.0	0.0	10.0	0.0	0.0	0.0	77.0	80.0	10.0	0.0	69.0	967.95	109.0	34.0	5.0	-1000.0	1636887372.633588
1.0	0.0	10.0	0.0	0.0	0.0	77.0	80.0	10.0	0.0	69.0	968.03	109.0	35.0	7.0	-1001.0	1636887372.737943
1.0	0.0	10.0	0.0	0.0	0.0	77.0	80.0	10.0	0.0	69.0	968.02	109.0	33.0	8.0	-999.0	1636887372.838421
1.0	0.0	10.0	0.0	0.0	0.0	77.0	80.0	10.0	0.0	69.0	968.01	109.0	34.0	6.0	-997.0	1636887372.94274
1.0	0.0	10.0	0.0	0.0	0.0	77.0	80.0	10.0	0.0	69.0	967.99	109.0	36.0	8.0	-998.0	1636887373.041997
1.0	0.0	10.0	0.0	0.0	0.0	77.0	80.0	10.0	0.0	69.0	968.01	109.0	35.0	7.0	-997.0	1636887373.146468
1.0	0.0	10.0	0.0	0.0	0.0	77.0	80.0	10.0	0.0	69.0	967.96	109.0	34.0	8.0	-997.0	1636887373.247843
1.0	0.0	10.0	0.0	0.0	0.0	77.0	80.0	10.0	0.0	69.0	968.01	109.0	36.0	9.0	-1001.0	1636887373.349917
1.0	0.0	10.0	0.0	0.0	0.0	77.0	80.0	10.0	0.0	69.0	967.97	109.0	36.0	6.0	-1000.0	1636887373.449991
1.0	0.0	10.0	0.0	0.0	0.0	77.0	80.0	10.0	0.0	69.0	968.0	109.0	36.0	8.0	-997.0	1636887373.552265
1.0	0.0	10.0	0.0	0.0	0.0	77.0	80.0	10.0	0.0	69.0	968.02	109.0	33.0	9.0	-1001.0	1636887373.65436
1.0	0.0	10.0	0.0	0.0	0.0	77.0	80.0	10.0	0.0	69.0	967.96	109.0	35.0	8.0	-997.0	1636887373.757814
1.0	0.0	10.0	0.0	0.0	0.0	77.0	80.0	10.0	0.0	69.0	967.98	109.0	34.0	8.0	-999.0	1636887373.859188
1.0	0.0	10.0	0.0	0.0	0.0	77.0	80.0	10.0	0.0	69.0	968.0	109.0	34.0	7.0	-999.0	1636887373.962012
1.0	0.0	10.0	0.0	0.0	0.0	77.0	80.0	10.0	0.0	69.0	967.97	109.0	34.0	8.0	-998.0	1636887374.062222
1.0	0.0	10.0	0.0	0.0	0.0	76.0	80.0	10.0	0.0	69.0	968.05	109.0	33.0	6.0	-997.0	1636887374.164187
1.0	0.0	10.0	0.0	0.0	0.0	76.0	80.0	10.0	0.0	69.0	968.02	109.0	36.0	6.0	-998.0	1636887374.267029
1.0	0.0	10.0	0.0	0.0	0.0	76.0	80.0	10.0	0.0	69.0	967.96	109.0	35.0	7.0	-999.0	1636887374.370894
1.0	0.0	10.0	0.0	0.0	0.0	76.0	80.0	10.0	0.0	69.0	967.97	109.0	35.0	8.0	-1000.0	1636887374.469917
1.0	0.0	10.0	0.0	0.0	0.0	76.0	80.0	10.0	0.0	69.0	968.01	109.0	35.0	6.0	-999.0	1636887374.572381
1.0	0.0	10.0	0.0	0.0	0.0	76.0	80.0	10.0	0.0	69.0	967.98	109.0	34.0	7.0	-998.0	1636887374.673775
1.0	0.0	10.0	0.0	0.0	0.0	76.0	80.0	10.0	0.0	69.0	967.99	109.0	34.0	7.0	-998.0	1636887374.775615
1.0	0.0	10.0	0.0	0.0	0.0	76.0	80.0	10.0	0.0	69.0	968.04	109.0	34.0	7.0	-1000.0	1636887374.87967
1.0	0.0	10.0	0.0	0.0	0.0	76.0	80.0	10.0	0.0	69.0	968.03	109.0	35.0	7.0	-999.0	1636887374.9797
1.0	0.0	10.0	0.0	0.0	0.0	76.0	80.0	10.0	0.0	69.0	967.97	109.0	35.0	7.0	-999.0	1636887375.081873
1.0	0.0	10.0	0.0	0.0	0.0	77.0	80.0	10.0	0.0	69.0	967.99	109.0	34.0	7.0	-998.0	1636887375.184606
1.0	0.0	10.0	0.0	0.0	0.0	77.0	80.0	10.0	0.0	69.0	967.98	109.0	34.0	7.0	-997.0	1636887375.288483
1.0	0.0	10.0	0.0	0.0	0.0	77.0	80.0	10.0	0.0	69.0	967.99	109.0	34.0	7.0	-997.0	1636887375.390233
1.0	0.0	10.0	0.0	0.0	0.0	77.0	80.0	10.0	0.0	69.0	967.94	109.0	36.0	8.0	-998.0	1636887375.438172
1.0	0.0	10.0	0.0	0.0	0.0	77.0	80.0	10.0	0.0	69.0	967.94	109.0	34.0	7.0	-998.0	1636887375.542266
1.0	0.0	10.0	0.0	0.0	0.0	77.0	80.0	10.0	0.0	69.0	967.96	109.0	34.0	6.0	-997.0	1636887375.646561
1.0	0.0	10.0	0.0	0.0	0.0	77.0	80.0	10.0	0.0	69.0	967.95	109.0	34.0	6.0	-998.0	1636887375.744525
1.0	0.0	10.0	0.0	0.0	0.0	77.0	80.0	10.0	0.0	69.0	967.98	109.0	34.0	6.0	-997.0	1636887375.848762
1.0	0.0	10.0	0.0	0.0	0.0	77.0	80.0	10.0	0.0	69.0	967.95	109.0	34.0	6.0	-999.0	1636887375.948625
1.0	0.0	10.0	0.0	0.0	0.0	77.0	80.0	10.0	0.0	69.0	967.95	109.0	35.0	7.0	-1001.0	1636887376.053164
1.0	0.0	10.0	0.0	0.0	0.0	78.0	80.0	10.0	0.0	69.0	968.02	109.0	34.0	8.0	-1000.0	1636887376.154634
1.0	0.0	10.0	0.0	0.0	0.0	78.0	80.0	10.0	0.0	69.0	967.88	109.0	33.0	8.0	-1000.0	1636887376.254119
1.0	0.0	10.0	0.0	0.0	0.0	78.0	80.0	10.0	0.0	69.0	967.92	109.0	33.0	7.0	-998.0	1636887376.358834
1.0	0.0	10.0	0.0	0.0	0.0	78.0	80.0	10.0	0.0	69.0	967.93	109.0	34.0	7.0	-999.0	1636887376.460162
1.0	0.0	10.0	0.0	0.0	0.0	78.0	80.0	10.0	0.0	69.0	967.95	109.0	35.0	7.0	-1002.0	1636887376.560873
1.0	0.0	10.0	0.0	0.0	0.0	78.0	80.0	10.0	0.0	69.0	967.93	109.0	34.0	6.0	-999.0	1636887376.662535
1.0	0.0	10.0	0.0	0.0	0.0	78.0	80.0	10.0	0.0	69.0	967.94	109.0	34.0	7.0	-998.0	1636887376.766318
1.0	0.0	10.0	0.0	0.0	0.0	78.0	80.0	10.0	0.0	69.0	967.97	109.0	33.0	7.0	-998.0	1636887376.869687
1.0	0.0	10.0	0.0	0.0	0.0	78.0	80.0	10.0	0.0	69.0	967.93	109.0	36.0	8.0	-994.0	1636887376.968793
1.0	0.0	10.0	0.0	0.0	0.0	78.0	80.0	10.0	0.0	69.0	968.01	109.0	34.0	5.0	-997.0	1636887377.070089
1.0	0.0	10.0	0.0	0.0	0.0	78.0	80.0	10.0	0.0	69.0	967.96	109.0	34.0	7.0	-1001.0	1636887377.176801
1.0	0.0	10.0	0.0	0.0	0.0	78.0	80.0	10.0	0.0	69.0	967.95	109.0	33.0	9.0	-1000.0	1636887377.277684
1.0	0.0	10.0	0.0	0.0	0.0	78.0	80.0	10.0	0.0	69.0	967.92	109.0	35.0	7.0	-999.0	1636887377.376768
1.0	0.0	10.0	0.0	0.0	0.0	78.0	80.0	10.0	0.0	69.0	967.97	109.0	35.0	9.0	-1000.0	1636887377.480181
1.0	0.0	10.0	0.0	0.0	0.0	78.0	80.0	10.0	0.0	69.0	967.99	109.0	35.0	7.0	-1001.0	1636887377.579814
1.0	0.0	10.0	0.0	0.0	0.0	78.0	80.0	10.0	0.0	69.0	967.97	109.0	35.0	9.0	-995.0	1636887377.685504
1.0	0.0	10.0	0.0	0.0	0.0	78.0	80.0	10.0	0.0	69.0	967.99	109.0	33.0	8.0	-999.0	1636887377.786956
1.0	0.0	10.0	0.0	0.0	0.0	78.0	80.0	10.0	0.0	69.0	967.95	109.0	34.0	8.0	-999.0	1636887377.886823
1.0	0.0	10.0	0.0	0.0	0.0	78.0	80.0	10.0	0.0	69.0	967.98	109.0	33.0	8.0	-997.0	1636887377.992282
1.0	0.0	10.0	0.0	0.0	0.0	78.0	80.0	10.0	0.0	69.0	967.99	109.0	34.0	7.0	-1000.0	1636887378.09309
1.0	0.0	10.0	0.0	0.0	0.0	77.0	80.0	10.0	0.0	69.0	967.96	109.0	36.0	8.0	-999.0	1636887378.194187
1.0	0.0	10.0	0.0	0.0	0.0	77.0	80.0	10.0	0.0	69.0	967.99	109.0	35.0	8.0	-1002.0	1636887378.295381
2.0	0.0	10.0	0.0	0.0	0.0	77.0	80.0	10.0	0.0	69.0	967.98	109.0	35.0	7.0	-998.0	1636887378.398568
2.0	0.0	10.0	0.0	0.0	0.0	77.0	80.0	10.0	0.0	69.0	967.99	109.0	34.0	7.0	-998.0	1636887378.499401
2.0	0.0	10.0	0.0	0.0	0.0	77.0	80.0	10.0	0.0	69.0	967.95	109.0	34.0	6.0	-1000.0	1636887378.604674
1.0	0.0	10.0	0.0	0.0	0.0	77.0	80.0	10.0	0.0	69.0	967.94	109.0	35.0	8.0	-998.0	1636887378.655719
1.0	0.0	10.0	0.0	0.0	0.0	77.0	80.0	10.0	0.0	69.0	967.93	109.0	35.0	7.0	-997.0	1636887378.756079
1.0	0.0	10.0	0.0	0.0	0.0	77.0	80.0	10.0	0.0	69.0	967.97	109.0	35.0	8.0	-998.0	1636887378.859227
1.0	0.0	10.0	0.0	0.0	0.0	77.0	80.0	10.0	0.0	69.0	967.94	109.0	35.0	8.0	-1000.0	1636887378.963431
1.0	0.0	10.0	0.0	0.0	0.0	77.0	80.0	10.0	0.0	69.0	967.94	109.0	33.0	7.0	-998.0	1636887379.065048
1.0	0.0	10.0	0.0	0.0	0.0	77.0	79.0	10.0	0.0	69.0	967.99	109.0	35.0	9.0	-1000.0	1636887379.162819
1.0	0.0	10.0	0.0	0.0	0.0	77.0	79.0	10.0	0.0	69.0	967.92	109.0	35.0	7.0	-997.0	1636887379.264539
1.0	0.0	10.0	0.0	0.0	0.0	77.0	79.0	10.0	0.0	69.0	967.95	109.0	33.0	6.0	-1000.0	1636887379.373941
1.0	0.0	10.0	0.0	0.0	0.0	77.0	79.0	10.0	0.0	69.0	968.03	109.0	34.0	7.0	-999.0	1636887379.469254
1.0	0.0	10.0	0.0	0.0	0.0	77.0	79.0	10.0	0.0	69.0	967.94	109.0	35.0	8.0	-1000.0	1636887379.573594
1.0	0.0	10.0	0.0	0.0	0.0	77.0	79.0	10.0	0.0	69.0	967.96	109.0	35.0	10.0	-998.0	1636887379.675556
1.0	0.0	10.0	0.0	0.0	0.0	77.0	79.0	10.0	0.0	69.0	967.93	109.0	34.0	8.0	-997.0	1636887379.77757
1.0	0.0	10.0	0.0	0.0	0.0	77.0	79.0	10.0	0.0	69.0	967.96	109.0	35.0	9.0	-998.0	1636887379.878819
1.0	0.0	10.0	0.0	0.0	0.0	77.0	79.0	10.0	0.0	69.0	967.97	109.0	35.0	8.0	-996.0	1636887379.981464
1.0	0.0	10.0	0.0	0.0	0.0	77.0	79.0	10.0	0.0	69.0	967.96	109.0	33.0	9.0	-997.0	1636887380.082546
1.0	0.0	10.0	0.0	0.0	0.0	77.0	79.0	10.0	0.0	69.0	967.93	109.0	35.0	8.0	-1000.0	1636887380.183991
1.0	0.0	10.0	0.0	0.0	0.0	77.0	79.0	10.0	0.0	69.0	967.95	109.0	34.0	7.0	-998.0	1636887380.287525
1.0	0.0	10.0	0.0	0.0	0.0	77.0	79.0	10.0	0.0	68.0	967.95	109.0	35.0	7.0	-1000.0	1636887380.387065
1.0	0.0	10.0	0.0	0.0	0.0	77.0	79.0	10.0	0.0	68.0	967.9	109.0	35.0	8.0	-998.0	1636887380.491684
1.0	0.0	10.0	0.0	0.0	0.0	77.0	79.0	10.0	0.0	68.0	967.96	109.0	36.0	8.0	-998.0	1636887380.593123
1.0	0.0	10.0	0.0	0.0	0.0	77.0	79.0	10.0	0.0	68.0	967.94	109.0	34.0	8.0	-999.0	1636887380.694044
1.0	0.0	10.0	0.0	0.0	0.0	77.0	79.0	10.0	0.0	68.0	967.96	109.0	36.0	8.0	-1002.0	1636887380.79567
1.0	0.0	10.0	0.0	0.0	0.0	77.0	79.0	10.0	0.0	68.0	967.89	109.0	35.0	7.0	-997.0	1636887380.89618
1.0	0.0	10.0	0.0	0.0	0.0	77.0	79.0	10.0	0.0	68.0	967.96	109.0	36.0	6.0	-999.0	1636887380.999118
2.0	0.0	10.0	0.0	0.0	0.0	77.0	79.0	10.0	0.0	68.0	967.96	109.0	34.0	7.0	-999.0	1636887381.102018
2.0	0.0	10.0	0.0	0.0	0.0	77.0	79.0	10.0	0.0	68.0	967.95	109.0	35.0	8.0	-998.0	1636887381.203265
1.0	0.0	10.0	0.0	0.0	0.0	77.0	79.0	10.0	0.0	68.0	967.99	109.0	35.0	6.0	-997.0	1636887381.307968
1.0	0.0	10.0	0.0	0.0	0.0	77.0	79.0	10.0	0.0	68.0	967.98	109.0	35.0	6.0	-999.0	1636887381.408094
1.0	0.0	10.0	0.0	0.0	0.0	77.0	79.0	10.0	0.0	68.0	967.99	109.0	34.0	6.0	-997.0	1636887381.51165
1.0	0.0	10.0	0.0	0.0	0.0	77.0	79.0	10.0	0.0	68.0	967.94	109.0	35.0	8.0	-998.0	1636887381.713271
1.0	0.0	10.0	0.0	0.0	0.0	77.0	79.0	10.0	0.0	68.0	967.9	109.0	35.0	7.0	-1000.0	1636887381.713271
1.0	0.0	10.0	0.0	0.0	0.0	77.0	79.0	10.0	0.0	68.0	967.98	109.0	34.0	8.0	-999.0	1636887381.76814
1.0	0.0	10.0	0.0	0.0	0.0	77.0	79.0	10.0	0.0	68.0	967.98	109.0	36.0	8.0	-999.0	1636887381.866745
1.0	0.0	10.0	0.0	0.0	0.0	77.0	79.0	10.0	0.0	68.0	967.96	109.0	35.0	8.0	-1001.0	1636887381.969912
1.0	0.0	10.0	0.0	0.0	0.0	77.0	79.0	10.0	0.0	68.0	967.96	109.0	35.0	6.0	-1002.0	1636887382.072707
1.0	0.0	10.0	0.0	0.0	0.0	77.0	80.0	10.0	0.0	68.0	967.94	109.0	36.0	6.0	-996.0	1636887382.171733
1.0	0.0	10.0	0.0	0.0	0.0	77.0	80.0	10.0	0.0	68.0	967.92	109.0	33.0	7.0	-997.0	1636887382.276105
1.0	0.0	10.0	0.0	0.0	0.0	77.0	80.0	10.0	0.0	68.0	967.96	109.0	34.0	7.0	-998.0	1636887382.379482
1.0	0.0	10.0	0.0	0.0	0.0	77.0	80.0	10.0	0.0	68.0	967.93	109.0	34.0	8.0	-1001.0	1636887382.478327
1.0	0.0	10.0	0.0	0.0	0.0	77.0	80.0	10.0	0.0	68.0	967.96	109.0	34.0	8.0	-1001.0	1636887382.57967
1.0	0.0	10.0	0.0	0.0	0.0	77.0	80.0	10.0	0.0	68.0	967.96	109.0	34.0	8.0	-999.0	1636887382.682981
1.0	0.0	10.0	0.0	0.0	0.0	77.0	80.0	10.0	0.0	68.0	967.95	109.0	35.0	8.0	-997.0	1636887382.786034
1.0	0.0	10.0	0.0	0.0	0.0	77.0	80.0	10.0	0.0	68.0	967.94	109.0	33.0	8.0	-1000.0	1636887382.887717
1.0	0.0	10.0	0.0	0.0	0.0	77.0	80.0	10.0	0.0	68.0	967.98	109.0	34.0	8.0	-998.0	1636887382.988391
1.0	0.0	10.0	0.0	0.0	0.0	77.0	80.0	10.0	0.0	68.0	967.93	109.0	33.0	9.0	-1000.0	1636887383.09225
1.0	0.0	10.0	0.0	0.0	0.0	78.0	79.0	10.0	0.0	68.0	967.96	109.0	34.0	7.0	-999.0	1636887383.195668
1.0	0.0	10.0	0.0	0.0	0.0	78.0	79.0	10.0	0.0	68.0	967.98	109.0	35.0	7.0	-1000.0	1636887383.297122
1.0	0.0	10.0	0.0	0.0	0.0	78.0	79.0	10.0	0.0	68.0	967.94	109.0	35.0	7.0	-999.0	1636887383.398396
1.0	0.0	10.0	0.0	0.0	0.0	78.0	79.0	10.0	0.0	68.0	967.93	109.0	35.0	8.0	-999.0	1636887383.49871
1.0	0.0	10.0	0.0	0.0	0.0	78.0	79.0	10.0	0.0	68.0	967.92	109.0	33.0	7.0	-996.0	1636887383.601869
2.0	0.0	10.0	0.0	0.0	0.0	78.0	79.0	10.0	0.0	68.0	967.96	109.0	35.0	7.0	-999.0	1636887383.702644
2.0	0.0	10.0	0.0	0.0	0.0	78.0	79.0	10.0	0.0	68.0	967.93	109.0	33.0	7.0	-999.0	1636887383.807209
1.0	0.0	10.0	0.0	0.0	0.0	78.0	79.0	10.0	0.0	68.0	967.95	109.0	35.0	7.0	-999.0	1636887383.906654
2.0	0.0	10.0	0.0	0.0	0.0	78.0	79.0	10.0	0.0	68.0	967.96	109.0	33.0	7.0	-998.0	1636887384.009056
1.0	0.0	10.0	0.0	0.0	0.0	78.0	79.0	10.0	0.0	68.0	967.94	109.0	34.0	6.0	-999.0	1636887384.110754
1.0	0.0	10.0	0.0	0.0	0.0	78.0	80.0	10.0	0.0	68.0	967.92	109.0	35.0	7.0	-1001.0	1636887384.215593
1.0	0.0	10.0	0.0	0.0	0.0	78.0	80.0	10.0	0.0	68.0	967.91	109.0	35.0	6.0	-999.0	1636887384.31476
1.0	0.0	10.0	0.0	0.0	0.0	78.0	80.0	10.0	0.0	68.0	967.96	109.0	36.0	10.0	-999.0	1636887384.418953
1.0	0.0	10.0	0.0	0.0	0.0	78.0	80.0	10.0	0.0	68.0	967.98	109.0	35.0	7.0	-999.0	1636887384.519919
1.0	0.0	10.0	0.0	0.0	0.0	78.0	80.0	10.0	0.0	68.0	967.98	109.0	35.0	7.0	-1000.0	1636887384.621892
1.0	0.0	10.0	0.0	0.0	0.0	78.0	80.0	10.0	0.0	68.0	967.96	109.0	34.0	8.0	-998.0	1636887384.72399
1.0	0.0	10.0	0.0	0.0	0.0	78.0	80.0	10.0	0.0	68.0	967.96	109.0	34.0	7.0	-1000.0	1636887384.824174
1.0	0.0	10.0	0.0	0.0	0.0	78.0	80.0	10.0	0.0	68.0	967.92	109.0	35.0	7.0	-998.0	1636887384.925581
1.0	0.0	10.0	0.0	0.0	0.0	78.0	80.0	10.0	0.0	68.0	967.95	109.0	35.0	8.0	-999.0	1636887385.028544
1.0	0.0	10.0	0.0	0.0	0.0	78.0	80.0	10.0	0.0	68.0	967.95	109.0	34.0	7.0	-997.0	1636887385.133261
1.0	0.0	10.0	0.0	0.0	0.0	77.0	80.0	10.0	0.0	68.0	967.96	109.0	35.0	8.0	-996.0	1636887385.233384
1.0	0.0	10.0	0.0	0.0	0.0	77.0	80.0	10.0	0.0	68.0	967.95	109.0	34.0	8.0	-998.0	1636887385.336401
1.0	0.0	10.0	0.0	0.0	0.0	77.0	80.0	10.0	0.0	68.0	967.99	109.0	34.0	6.0	-1000.0	1636887385.3878
1.0	0.0	10.0	0.0	0.0	0.0	77.0	80.0	10.0	0.0	68.0	967.93	109.0	34.0	7.0	-1001.0	1636887385.486531
1.0	0.0	10.0	0.0	0.0	0.0	77.0	80.0	10.0	0.0	68.0	967.94	109.0	33.0	8.0	-999.0	1636887385.591107
1.0	0.0	10.0	0.0	0.0	0.0	77.0	80.0	10.0	0.0	68.0	967.96	109.0	33.0	7.0	-997.0	1636887385.69064
1.0	0.0	10.0	0.0	0.0	0.0	77.0	80.0	10.0	0.0	68.0	967.93	109.0	34.0	7.0	-1000.0	1636887385.793238
1.0	0.0	10.0	0.0	0.0	0.0	77.0	80.0	10.0	0.0	68.0	967.95	109.0	35.0	8.0	-998.0	1636887385.896327
1.0	0.0	10.0	0.0	0.0	0.0	77.0	80.0	10.0	0.0	68.0	967.94	109.0	34.0	7.0	-999.0	1636887385.997656
1.0	0.0	10.0	0.0	0.0	0.0	77.0	80.0	10.0	0.0	68.0	967.93	109.0	34.0	8.0	-997.0	1636887386.102304
1.0	0.0	10.0	0.0	0.0	0.0	77.0	79.0	10.0	0.0	68.0	967.94	109.0	34.0	7.0	-998.0	1636887386.204126
1.0	0.0	10.0	0.0	0.0	0.0	77.0	79.0	10.0	0.0	68.0	967.96	109.0	33.0	8.0	-999.0	1636887386.305267
1.0	0.0	10.0	0.0	0.0	0.0	77.0	79.0	10.0	0.0	68.0	967.97	109.0	34.0	7.0	-997.0	1636887386.40826
1.0	0.0	10.0	0.0	0.0	0.0	77.0	79.0	10.0	0.0	68.0	967.92	109.0	35.0	10.0	-998.0	1636887386.507415
1.0	0.0	10.0	0.0	0.0	0.0	77.0	79.0	10.0	0.0	68.0	967.93	109.0	33.0	7.0	-999.0	1636887386.61258
1.0	0.0	10.0	0.0	0.0	0.0	77.0	79.0	10.0	0.0	68.0	967.93	109.0	35.0	6.0	-1001.0	1636887386.711403
1.0	0.0	10.0	0.0	0.0	0.0	77.0	79.0	10.0	0.0	68.0	967.92	109.0	34.0	8.0	-999.0	1636887386.814186
1.0	0.0	10.0	0.0	0.0	0.0	77.0	79.0	10.0	0.0	68.0	967.91	109.0	34.0	7.0	-1000.0	1636887386.916944
1.0	0.0	10.0	0.0	0.0	0.0	77.0	79.0	10.0	0.0	68.0	967.99	109.0	33.0	8.0	-998.0	1636887387.02007
1.0	0.0	10.0	0.0	0.0	0.0	77.0	79.0	10.0	0.0	68.0	967.94	109.0	34.0	9.0	-998.0	1636887387.121276
1.0	0.0	10.0	0.0	0.0	0.0	77.0	80.0	10.0	0.0	68.0	967.98	109.0	34.0	6.0	-998.0	1636887387.223969
1.0	0.0	10.0	0.0	0.0	0.0	77.0	80.0	10.0	0.0	68.0	967.98	109.0	34.0	8.0	-998.0	1636887387.325081
1.0	0.0	10.0	0.0	0.0	0.0	77.0	80.0	10.0	0.0	68.0	967.94	109.0	34.0	9.0	-1000.0	1636887387.425148
1.0	0.0	10.0	0.0	0.0	0.0	77.0	80.0	10.0	0.0	68.0	967.94	109.0	35.0	8.0	-998.0	1636887387.527717
1.0	0.0	10.0	0.0	0.0	0.0	77.0	80.0	10.0	0.0	68.0	967.99	109.0	33.0	8.0	-1000.0	1636887387.629319
1.0	0.0	10.0	0.0	0.0	0.0	77.0	80.0	10.0	0.0	68.0	967.93	109.0	35.0	8.0	-999.0	1636887387.731632
1.0	0.0	10.0	0.0	0.0	0.0	77.0	80.0	10.0	0.0	68.0	967.96	109.0	34.0	6.0	-998.0	1636887387.834785
1.0	0.0	10.0	0.0	0.0	0.0	77.0	80.0	10.0	0.0	68.0	967.94	109.0	34.0	8.0	-1000.0	1636887387.938127
1.0	0.0	10.0	0.0	0.0	0.0	77.0	80.0	10.0	0.0	68.0	967.93	109.0	33.0	7.0	-998.0	1636887388.037148
1.0	0.0	10.0	0.0	0.0	0.0	77.0	80.0	10.0	0.0	68.0	967.94	109.0	33.0	6.0	-997.0	1636887388.140025
1.0	0.0	10.0	0.0	0.0	0.0	77.0	79.0	10.0	0.0	68.0	967.95	109.0	34.0	6.0	-998.0	1636887388.241346
1.0	0.0	10.0	0.0	0.0	0.0	77.0	79.0	10.0	0.0	68.0	967.96	109.0	34.0	7.0	-997.0	1636887388.344491
1.0	0.0	10.0	0.0	0.0	0.0	77.0	79.0	10.0	0.0	68.0	967.96	109.0	35.0	6.0	-1000.0	1636887388.445942
1.0	0.0	10.0	0.0	0.0	0.0	77.0	79.0	10.0	0.0	68.0	967.95	109.0	34.0	8.0	-998.0	1636887388.550481
1.0	0.0	10.0	0.0	0.0	0.0	77.0	79.0	10.0	0.0	68.0	967.91	109.0	34.0	7.0	-1000.0	1636887388.597435
1.0	0.0	10.0	0.0	0.0	0.0	77.0	79.0	10.0	0.0	68.0	967.95	109.0	34.0	8.0	-1000.0	1636887388.699564
1.0	0.0	10.0	0.0	0.0	0.0	77.0	79.0	10.0	0.0	68.0	967.92	109.0	35.0	6.0	-1000.0	1636887388.803475
1.0	0.0	10.0	0.0	0.0	0.0	77.0	79.0	10.0	0.0	68.0	968.0	109.0	35.0	7.0	-1000.0	1636887388.906315
1.0	0.0	10.0	0.0	0.0	0.0	77.0	79.0	10.0	0.0	68.0	967.93	109.0	36.0	8.0	-998.0	1636887389.005517
1.0	0.0	10.0	0.0	0.0	0.0	77.0	79.0	10.0	0.0	68.0	967.93	109.0	34.0	6.0	-998.0	1636887389.107635
1.0	0.0	10.0	0.0	0.0	0.0	77.0	79.0	10.0	0.0	68.0	967.98	109.0	34.0	6.0	-995.0	1636887389.213412
1.0	0.0	10.0	0.0	0.0	0.0	77.0	79.0	10.0	0.0	68.0	967.98	109.0	36.0	8.0	-1002.0	1636887389.312533
1.0	0.0	10.0	0.0	0.0	0.0	77.0	79.0	10.0	0.0	68.0	967.91	109.0	35.0	7.0	-1000.0	1636887389.416306
1.0	0.0	10.0	0.0	0.0	0.0	77.0	79.0	10.0	0.0	68.0	967.91	109.0	34.0	8.0	-998.0	1636887389.519059
1.0	0.0	10.0	0.0	0.0	0.0	77.0	79.0	10.0	0.0	68.0	967.93	109.0	34.0	8.0	-1001.0	1636887389.617722
1.0	0.0	10.0	0.0	0.0	0.0	77.0	79.0	10.0	0.0	68.0	967.93	109.0	35.0	8.0	-1000.0	1636887389.723093
1.0	0.0	10.0	0.0	0.0	0.0	77.0	79.0	10.0	0.0	68.0	967.93	109.0	36.0	7.0	-1001.0	1636887389.82211
1.0	0.0	10.0	0.0	0.0	0.0	77.0	79.0	10.0	0.0	68.0	967.94	109.0	33.0	7.0	-999.0	1636887389.92403
1.0	0.0	10.0	0.0	0.0	0.0	77.0	79.0	10.0	0.0	68.0	967.9	109.0	35.0	6.0	-999.0	1636887390.028628
1.0	0.0	10.0	0.0	0.0	0.0	77.0	79.0	10.0	0.0	68.0	967.94	109.0	35.0	7.0	-1000.0	1636887390.130218
1.0	0.0	10.0	0.0	0.0	0.0	77.0	79.0	10.0	0.0	68.0	967.97	109.0	34.0	9.0	-1001.0	1636887390.233301
1.0	0.0	10.0	0.0	0.0	0.0	77.0	79.0	10.0	0.0	68.0	967.92	109.0	32.0	7.0	-999.0	1636887390.331973
1.0	0.0	10.0	0.0	0.0	0.0	77.0	79.0	10.0	0.0	68.0	967.93	109.0	33.0	7.0	-999.0	1636887390.436812
1.0	0.0	10.0	0.0	0.0	0.0	77.0	79.0	10.0	0.0	68.0	967.98	109.0	35.0	7.0	-1000.0	1636887390.538319
1.0	0.0	10.0	0.0	0.0	0.0	77.0	79.0	10.0	0.0	68.0	967.93	109.0	34.0	10.0	-998.0	1636887390.637564
1.0	0.0	10.0	0.0	0.0	0.0	77.0	79.0	10.0	0.0	68.0	967.93	109.0	34.0	8.0	-1000.0	1636887390.739095
1.0	0.0	10.0	0.0	0.0	0.0	77.0	79.0	10.0	0.0	68.0	967.89	109.0	34.0	8.0	-998.0	1636887390.843461
1.0	0.0	10.0	0.0	0.0	0.0	77.0	79.0	10.0	0.0	68.0	967.93	109.0	34.0	7.0	-998.0	1636887390.946445
1.0	0.0	10.0	0.0	0.0	0.0	77.0	79.0	10.0	0.0	68.0	967.93	109.0	35.0	9.0	-998.0	1636887391.048248
1.0	0.0	10.0	0.0	0.0	0.0	77.0	79.0	10.0	0.0	68.0	967.92	109.0	34.0	8.0	-998.0	1636887391.148064
2.0	0.0	10.0	0.0	0.0	0.0	78.0	80.0	10.0	0.0	68.0	967.93	109.0	35.0	7.0	-999.0	1636887391.252926
1.0	0.0	10.0	0.0	0.0	0.0	78.0	80.0	10.0	0.0	68.0	967.94	109.0	34.0	8.0	-1000.0	1636887391.354069
2.0	0.0	10.0	0.0	0.0	0.0	78.0	80.0	10.0	0.0	68.0	967.93	109.0	36.0	7.0	-998.0	1636887391.454402
2.0	0.0	10.0	0.0	0.0	0.0	78.0	80.0	10.0	0.0	68.0	967.93	109.0	35.0	7.0	-999.0	1636887391.555884
1.0	0.0	10.0	0.0	0.0	0.0	78.0	80.0	10.0	0.0	68.0	967.93	109.0	34.0	8.0	-1001.0	1636887391.660535
2.0	0.0	10.0	0.0	0.0	0.0	78.0	80.0	10.0	0.0	68.0	967.91	109.0	36.0	8.0	-999.0	1636887391.76214
1.0	0.0	10.0	0.0	0.0	0.0	78.0	80.0	10.0	0.0	68.0	967.96	109.0	35.0	7.0	-1002.0	1636887391.862643
2.0	0.0	10.0	0.0	0.0	0.0	78.0	80.0	10.0	0.0	68.0	967.87	109.0	35.0	9.0	-999.0	1636887391.967241
2.0	0.0	10.0	0.0	0.0	0.0	78.0	80.0	10.0	0.0	68.0	967.96	109.0	34.0	7.0	-999.0	1636887392.066504
2.0	0.0	10.0	0.0	0.0	0.0	78.0	80.0	10.0	0.0	68.0	967.94	109.0	35.0	7.0	-999.0	1636887392.118443
2.0	0.0	10.0	0.0	0.0	0.0	78.0	81.0	10.0	0.0	68.0	967.92	109.0	34.0	8.0	-999.0	1636887392.274813
2.0	0.0	10.0	0.0	0.0	0.0	78.0	81.0	10.0	0.0	68.0	967.92	109.0	35.0	8.0	-998.0	1636887392.321446
2.0	0.0	10.0	0.0	0.0	0.0	78.0	81.0	10.0	0.0	68.0	967.93	109.0	36.0	8.0	-998.0	1636887392.425833
2.0	0.0	10.0	0.0	0.0	0.0	78.0	81.0	10.0	0.0	68.0	967.89	109.0	35.0	8.0	-998.0	1636887392.524568
2.0	0.0	10.0	0.0	0.0	0.0	78.0	81.0	10.0	0.0	68.0	967.93	109.0	35.0	6.0	-998.0	1636887392.628293
2.0	0.0	10.0	0.0	0.0	0.0	78.0	81.0	10.0	0.0	68.0	967.94	109.0	34.0	9.0	-996.0	1636887392.731909
2.0	0.0	10.0	0.0	0.0	0.0	78.0	81.0	10.0	0.0	68.0	967.94	109.0	34.0	8.0	-997.0	1636887392.830864
2.0	0.0	10.0	0.0	0.0	0.0	78.0	81.0	10.0	0.0	68.0	967.97	109.0	34.0	7.0	-998.0	1636887392.935374
2.0	0.0	10.0	0.0	0.0	0.0	78.0	81.0	10.0	0.0	68.0	967.94	109.0	33.0	8.0	-999.0	1636887393.036643
2.0	0.0	10.0	0.0	0.0	0.0	78.0	81.0	10.0	0.0	68.0	967.94	109.0	33.0	8.0	-999.0	1636887393.084791
2.0	0.0	10.0	0.0	0.0	0.0	78.0	81.0	10.0	0.0	68.0	967.92	109.0	34.0	8.0	-999.0	1636887393.138688
2.0	0.0	10.0	0.0	0.0	0.0	78.0	79.0	10.0	0.0	68.0	967.97	109.0	34.0	7.0	-997.0	1636887393.242175
2.0	0.0	10.0	0.0	0.0	0.0	78.0	79.0	10.0	0.0	68.0	967.93	109.0	35.0	8.0	-1001.0	1636887393.342127
2.0	0.0	10.0	0.0	0.0	0.0	78.0	79.0	10.0	0.0	68.0	967.86	109.0	36.0	8.0	-999.0	1636887393.442561
2.0	0.0	10.0	0.0	0.0	0.0	78.0	79.0	10.0	0.0	68.0	967.87	109.0	33.0	7.0	-998.0	1636887393.545721
2.0	0.0	10.0	0.0	0.0	0.0	78.0	79.0	10.0	0.0	68.0	967.9	109.0	33.0	8.0	-1000.0	1636887393.646325
2.0	0.0	10.0	0.0	0.0	0.0	78.0	79.0	10.0	0.0	68.0	967.95	109.0	33.0	8.0	-998.0	1636887393.74915
2.0	0.0	10.0	0.0	0.0	0.0	78.0	79.0	10.0	0.0	68.0	967.93	109.0	35.0	8.0	-998.0	1636887393.85017
2.0	0.0	10.0	0.0	0.0	0.0	78.0	79.0	10.0	0.0	68.0	968.0	109.0	33.0	7.0	-999.0	1636887393.955911
2.0	0.0	10.0	0.0	0.0	0.0	78.0	79.0	10.0	0.0	68.0	967.91	109.0	34.0	8.0	-999.0	1636887394.055905
2.0	0.0	10.0	0.0	0.0	0.0	78.0	79.0	10.0	0.0	68.0	967.95	109.0	35.0	7.0	-1001.0	1636887394.159155
2.0	0.0	10.0	0.0	0.0	0.0	77.0	80.0	10.0	0.0	68.0	967.93	109.0	34.0	9.0	-997.0	1636887394.258727
2.0	0.0	10.0	0.0	0.0	0.0	77.0	80.0	10.0	0.0	68.0	967.96	109.0	34.0	8.0	-996.0	1636887394.363852
2.0	0.0	10.0	0.0	0.0	0.0	77.0	80.0	10.0	0.0	68.0	967.92	109.0	34.0	8.0	-999.0	1636887394.465904
2.0	0.0	10.0	0.0	0.0	0.0	77.0	80.0	10.0	0.0	68.0	967.94	109.0	33.0	8.0	-998.0	1636887394.56881
2.0	0.0	10.0	0.0	0.0	0.0	77.0	80.0	10.0	0.0	68.0	968.01	109.0	34.0	8.0	-999.0	1636887394.66645
2.0	0.0	10.0	0.0	0.0	0.0	77.0	80.0	10.0	0.0	68.0	967.93	109.0	34.0	7.0	-1000.0	1636887394.769505
2.0	0.0	10.0	0.0	0.0	0.0	77.0	80.0	10.0	0.0	68.0	967.91	109.0	35.0	8.0	-997.0	1636887394.87123
2.0	0.0	10.0	0.0	0.0	0.0	77.0	80.0	10.0	0.0	68.0	967.95	109.0	34.0	8.0	-997.0	1636887394.972821
2.0	0.0	10.0	0.0	0.0	0.0	77.0	80.0	10.0	0.0	68.0	967.93	109.0	33.0	8.0	-999.0	1636887395.07523
2.0	0.0	10.0	0.0	0.0	0.0	77.0	80.0	10.0	0.0	68.0	967.9	109.0	33.0	8.0	-999.0	1636887395.176139
2.0	0.0	10.0	0.0	0.0	0.0	77.0	80.0	10.0	0.0	68.0	967.96	109.0	33.0	9.0	-1001.0	1636887395.278284
2.0	0.0	10.0	0.0	0.0	0.0	77.0	80.0	10.0	0.0	68.0	967.9	109.0	33.0	9.0	-1000.0	1636887395.383602
2.0	0.0	10.0	0.0	0.0	0.0	77.0	80.0	10.0	0.0	68.0	967.93	109.0	34.0	8.0	-999.0	1636887395.482254
2.0	0.0	10.0	0.0	0.0	0.0	77.0	80.0	10.0	0.0	68.0	967.98	109.0	34.0	7.0	-999.0	1636887395.53499
2.0	0.0	10.0	0.0	0.0	0.0	77.0	80.0	10.0	0.0	68.0	967.97	109.0	35.0	8.0	-999.0	1636887395.640089
2.0	0.0	10.0	0.0	0.0	0.0	77.0	80.0	10.0	0.0	68.0	967.93	109.0	34.0	7.0	-1001.0	1636887395.742518
2.0	0.0	10.0	0.0	0.0	0.0	77.0	80.0	10.0	0.0	68.0	968.0	109.0	33.0	7.0	-1003.0	1636887395.842407
2.0	0.0	10.0	0.0	0.0	0.0	77.0	80.0	10.0	0.0	68.0	967.92	109.0	33.0	7.0	-1001.0	1636887395.945768
2.0	0.0	10.0	0.0	0.0	0.0	77.0	80.0	10.0	0.0	68.0	967.9	109.0	33.0	8.0	-1000.0	1636887396.046867
2.0	0.0	10.0	0.0	0.0	0.0	77.0	80.0	10.0	0.0	68.0	967.91	109.0	35.0	8.0	-999.0	1636887396.146876
2.0	0.0	10.0	0.0	0.0	0.0	77.0	80.0	10.0	0.0	68.0	968.0	109.0	33.0	9.0	-999.0	1636887396.250687
2.0	0.0	10.0	0.0	0.0	0.0	77.0	80.0	10.0	0.0	68.0	967.97	109.0	34.0	8.0	-999.0	1636887396.351183
2.0	0.0	10.0	0.0	0.0	0.0	77.0	80.0	10.0	0.0	68.0	967.93	109.0	32.0	6.0	-998.0	1636887396.451468
2.0	0.0	10.0	0.0	0.0	0.0	77.0	80.0	10.0	0.0	68.0	967.92	109.0	35.0	7.0	-1000.0	1636887396.555901
2.0	0.0	10.0	0.0	0.0	0.0	77.0	80.0	10.0	0.0	68.0	967.92	109.0	34.0	7.0	-998.0	1636887396.658754
2.0	0.0	10.0	0.0	0.0	0.0	77.0	80.0	10.0	0.0	68.0	967.94	109.0	35.0	7.0	-999.0	1636887396.758474
2.0	0.0	10.0	0.0	0.0	0.0	77.0	80.0	10.0	0.0	68.0	967.94	109.0	34.0	8.0	-999.0	1636887396.862609
2.0	0.0	10.0	0.0	0.0	0.0	77.0	80.0	10.0	0.0	68.0	967.96	109.0	34.0	6.0	-998.0	1636887396.963469
2.0	0.0	10.0	0.0	0.0	0.0	77.0	80.0	10.0	0.0	68.0	967.95	109.0	33.0	7.0	-999.0	1636887397.065839
2.0	0.0	10.0	0.0	0.0	0.0	77.0	80.0	10.0	0.0	68.0	967.9	109.0	36.0	7.0	-999.0	1636887397.164605
2.0	0.0	10.0	0.0	0.0	0.0	78.0	80.0	10.0	0.0	68.0	967.93	109.0	34.0	5.0	-1003.0	1636887397.268511
2.0	0.0	10.0	0.0	0.0	0.0	78.0	80.0	10.0	0.0	68.0	967.88	109.0	33.0	6.0	-997.0	1636887397.372356
2.0	0.0	10.0	0.0	0.0	0.0	78.0	80.0	10.0	0.0	68.0	967.85	109.0	35.0	7.0	-998.0	1636887397.473305
2.0	0.0	10.0	0.0	0.0	0.0	78.0	80.0	10.0	0.0	68.0	967.95	109.0	34.0	8.0	-1000.0	1636887397.576645
2.0	0.0	10.0	0.0	0.0	0.0	78.0	80.0	10.0	0.0	68.0	967.9	109.0	34.0	8.0	-999.0	1636887397.679149
2.0	0.0	10.0	0.0	0.0	0.0	78.0	80.0	10.0	0.0	68.0	967.9	109.0	34.0	8.0	-997.0	1636887397.778101
2.0	0.0	10.0	0.0	0.0	0.0	78.0	80.0	10.0	0.0	68.0	967.99	109.0	34.0	7.0	-1000.0	1636887397.882617
2.0	0.0	10.0	0.0	0.0	0.0	78.0	80.0	10.0	0.0	68.0	967.91	109.0	34.0	8.0	-1000.0	1636887397.983315
2.0	0.0	10.0	0.0	0.0	0.0	78.0	80.0	10.0	0.0	68.0	967.94	109.0	33.0	7.0	-1002.0	1636887398.085312
2.0	0.0	10.0	0.0	0.0	0.0	78.0	80.0	10.0	0.0	68.0	967.92	109.0	33.0	8.0	-999.0	1636887398.188139
2.0	0.0	10.0	0.0	0.0	0.0	78.0	80.0	10.0	0.0	68.0	967.92	109.0	35.0	8.0	-1001.0	1636887398.286802
2.0	0.0	10.0	0.0	0.0	0.0	78.0	80.0	10.0	0.0	68.0	967.89	109.0	32.0	6.0	-997.0	1636887398.392621
2.0	0.0	10.0	0.0	0.0	0.0	78.0	80.0	10.0	0.0	68.0	967.87	109.0	35.0	9.0	-1000.0	1636887398.49362
2.0	0.0	10.0	0.0	0.0	0.0	78.0	80.0	10.0	0.0	68.0	967.96	109.0	36.0	6.0	-999.0	1636887398.59441
2.0	0.0	10.0	0.0	0.0	0.0	78.0	80.0	10.0	0.0	68.0	967.92	109.0	34.0	8.0	-1000.0	1636887398.698628
2.0	0.0	10.0	0.0	0.0	0.0	78.0	80.0	10.0	0.0	68.0	967.86	109.0	34.0	8.0	-997.0	1636887398.797907
2.0	0.0	10.0	0.0	0.0	0.0	78.0	80.0	10.0	0.0	68.0	967.87	109.0	33.0	8.0	-1000.0	1636887398.90213
2.0	0.0	10.0	0.0	0.0	0.0	78.0	80.0	10.0	0.0	68.0	967.92	109.0	34.0	6.0	-998.0	1636887398.95347
2.0	0.0	10.0	0.0	0.0	0.0	78.0	80.0	10.0	0.0	68.0	967.88	109.0	34.0	7.0	-999.0	1636887399.055205
2.0	0.0	10.0	0.0	0.0	0.0	78.0	80.0	10.0	0.0	68.0	967.92	109.0	35.0	9.0	-999.0	1636887399.154704
2.0	0.0	10.0	0.0	0.0	0.0	77.0	80.0	10.0	0.0	68.0	967.9	109.0	33.0	7.0	-999.0	1636887399.25986
1.0	0.0	10.0	0.0	0.0	0.0	77.0	80.0	10.0	0.0	68.0	967.92	109.0	34.0	9.0	-1001.0	1636887399.360938
1.0	0.0	10.0	0.0	0.0	0.0	77.0	80.0	10.0	0.0	68.0	967.92	109.0	33.0	8.0	-1001.0	1636887399.461241
1.0	0.0	10.0	0.0	0.0	0.0	77.0	80.0	10.0	0.0	68.0	967.94	109.0	34.0	7.0	-1001.0	1636887399.561801
1.0	0.0	10.0	0.0	0.0	0.0	77.0	80.0	10.0	0.0	68.0	967.91	109.0	34.0	7.0	-998.0	1636887399.668235
1.0	0.0	10.0	0.0	0.0	0.0	77.0	80.0	10.0	0.0	68.0	967.9	109.0	33.0	8.0	-998.0	1636887399.768888
1.0	0.0	10.0	0.0	0.0	0.0	77.0	80.0	10.0	0.0	68.0	967.9	109.0	35.0	7.0	-997.0	1636887399.868757
1.0	0.0	10.0	0.0	0.0	0.0	77.0	80.0	10.0	0.0	68.0	967.88	109.0	35.0	8.0	-997.0	1636887399.971833
1.0	0.0	10.0	0.0	0.0	0.0	77.0	80.0	10.0	0.0	68.0	967.93	109.0	35.0	6.0	-998.0	1636887400.075478
1.0	0.0	10.0	0.0	0.0	0.0	77.0	80.0	10.0	0.0	68.0	967.93	109.0	35.0	6.0	-998.0	1636887400.175082
1.0	0.0	10.0	0.0	0.0	0.0	77.0	80.0	10.0	0.0	68.0	967.93	109.0	34.0	8.0	-1000.0	1636887400.17765
1.0	0.0	10.0	0.0	0.0	0.0	77.0	80.0	10.0	0.0	68.0	967.94	109.0	35.0	7.0	-999.0	1636887400.275726
1.0	0.0	10.0	0.0	0.0	0.0	77.0	80.0	10.0	0.0	68.0	967.95	109.0	34.0	7.0	-996.0	1636887400.378262
1.0	0.0	10.0	0.0	0.0	0.0	77.0	80.0	10.0	0.0	68.0	967.95	109.0	35.0	7.0	-998.0	1636887400.482904
1.0	0.0	10.0	0.0	0.0	0.0	77.0	80.0	10.0	0.0	68.0	967.98	109.0	35.0	8.0	-998.0	1636887400.583417
1.0	0.0	10.0	0.0	0.0	0.0	77.0	80.0	10.0	0.0	68.0	967.93	109.0	34.0	8.0	-1000.0	1636887400.6849
1.0	0.0	10.0	0.0	0.0	0.0	77.0	80.0	10.0	0.0	68.0	967.9	109.0	34.0	7.0	-998.0	1636887400.789705
1.0	0.0	10.0	0.0	0.0	0.0	77.0	80.0	10.0	0.0	68.0	967.9	109.0	34.0	7.0	-998.0	1636887400.789705
1.0	0.0	10.0	0.0	0.0	0.0	77.0	80.0	10.0	0.0	68.0	967.94	109.0	33.0	9.0	-999.0	1636887400.887764
1.0	0.0	10.0	0.0	0.0	0.0	77.0	80.0	10.0	0.0	68.0	967.93	109.0	33.0	7.0	-1001.0	1636887400.991556
1.0	0.0	10.0	0.0	0.0	0.0	77.0	80.0	10.0	0.0	68.0	967.91	109.0	33.0	6.0	-997.0	1636887401.095305
1.0	0.0	10.0	0.0	0.0	0.0	77.0	80.0	10.0	0.0	68.0	967.93	109.0	34.0	7.0	-997.0	1636887401.195592
1.0	0.0	10.0	0.0	0.0	0.0	77.0	79.0	10.0	0.0	68.0	967.89	109.0	33.0	8.0	-1000.0	1636887401.29724
1.0	0.0	10.0	0.0	0.0	0.0	77.0	79.0	10.0	0.0	68.0	967.97	109.0	34.0	7.0	-999.0	1636887401.400418
1.0	0.0	10.0	0.0	0.0	0.0	77.0	79.0	10.0	0.0	68.0	967.9	109.0	33.0	7.0	-998.0	1636887401.503725
1.0	0.0	10.0	0.0	0.0	0.0	77.0	79.0	10.0	0.0	68.0	967.9	109.0	34.0	8.0	-1002.0	1636887401.604888
1.0	0.0	10.0	0.0	0.0	0.0	77.0	79.0	10.0	0.0	68.0	967.94	109.0	34.0	7.0	-1001.0	1636887401.704214
1.0	0.0	10.0	0.0	0.0	0.0	77.0	79.0	10.0	0.0	68.0	967.95	109.0	34.0	7.0	-997.0	1636887401.80723
1.0	0.0	10.0	0.0	0.0	0.0	77.0	79.0	10.0	0.0	68.0	967.97	109.0	34.0	7.0	-999.0	1636887401.908914
1.0	0.0	10.0	0.0	0.0	0.0	77.0	79.0	10.0	0.0	68.0	967.94	109.0	33.0	9.0	-1001.0	1636887402.012227
1.0	0.0	10.0	0.0	0.0	0.0	77.0	79.0	10.0	0.0	68.0	967.91	109.0	34.0	8.0	-998.0	1636887402.062112
1.0	0.0	10.0	0.0	0.0	0.0	77.0	79.0	10.0	0.0	68.0	967.94	109.0	34.0	8.0	-998.0	1636887402.165845
1.0	0.0	10.0	0.0	0.0	0.0	77.0	79.0	10.0	0.0	68.0	967.94	109.0	34.0	6.0	-999.0	1636887402.268406
1.0	0.0	10.0	0.0	0.0	0.0	77.0	79.0	10.0	0.0	68.0	967.98	109.0	33.0	8.0	-996.0	1636887402.367728
1.0	0.0	10.0	0.0	0.0	0.0	77.0	79.0	10.0	0.0	68.0	967.95	109.0	32.0	8.0	-999.0	1636887402.469155
1.0	0.0	10.0	0.0	0.0	0.0	77.0	79.0	10.0	0.0	68.0	967.95	109.0	34.0	8.0	-1000.0	1636887402.571087
1.0	0.0	10.0	0.0	0.0	0.0	77.0	79.0	10.0	0.0	68.0	967.84	109.0	33.0	9.0	-999.0	1636887402.675366
1.0	0.0	10.0	0.0	0.0	0.0	77.0	79.0	10.0	0.0	68.0	967.98	109.0	34.0	8.0	-1000.0	1636887402.776945
1.0	0.0	10.0	0.0	0.0	0.0	77.0	79.0	10.0	0.0	68.0	967.92	109.0	35.0	7.0	-997.0	1636887402.879464
1.0	0.0	10.0	0.0	0.0	0.0	77.0	79.0	10.0	0.0	68.0	967.92	109.0	34.0	9.0	-1000.0	1636887402.979542
1.0	0.0	10.0	0.0	0.0	0.0	77.0	79.0	10.0	0.0	68.0	967.9	109.0	37.0	8.0	-1001.0	1636887403.082297
1.0	0.0	10.0	0.0	0.0	0.0	77.0	79.0	10.0	0.0	68.0	967.98	109.0	33.0	8.0	-999.0	1636887403.186989
1.0	0.0	10.0	0.0	0.0	0.0	78.0	80.0	10.0	0.0	68.0	967.94	109.0	35.0	8.0	-1000.0	1636887403.285122
1.0	0.0	10.0	0.0	0.0	0.0	78.0	80.0	10.0	0.0	68.0	967.91	109.0	34.0	8.0	-1002.0	1636887403.389601
1.0	0.0	10.0	0.0	0.0	0.0	78.0	80.0	10.0	0.0	68.0	967.94	109.0	34.0	8.0	-999.0	1636887403.492363
1.0	0.0	10.0	0.0	0.0	0.0	78.0	80.0	10.0	0.0	68.0	967.94	109.0	34.0	8.0	-999.0	1636887403.591085
1.0	0.0	10.0	0.0	0.0	0.0	78.0	80.0	10.0	0.0	68.0	967.96	109.0	34.0	7.0	-1000.0	1636887403.692776
1.0	0.0	10.0	0.0	0.0	0.0	78.0	80.0	10.0	0.0	68.0	967.9	109.0	34.0	7.0	-1000.0	1636887403.795426
1.0	0.0	10.0	0.0	0.0	0.0	78.0	80.0	10.0	0.0	68.0	967.94	109.0	34.0	9.0	-998.0	1636887403.897123
1.0	0.0	10.0	0.0	0.0	0.0	78.0	80.0	10.0	0.0	68.0	967.91	109.0	34.0	8.0	-998.0	1636887404.001582
1.0	0.0	10.0	0.0	0.0	0.0	78.0	80.0	10.0	0.0	68.0	967.88	109.0	34.0	8.0	-998.0	1636887404.10151
1.0	0.0	10.0	0.0	0.0	0.0	78.0	80.0	10.0	0.0	68.0	967.92	109.0	34.0	8.0	-998.0	1636887404.205294
1.0	0.0	10.0	0.0	0.0	0.0	78.0	80.0	10.0	0.0	68.0	967.92	109.0	33.0	8.0	-997.0	1636887404.306372
1.0	0.0	10.0	0.0	0.0	0.0	78.0	80.0	10.0	0.0	68.0	967.92	109.0	34.0	7.0	-997.0	1636887404.410215
1.0	0.0	10.0	0.0	0.0	0.0	78.0	80.0	10.0	0.0	68.0	967.88	109.0	34.0	8.0	-999.0	1636887404.511539
1.0	0.0	10.0	0.0	0.0	0.0	78.0	80.0	10.0	0.0	68.0	967.91	109.0	33.0	8.0	-1000.0	1636887404.613576
1.0	0.0	10.0	0.0	0.0	0.0	78.0	80.0	10.0	0.0	68.0	967.9	109.0	33.0	8.0	-999.0	1636887404.713306
1.0	0.0	10.0	0.0	0.0	0.0	78.0	80.0	10.0	0.0	68.0	967.89	109.0	35.0	8.0	-1000.0	1636887404.817974
1.0	0.0	10.0	0.0	0.0	0.0	78.0	80.0	10.0	0.0	68.0	967.89	109.0	35.0	7.0	-998.0	1636887404.916846
1.0	0.0	10.0	0.0	0.0	0.0	78.0	80.0	10.0	0.0	68.0	967.96	109.0	33.0	7.0	-999.0	1636887405.021863
1.0	0.0	10.0	0.0	0.0	0.0	78.0	80.0	10.0	0.0	68.0	967.9	109.0	35.0	8.0	-998.0	1636887405.163341
1.0	0.0	10.0	0.0	0.0	0.0	78.0	80.0	10.0	0.0	68.0	967.94	109.0	33.0	8.0	-997.0	1636887405.224537
1.0	0.0	10.0	0.0	0.0	0.0	78.0	80.0	10.0	0.0	68.0	967.89	109.0	34.0	8.0	-999.0	1636887405.328184
1.0	0.0	10.0	0.0	0.0	0.0	78.0	80.0	10.0	0.0	68.0	967.84	109.0	35.0	8.0	-1000.0	1636887405.430182
1.0	0.0	10.0	0.0	0.0	0.0	78.0	80.0	10.0	0.0	68.0	967.9	109.0	34.0	8.0	-1002.0	1636887405.529432
1.0	0.0	10.0	0.0	0.0	0.0	78.0	80.0	10.0	0.0	68.0	967.9	109.0	35.0	8.0	-1000.0	1636887405.632335
1.0	0.0	10.0	0.0	0.0	0.0	78.0	80.0	10.0	0.0	68.0	967.88	109.0	34.0	7.0	-999.0	1636887405.735619
1.0	0.0	10.0	0.0	0.0	0.0	78.0	80.0	10.0	0.0	68.0	967.9	109.0	34.0	8.0	-1001.0	1636887405.784989
1.0	0.0	10.0	0.0	0.0	0.0	78.0	80.0	10.0	0.0	68.0	967.87	109.0	34.0	8.0	-1000.0	1636887405.886624
1.0	0.0	10.0	0.0	0.0	0.0	78.0	80.0	10.0	0.0	68.0	967.9	109.0	35.0	8.0	-999.0	1636887405.990975
1.0	0.0	10.0	0.0	0.0	0.0	78.0	80.0	10.0	0.0	68.0	967.91	109.0	34.0	8.0	-999.0	1636887406.091331
2.0	0.0	10.0	0.0	0.0	0.0	78.0	80.0	10.0	0.0	68.0	967.88	109.0	34.0	7.0	-1000.0	1636887406.194085
2.0	0.0	10.0	0.0	0.0	0.0	77.0	79.0	10.0	0.0	68.0	967.93	109.0	33.0	8.0	-1002.0	1636887406.29715
2.0	0.0	10.0	0.0	0.0	0.0	77.0	79.0	10.0	0.0	68.0	967.94	109.0	36.0	9.0	-999.0	1636887406.398287
1.0	0.0	10.0	0.0	0.0	0.0	77.0	79.0	10.0	0.0	68.0	967.88	109.0	34.0	7.0	-999.0	1636887406.501292
1.0	0.0	10.0	0.0	0.0	0.0	77.0	79.0	10.0	0.0	68.0	967.88	109.0	35.0	8.0	-998.0	1636887406.600392
1.0	0.0	10.0	0.0	0.0	0.0	77.0	79.0	10.0	0.0	68.0	967.89	109.0	34.0	8.0	-1000.0	1636887406.705313
1.0	0.0	10.0	0.0	0.0	0.0	77.0	79.0	10.0	0.0	68.0	967.87	109.0	36.0	8.0	-1000.0	1636887406.805509
2.0	0.0	10.0	0.0	0.0	0.0	77.0	79.0	10.0	0.0	68.0	967.88	109.0	33.0	8.0	-1000.0	1636887406.907896
2.0	0.0	10.0	0.0	0.0	0.0	77.0	79.0	10.0	0.0	68.0	967.91	109.0	35.0	8.0	-997.0	1636887407.008337
2.0	0.0	10.0	0.0	0.0	0.0	77.0	79.0	10.0	0.0	68.0	967.89	109.0	33.0	7.0	-1001.0	1636887407.113144
2.0	0.0	10.0	0.0	0.0	0.0	77.0	79.0	10.0	0.0	68.0	967.89	109.0	33.0	7.0	-1001.0	1636887407.211592
2.0	0.0	10.0	0.0	0.0	0.0	77.0	79.0	10.0	0.0	68.0	967.87	109.0	34.0	8.0	-999.0	1636887407.215361
2.0	0.0	10.0	0.0	0.0	0.0	77.0	80.0	10.0	0.0	68.0	967.91	109.0	34.0	7.0	-1001.0	1636887407.316618
2.0	0.0	10.0	0.0	0.0	0.0	77.0	80.0	10.0	0.0	68.0	967.93	109.0	35.0	8.0	-1000.0	1636887407.417592
2.0	0.0	10.0	0.0	0.0	0.0	77.0	80.0	10.0	0.0	68.0	967.89	109.0	33.0	7.0	-1000.0	1636887407.519662
2.0	0.0	10.0	0.0	0.0	0.0	77.0	80.0	10.0	0.0	68.0	967.88	109.0	34.0	6.0	-998.0	1636887407.62245
2.0	0.0	10.0	0.0	0.0	0.0	77.0	80.0	10.0	0.0	68.0	967.9	109.0	34.0	6.0	-999.0	1636887407.721623
2.0	0.0	10.0	0.0	0.0	0.0	77.0	80.0	10.0	0.0	68.0	967.9	109.0	34.0	6.0	-999.0	1636887407.775316
2.0	0.0	10.0	0.0	0.0	0.0	77.0	80.0	10.0	0.0	68.0	967.9	109.0	35.0	8.0	-997.0	1636887407.824506
2.0	0.0	10.0	0.0	0.0	0.0	77.0	80.0	10.0	0.0	68.0	967.92	109.0	34.0	7.0	-998.0	1636887407.927604
2.0	0.0	10.0	0.0	0.0	0.0	77.0	80.0	10.0	0.0	68.0	967.91	109.0	35.0	9.0	-997.0	1636887408.030999
2.0	0.0	10.0	0.0	0.0	0.0	77.0	80.0	10.0	0.0	68.0	967.92	109.0	33.0	8.0	-999.0	1636887408.131916
2.0	0.0	10.0	0.0	0.0	0.0	77.0	80.0	10.0	0.0	68.0	967.9	109.0	33.0	9.0	-997.0	1636887408.232042
2.0	0.0	10.0	0.0	0.0	0.0	77.0	80.0	10.0	0.0	68.0	967.95	109.0	32.0	8.0	-998.0	1636887408.335355
2.0	0.0	10.0	0.0	0.0	0.0	77.0	80.0	10.0	0.0	68.0	967.93	109.0	34.0	8.0	-999.0	1636887408.439795
2.0	0.0	10.0	0.0	0.0	0.0	77.0	80.0	10.0	0.0	68.0	967.88	109.0	34.0	9.0	-1002.0	1636887408.540485
2.0	0.0	10.0	0.0	0.0	0.0	77.0	80.0	10.0	0.0	68.0	967.91	109.0	36.0	9.0	-1000.0	1636887408.645268
2.0	0.0	10.0	0.0	0.0	0.0	77.0	80.0	10.0	0.0	68.0	967.9	109.0	34.0	7.0	-999.0	1636887408.747809
2.0	0.0	10.0	0.0	0.0	0.0	77.0	80.0	10.0	0.0	68.0	967.88	109.0	33.0	8.0	-1002.0	1636887408.848015
2.0	0.0	10.0	0.0	0.0	0.0	77.0	80.0	10.0	0.0	68.0	967.94	109.0	35.0	8.0	-999.0	1636887408.898125
2.0	0.0	10.0	0.0	0.0	0.0	77.0	80.0	10.0	0.0	68.0	967.93	109.0	33.0	6.0	-999.0	1636887409.000185
2.0	0.0	10.0	0.0	0.0	0.0	77.0	80.0	10.0	0.0	68.0	967.86	109.0	34.0	9.0	-999.0	1636887409.102303
2.0	0.0	10.0	0.0	0.0	0.0	77.0	80.0	10.0	0.0	68.0	967.93	109.0	34.0	8.0	-998.0	1636887409.203123
2.0	0.0	10.0	0.0	0.0	0.0	77.0	80.0	10.0	0.0	68.0	967.91	109.0	34.0	9.0	-998.0	1636887409.303964
2.0	0.0	10.0	0.0	0.0	0.0	77.0	80.0	10.0	0.0	68.0	967.91	109.0	35.0	7.0	-1000.0	1636887409.405408
2.0	0.0	10.0	0.0	0.0	0.0	77.0	80.0	10.0	0.0	68.0	967.88	109.0	33.0	7.0	-996.0	1636887409.506872
2.0	0.0	10.0	0.0	0.0	0.0	77.0	80.0	10.0	0.0	68.0	967.89	109.0	35.0	6.0	-1000.0	1636887409.60917
2.0	0.0	10.0	0.0	0.0	0.0	77.0	80.0	10.0	0.0	68.0	967.89	109.0	33.0	7.0	-999.0	1636887409.712336
2.0	0.0	10.0	0.0	0.0	0.0	77.0	80.0	10.0	0.0	68.0	967.93	109.0	34.0	9.0	-997.0	1636887409.814357
2.0	0.0	10.0	0.0	0.0	0.0	77.0	80.0	10.0	0.0	68.0	967.9	109.0	34.0	7.0	-999.0	1636887409.914725
2.0	0.0	10.0	0.0	0.0	0.0	77.0	80.0	10.0	0.0	68.0	967.93	109.0	34.0	8.0	-1000.0	1636887410.016438
2.0	0.0	10.0	0.0	0.0	0.0	77.0	80.0	10.0	0.0	68.0	967.88	109.0	34.0	9.0	-999.0	1636887410.120481
2.0	0.0	10.0	0.0	0.0	0.0	77.0	80.0	10.0	0.0	68.0	967.92	109.0	32.0	8.0	-999.0	1636887410.222219
1.0	0.0	10.0	0.0	0.0	0.0	78.0	80.0	10.0	0.0	68.0	967.89	109.0	34.0	8.0	-1002.0	1636887410.326248
1.0	0.0	10.0	0.0	0.0	0.0	78.0	80.0	10.0	0.0	68.0	967.92	109.0	34.0	7.0	-998.0	1636887410.426316
1.0	0.0	10.0	0.0	0.0	0.0	78.0	80.0	10.0	0.0	68.0	967.95	109.0	33.0	8.0	-998.0	1636887410.529729
1.0	0.0	10.0	0.0	0.0	0.0	78.0	80.0	10.0	0.0	68.0	967.89	109.0	35.0	9.0	-999.0	1636887410.631224
1.0	0.0	10.0	0.0	0.0	0.0	78.0	80.0	10.0	0.0	68.0	967.87	109.0	33.0	9.0	-999.0	1636887410.732693
1.0	0.0	10.0	0.0	0.0	0.0	78.0	80.0	10.0	0.0	68.0	967.89	109.0	34.0	7.0	-998.0	1636887410.83621
1.0	0.0	10.0	0.0	0.0	0.0	78.0	80.0	10.0	0.0	68.0	967.95	109.0	35.0	7.0	-999.0	1636887410.935316
1.0	0.0	10.0	0.0	0.0	0.0	78.0	80.0	10.0	0.0	68.0	967.87	109.0	33.0	7.0	-1002.0	1636887411.040095
1.0	0.0	10.0	0.0	0.0	0.0	78.0	80.0	10.0	0.0	68.0	967.89	109.0	34.0	9.0	-1000.0	1636887411.13888
1.0	0.0	10.0	0.0	0.0	0.0	78.0	80.0	10.0	0.0	68.0	967.9	109.0	33.0	9.0	-997.0	1636887411.241604
1.0	0.0	10.0	0.0	0.0	0.0	78.0	79.0	10.0	0.0	68.0	967.89	109.0	34.0	8.0	-1000.0	1636887411.345975
1.0	0.0	10.0	0.0	0.0	0.0	78.0	79.0	10.0	0.0	68.0	967.93	109.0	35.0	7.0	-999.0	1636887411.44534
1.0	0.0	10.0	0.0	0.0	0.0	78.0	79.0	10.0	0.0	68.0	967.91	109.0	34.0	9.0	-998.0	1636887411.549949
1.0	0.0	10.0	0.0	0.0	0.0	78.0	79.0	10.0	0.0	68.0	967.93	109.0	33.0	6.0	-1001.0	1636887411.651711
1.0	0.0	10.0	0.0	0.0	0.0	78.0	79.0	10.0	0.0	68.0	967.91	109.0	34.0	9.0	-1001.0	1636887411.750219
1.0	0.0	10.0	0.0	0.0	0.0	78.0	79.0	10.0	0.0	68.0	967.93	109.0	34.0	8.0	-1002.0	1636887411.85363
1.0	0.0	10.0	0.0	0.0	0.0	78.0	79.0	10.0	0.0	68.0	967.93	109.0	33.0	8.0	-999.0	1636887411.958006
1.0	0.0	10.0	0.0	0.0	0.0	78.0	79.0	10.0	0.0	68.0	967.89	109.0	35.0	9.0	-999.0	1636887412.056675
1.0	0.0	10.0	0.0	0.0	0.0	78.0	79.0	10.0	0.0	68.0	967.91	109.0	36.0	8.0	-1000.0	1636887412.161294
1.0	0.0	10.0	0.0	0.0	0.0	78.0	79.0	10.0	0.0	68.0	967.88	109.0	34.0	7.0	-996.0	1636887412.263278
1.0	0.0	10.0	0.0	0.0	0.0	77.0	80.0	10.0	0.0	68.0	967.88	109.0	33.0	8.0	-996.0	1636887412.365762
1.0	0.0	10.0	0.0	0.0	0.0	77.0	80.0	10.0	0.0	68.0	967.84	109.0	33.0	7.0	-998.0	1636887412.465221
1.0	0.0	10.0	0.0	0.0	0.0	77.0	80.0	10.0	0.0	68.0	967.93	109.0	34.0	8.0	-998.0	1636887412.569897
1.0	0.0	10.0	0.0	0.0	0.0	77.0	80.0	10.0	0.0	68.0	967.91	109.0	34.0	8.0	-999.0	1636887412.62063
1.0	0.0	10.0	0.0	0.0	0.0	77.0	80.0	10.0	0.0	68.0	967.9	109.0	34.0	8.0	-999.0	1636887412.722197
1.0	0.0	10.0	0.0	0.0	0.0	77.0	80.0	10.0	0.0	68.0	967.93	109.0	33.0	8.0	-996.0	1636887412.82378
1.0	0.0	10.0	0.0	0.0	0.0	77.0	80.0	10.0	0.0	68.0	967.86	109.0	34.0	8.0	-1000.0	1636887412.923535
1.0	0.0	10.0	0.0	0.0	0.0	77.0	80.0	10.0	0.0	68.0	967.95	109.0	35.0	8.0	-998.0	1636887413.02889
1.0	0.0	10.0	0.0	0.0	0.0	77.0	80.0	10.0	0.0	68.0	967.94	109.0	35.0	7.0	-999.0	1636887413.127962
1.0	0.0	10.0	0.0	0.0	0.0	77.0	80.0	10.0	0.0	68.0	967.89	109.0	33.0	9.0	-999.0	1636887413.231282
1.0	0.0	10.0	0.0	0.0	0.0	78.0	80.0	10.0	0.0	68.0	967.87	109.0	35.0	7.0	-1000.0	1636887413.334462
1.0	0.0	10.0	0.0	0.0	0.0	78.0	80.0	10.0	0.0	68.0	967.94	109.0	35.0	7.0	-999.0	1636887413.501924
1.0	0.0	10.0	0.0	0.0	0.0	78.0	80.0	10.0	0.0	68.0	967.86	109.0	33.0	9.0	-997.0	1636887413.645338
1.0	0.0	10.0	0.0	0.0	0.0	78.0	80.0	10.0	0.0	68.0	967.89	109.0	34.0	9.0	-998.0	1636887413.645338
1.0	0.0	10.0	0.0	0.0	0.0	78.0	80.0	10.0	0.0	68.0	967.89	109.0	34.0	7.0	-997.0	1636887413.781809
1.0	0.0	10.0	0.0	0.0	0.0	78.0	80.0	10.0	0.0	68.0	967.89	109.0	34.0	9.0	-1002.0	1636887413.932303
1.0	0.0	10.0	0.0	0.0	0.0	78.0	80.0	10.0	0.0	68.0	967.91	109.0	34.0	8.0	-999.0	1636887413.944299
1.0	0.0	10.0	0.0	0.0	0.0	78.0	80.0	10.0	0.0	68.0	967.94	109.0	35.0	8.0	-998.0	1636887414.155563
1.0	0.0	10.0	0.0	0.0	0.0	78.0	80.0	10.0	0.0	68.0	967.89	109.0	33.0	7.0	-999.0	1636887414.155563
1.0	0.0	10.0	0.0	0.0	0.0	78.0	80.0	10.0	0.0	68.0	967.97	109.0	35.0	8.0	-999.0	1636887414.250496
