timestamp	pitch	roll	yaw	vgx	vgy	vgz	templ	temph	tof	h	bat	baro	time	agx	agy	agz
1636886985.478594
1636886985.584085	4.0	0.0	0.0	0.0	0.0	0.0	68.0	71.0	172.0	140.0	87.0	969.94	36.0	89.0	-10.0	-1000.0
1636886985.683781	4.0	0.0	0.0	0.0	0.0	0.0	68.0	71.0	172.0	140.0	87.0	969.9	36.0	66.0	-3.0	-1006.0
1636886985.786585	4.0	0.0	0.0	0.0	0.0	0.0	68.0	71.0	174.0	140.0	87.0	969.91	36.0	75.0	-7.0	-1004.0
1636886985.888892	4.0	0.0	0.0	0.0	0.0	0.0	68.0	71.0	171.0	140.0	87.0	969.92	36.0	85.0	-14.0	-993.0
1636886985.989465	4.0	0.0	0.0	0.0	0.0	0.0	69.0	70.0	173.0	140.0	87.0	969.87	36.0	83.0	-4.0	-996.0
1636886986.039266	4.0	0.0	0.0	0.0	0.0	0.0	69.0	70.0	172.0	140.0	87.0	969.82	36.0	70.0	-3.0	-1001.0
1636886986.143112	4.0	0.0	0.0	0.0	0.0	0.0	69.0	70.0	176.0	140.0	87.0	969.94	36.0	78.0	-16.0	-997.0
1636886986.243239	4.0	0.0	0.0	0.0	0.0	0.0	69.0	70.0	173.0	140.0	87.0	969.86	36.0	67.0	-21.0	-1000.0
1636886986.347098	4.0	1.0	0.0	0.0	0.0	0.0	69.0	70.0	172.0	140.0	86.0	969.84	36.0	77.0	-25.0	-995.0
1636886986.450638	4.0	1.0	0.0	0.0	0.0	0.0	69.0	70.0	176.0	140.0	86.0	969.9	37.0	75.0	-30.0	-1004.0
1636886986.551394	4.0	1.0	0.0	0.0	0.0	0.0	69.0	70.0	175.0	140.0	86.0	969.83	37.0	76.0	-25.0	-997.0
1636886986.652579	3.0	2.0	0.0	0.0	0.0	0.0	69.0	70.0	174.0	140.0	86.0	969.89	37.0	83.0	-24.0	-986.0
1636886986.75302	3.0	2.0	0.0	0.0	0.0	0.0	69.0	70.0	172.0	140.0	86.0	969.9	37.0	64.0	1.0	-986.0
1636886986.856446	3.0	1.0	0.0	0.0	0.0	0.0	69.0	70.0	175.0	140.0	86.0	969.94	37.0	90.0	-12.0	-987.0
1636886986.971294	4.0	1.0	0.0	0.0	0.0	0.0	68.0	70.0	174.0	140.0	86.0	969.96	37.0	89.0	-30.0	-990.0
1636886987.060962	4.0	1.0	0.0	0.0	0.0	0.0	68.0	70.0	175.0	140.0	86.0	969.89	37.0	84.0	-14.0	-973.0
1636886987.164333	4.0	1.0	0.0	0.0	0.0	0.0	68.0	70.0	173.0	140.0	86.0	969.82	37.0	79.0	-4.0	-1009.0
1636886987.268195	4.0	1.0	0.0	0.0	0.0	0.0	68.0	70.0	173.0	140.0	86.0	969.81	37.0	92.0	-5.0	-990.0
1636886987.370276	5.0	0.0	0.0	0.0	0.0	0.0	68.0	70.0	175.0	140.0	86.0	969.89	37.0	92.0	-7.0	-1011.0
1636886987.470892	5.0	0.0	0.0	0.0	0.0	0.0	68.0	70.0	171.0	140.0	86.0	969.97	38.0	96.0	-11.0	-985.0
1636886987.569762	5.0	0.0	0.0	0.0	0.0	0.0	68.0	70.0	175.0	140.0	86.0	970.02	38.0	114.0	-28.0	-1002.0
1636886987.67308	5.0	0.0	0.0	0.0	0.0	0.0	68.0	70.0	174.0	140.0	86.0	969.97	38.0	88.0	1.0	-995.0
1636886987.775495	5.0	0.0	0.0	0.0	0.0	0.0	68.0	70.0	175.0	140.0	86.0	969.95	38.0	84.0	3.0	-997.0
1636886987.874496	5.0	0.0	0.0	0.0	0.0	0.0	68.0	70.0	174.0	140.0	86.0	969.92	38.0	78.0	1.0	-1005.0
1636886987.977105	5.0	0.0	0.0	0.0	0.0	0.0	67.0	70.0	176.0	140.0	86.0	970.04	38.0	86.0	-11.0	-995.0
1636886988.079537	4.0	0.0	0.0	0.0	0.0	0.0	67.0	70.0	176.0	140.0	86.0	969.95	38.0	72.0	-9.0	-978.0
1636886988.182026	4.0	0.0	0.0	0.0	0.0	0.0	67.0	70.0	175.0	140.0	86.0	969.83	38.0	65.0	-8.0	-1001.0
1636886988.285512	4.0	0.0	0.0	0.0	0.0	0.0	67.0	70.0	176.0	140.0	86.0	969.91	38.0	95.0	-34.0	-995.0
1636886988.38714	4.0	1.0	0.0	0.0	0.0	0.0	67.0	70.0	174.0	140.0	86.0	969.92	38.0	94.0	-14.0	-993.0
1636886988.489793	4.0	1.0	0.0	0.0	0.0	0.0	67.0	70.0	177.0	140.0	86.0	969.85	39.0	87.0	-13.0	-992.0
1636886988.537588	4.0	1.0	0.0	0.0	0.0	0.0	67.0	70.0	175.0	140.0	86.0	969.91	39.0	81.0	-15.0	-994.0
1636886988.63995	4.0	1.0	0.0	0.0	0.0	0.0	67.0	70.0	175.0	140.0	86.0	969.94	39.0	102.0	-25.0	-978.0
1636886988.745061	5.0	1.0	0.0	0.0	0.0	0.0	67.0	70.0	175.0	140.0	86.0	969.87	39.0	98.0	-32.0	-990.0
1636886988.847101	5.0	1.0	0.0	0.0	0.0	0.0	67.0	70.0	175.0	140.0	86.0	970.0	39.0	88.0	-17.0	-994.0
1636886988.945524	4.0	1.0	0.0	0.0	0.0	0.0	68.0	70.0	174.0	140.0	86.0	969.92	39.0	75.0	-13.0	-1007.0
1636886989.047818	1.0	1.0	0.0	0.0	0.0	0.0	68.0	70.0	174.0	140.0	86.0	969.86	39.0	88.0	-3.0	-1021.0
1636886989.151682	-5.0	1.0	0.0	1.0	0.0	0.0	68.0	70.0	176.0	140.0	86.0	969.87	39.0	91.0	5.0	-1020.0
1636886989.254339	-7.0	0.0	0.0	3.0	0.0	0.0	68.0	70.0	175.0	140.0	86.0	969.91	39.0	105.0	-15.0	-990.0
1636886989.356424	-1.0	0.0	0.0	5.0	0.0	0.0	68.0	70.0	175.0	140.0	86.0	969.88	39.0	69.0	-9.0	-997.0
1636886989.457921	3.0	0.0	0.0	5.0	0.0	0.0	68.0	70.0	173.0	140.0	86.0	969.98	40.0	70.0	-23.0	-999.0
1636886989.56091	5.0	0.0	0.0	5.0	0.0	0.0	68.0	70.0	172.0	140.0	86.0	969.99	40.0	44.0	8.0	-999.0
1636886989.661603	5.0	0.0	0.0	4.0	0.0	0.0	68.0	70.0	173.0	140.0	86.0	969.92	40.0	59.0	-9.0	-1004.0
1636886989.764354	5.0	0.0	0.0	4.0	0.0	0.0	68.0	70.0	173.0	140.0	86.0	969.92	40.0	54.0	-4.0	-1011.0
1636886989.865055	5.0	0.0	0.0	3.0	0.0	0.0	68.0	70.0	174.0	140.0	86.0	969.88	40.0	58.0	0.0	-1029.0
1636886989.966547	5.0	0.0	0.0	3.0	0.0	0.0	67.0	69.0	173.0	140.0	86.0	969.88	40.0	57.0	-2.0	-1019.0
1636886990.069781	5.0	0.0	0.0	3.0	0.0	0.0	67.0	69.0	172.0	140.0	86.0	969.96	40.0	53.0	-5.0	-1022.0
1636886990.171573	5.0	0.0	0.0	2.0	0.0	0.0	67.0	69.0	172.0	140.0	86.0	970.05	40.0	58.0	-4.0	-1011.0
1636886990.273998	5.0	0.0	0.0	2.0	0.0	0.0	67.0	69.0	175.0	140.0	86.0	969.94	40.0	61.0	-7.0	-1006.0
1636886990.376298	3.0	0.0	0.0	2.0	0.0	0.0	67.0	69.0	174.0	140.0	86.0	969.95	40.0	57.0	-2.0	-1036.0
1636886990.475644	-3.0	0.0	0.0	2.0	0.0	0.0	67.0	69.0	175.0	140.0	86.0	969.94	41.0	69.0	-8.0	-1006.0
1636886990.581093	-7.0	0.0	0.0	4.0	0.0	0.0	67.0	69.0	178.0	140.0	86.0	970.01	41.0	58.0	-18.0	-1000.0
1636886990.680358	-7.0	0.0	0.0	6.0	0.0	0.0	67.0	69.0	179.0	140.0	86.0	970.0	41.0	33.0	-7.0	-1003.0
1636886990.782927	-7.0	0.0	0.0	8.0	0.0	0.0	67.0	69.0	179.0	140.0	86.0	970.03	41.0	22.0	-12.0	-1020.0
1636886990.884224	-7.0	0.0	0.0	9.0	0.0	0.0	67.0	69.0	180.0	140.0	86.0	970.02	41.0	-4.0	5.0	-1010.0
1636886990.986718	-7.0	0.0	0.0	10.0	0.0	0.0	67.0	69.0	181.0	140.0	86.0	970.01	41.0	1.0	-8.0	-996.0
1636886991.089366	-7.0	0.0	0.0	12.0	0.0	0.0	67.0	69.0	182.0	140.0	86.0	970.13	41.0	-6.0	-4.0	-959.0
1636886991.193468	-1.0	0.0	0.0	13.0	0.0	0.0	67.0	69.0	178.0	140.0	86.0	970.1	41.0	-34.0	-2.0	-997.0
1636886991.293288	3.0	0.0	0.0	12.0	0.0	0.0	67.0	69.0	180.0	140.0	86.0	970.2	41.0	-21.0	-21.0	-1002.0
1636886991.345225	5.0	0.0	0.0	11.0	0.0	0.0	67.0	69.0	179.0	150.0	85.0	970.18	41.0	-22.0	-7.0	-992.0
1636886991.448792	6.0	1.0	0.0	10.0	0.0	0.0	67.0	69.0	180.0	150.0	85.0	970.21	42.0	-15.0	-10.0	-1007.0
1636886991.548172	6.0	1.0	0.0	9.0	0.0	0.0	67.0	69.0	180.0	150.0	85.0	970.17	42.0	-2.0	-15.0	-1001.0
1636886991.650211	5.0	1.0	0.0	8.0	0.0	0.0	67.0	69.0	180.0	150.0	85.0	970.18	42.0	0.0	-21.0	-998.0
1636886991.755153	5.0	1.0	0.0	7.0	0.0	0.0	67.0	69.0	179.0	150.0	85.0	970.14	42.0	1.0	-7.0	-1016.0
1636886991.856663	5.0	1.0	0.0	6.0	0.0	0.0	67.0	69.0	184.0	150.0	85.0	970.24	42.0	14.0	-21.0	-1022.0
1636886991.958867	5.0	1.0	0.0	6.0	0.0	0.0	67.0	69.0	178.0	150.0	85.0	970.17	42.0	18.0	-26.0	-994.0
1636886992.059506	5.0	1.0	0.0	5.0	0.0	0.0	67.0	69.0	180.0	150.0	85.0	970.11	42.0	23.0	-20.0	-1005.0
1636886992.16337	5.0	1.0	0.0	4.0	0.0	0.0	67.0	69.0	180.0	150.0	85.0	970.07	42.0	18.0	-14.0	-999.0
1636886992.26196	4.0	1.0	0.0	4.0	0.0	0.0	67.0	69.0	178.0	150.0	85.0	970.07	42.0	19.0	-15.0	-999.0
1636886992.366433	4.0	1.0	0.0	3.0	0.0	0.0	67.0	69.0	179.0	150.0	85.0	970.14	42.0	35.0	-23.0	-1005.0
1636886992.467983	1.0	1.0	0.0	3.0	0.0	0.0	67.0	69.0	177.0	150.0	85.0	970.17	43.0	39.0	-21.0	-986.0
1636886992.570611	-5.0	0.0	0.0	4.0	0.0	0.0	67.0	69.0	178.0	150.0	85.0	970.2	43.0	47.0	-25.0	-1020.0
1636886992.670475	-8.0	0.0	0.0	5.0	0.0	0.0	67.0	69.0	181.0	150.0	85.0	970.17	43.0	44.0	-3.0	-1000.0
1636886992.773787	-8.0	0.0	0.0	7.0	0.0	0.0	67.0	69.0	180.0	150.0	85.0	970.15	43.0	60.0	-1.0	-958.0
1636886992.877669	-8.0	0.0	0.0	9.0	0.0	0.0	67.0	69.0	180.0	150.0	85.0	970.14	43.0	30.0	15.0	-1003.0
1636886992.975246	-8.0	0.0	0.0	10.0	0.0	0.0	67.0	69.0	178.0	150.0	85.0	970.07	43.0	10.0	0.0	-971.0
1636886993.080587	-4.0	0.0	0.0	11.0	0.0	0.0	67.0	69.0	176.0	140.0	85.0	970.17	43.0	-12.0	-7.0	-1014.0
1636886993.179607	1.0	0.0	0.0	12.0	0.0	0.0	67.0	69.0	172.0	140.0	85.0	970.19	43.0	-24.0	1.0	-1006.0
1636886993.281534	4.0	0.0	0.0	11.0	0.0	0.0	67.0	69.0	175.0	140.0	85.0	970.16	43.0	-18.0	-3.0	-1023.0
1636886993.385389	5.0	0.0	0.0	10.0	0.0	0.0	67.0	69.0	173.0	140.0	85.0	970.15	43.0	-4.0	-7.0	-997.0
1636886993.486202	5.0	0.0	0.0	9.0	0.0	0.0	67.0	69.0	172.0	140.0	85.0	970.1	44.0	-14.0	4.0	-1031.0
1636886993.591064	5.0	0.0	0.0	8.0	0.0	0.0	67.0	69.0	174.0	140.0	85.0	970.15	44.0	29.0	-16.0	-999.0
1636886993.693588	5.0	0.0	0.0	7.0	0.0	0.0	67.0	69.0	172.0	140.0	85.0	970.18	44.0	0.0	11.0	-995.0
1636886993.792884	5.0	0.0	0.0	6.0	0.0	0.0	67.0	69.0	171.0	140.0	85.0	970.2	44.0	11.0	23.0	-991.0
1636886993.895238	5.0	0.0	0.0	6.0	0.0	0.0	67.0	69.0	171.0	140.0	85.0	970.21	44.0	33.0	-5.0	-1013.0
1636886993.999753	5.0	0.0	0.0	5.0	0.0	0.0	67.0	70.0	172.0	140.0	85.0	970.14	44.0	24.0	10.0	-1003.0
1636886994.097848	5.0	0.0	0.0	4.0	0.0	0.0	67.0	70.0	172.0	140.0	85.0	970.23	44.0	34.0	4.0	-1012.0
1636886994.202488	3.0	0.0	0.0	4.0	0.0	0.0	67.0	70.0	171.0	140.0	85.0	970.18	44.0	48.0	0.0	-1006.0
1636886994.303699	-2.0	0.0	0.0	4.0	0.0	0.0	67.0	70.0	175.0	140.0	85.0	970.21	44.0	36.0	10.0	-1019.0
1636886994.406746	-7.0	0.0	0.0	5.0	0.0	0.0	67.0	70.0	176.0	140.0	85.0	970.19	44.0	24.0	5.0	-1037.0
1636886994.50712	-7.0	0.0	0.0	7.0	0.0	0.0	67.0	70.0	175.0	140.0	85.0	970.18	45.0	32.0	-10.0	-992.0
1636886994.610231	-7.0	0.0	0.0	9.0	0.0	0.0	67.0	70.0	177.0	140.0	85.0	970.13	45.0	30.0	-8.0	-965.0
1636886994.710392	-4.0	0.0	0.0	10.0	0.0	0.0	67.0	70.0	171.0	140.0	85.0	970.18	45.0	2.0	0.0	-1005.0
1636886994.813101	1.0	0.0	0.0	10.0	0.0	0.0	67.0	70.0	176.0	140.0	85.0	970.22	45.0	-5.0	-18.0	-987.0
1636886994.91569	4.0	0.0	0.0	10.0	0.0	0.0	67.0	70.0	175.0	140.0	85.0	970.19	45.0	3.0	-4.0	-992.0
1636886995.018839	5.0	0.0	0.0	9.0	0.0	0.0	67.0	69.0	175.0	140.0	85.0	970.2	45.0	10.0	-12.0	-1019.0
1636886995.120723	5.0	0.0	0.0	8.0	0.0	0.0	67.0	69.0	175.0	140.0	85.0	970.25	45.0	15.0	-19.0	-984.0
1636886995.220797	6.0	0.0	0.0	7.0	0.0	0.0	67.0	69.0	170.0	140.0	85.0	970.23	45.0	16.0	-17.0	-1018.0
1636886995.323736	6.0	1.0	0.0	7.0	0.0	0.0	67.0	69.0	172.0	140.0	85.0	970.26	45.0	25.0	-10.0	-1004.0
1636886995.377279	5.0	1.0	0.0	6.0	0.0	0.0	67.0	69.0	174.0	140.0	85.0	970.18	45.0	32.0	-8.0	-1008.0
1636886995.474822	5.0	1.0	0.0	5.0	0.0	0.0	67.0	69.0	173.0	140.0	85.0	970.21	46.0	36.0	-5.0	-1009.0
1636886995.577261	5.0	0.0	0.0	5.0	0.0	0.0	67.0	69.0	170.0	140.0	85.0	970.19	46.0	50.0	-13.0	-1010.0
1636886995.681831	5.0	0.0	0.0	4.0	0.0	0.0	67.0	69.0	176.0	140.0	85.0	970.2	46.0	51.0	-22.0	-1019.0
1636886995.781669	5.0	0.0	0.0	4.0	0.0	0.0	67.0	69.0	176.0	140.0	85.0	970.18	46.0	59.0	-18.0	-1005.0
1636886995.882528	5.0	0.0	0.0	3.0	0.0	0.0	67.0	69.0	174.0	140.0	85.0	970.17	46.0	72.0	-33.0	-984.0
1636886995.988257	5.0	0.0	0.0	3.0	0.0	0.0	67.0	69.0	175.0	140.0	85.0	970.15	46.0	66.0	-27.0	-1002.0
1636886996.089719	6.0	0.0	0.0	3.0	0.0	0.0	67.0	69.0	177.0	140.0	85.0	970.18	46.0	54.0	-20.0	-1004.0
1636886996.190264	7.0	0.0	0.0	2.0	0.0	0.0	67.0	69.0	178.0	140.0	85.0	970.11	46.0	59.0	-4.0	-997.0
1636886996.292004	7.0	0.0	0.0	1.0	0.0	0.0	67.0	69.0	177.0	140.0	85.0	970.13	46.0	62.0	7.0	-1013.0
1636886996.3942	7.0	0.0	0.0	1.0	0.0	0.0	67.0	69.0	176.0	140.0	84.0	970.04	46.0	66.0	7.0	-1020.0
1636886996.498697	8.0	0.0	0.0	0.0	0.0	0.0	67.0	69.0	176.0	140.0	84.0	970.18	47.0	91.0	-8.0	-1012.0
1636886996.597191	8.0	0.0	0.0	0.0	0.0	0.0	67.0	69.0	178.0	140.0	84.0	970.18	47.0	90.0	-2.0	-976.0
1636886996.703727	7.0	0.0	0.0	0.0	0.0	0.0	67.0	69.0	177.0	140.0	84.0	970.17	47.0	100.0	-11.0	-964.0
1636886996.804571	7.0	0.0	0.0	0.0	0.0	0.0	67.0	69.0	178.0	140.0	84.0	970.23	47.0	93.0	3.0	-1003.0
1636886996.90953	7.0	0.0	0.0	-1.0	0.0	0.0	67.0	69.0	180.0	140.0	84.0	970.1	47.0	111.0	-17.0	-993.0
1636886997.008004	8.0	0.0	0.0	-1.0	0.0	0.0	67.0	69.0	180.0	140.0	84.0	970.11	47.0	108.0	-17.0	-988.0
1636886997.107061	8.0	0.0	0.0	-2.0	0.0	0.0	67.0	69.0	177.0	140.0	84.0	970.16	47.0	92.0	-2.0	-1030.0
1636886997.208518	3.0	1.0	0.0	-2.0	0.0	0.0	67.0	69.0	180.0	140.0	84.0	970.18	47.0	106.0	-5.0	-970.0
1636886997.311484	8.0	0.0	0.0	-2.0	0.0	0.0	67.0	69.0	177.0	150.0	84.0	970.19	47.0	102.0	-26.0	-979.0
1636886997.415036	8.0	0.0	0.0	-2.0	0.0	0.0	67.0	69.0	179.0	150.0	84.0	970.24	47.0	94.0	-21.0	-998.0
1636886997.514081	8.0	0.0	0.0	-3.0	0.0	0.0	67.0	69.0	176.0	140.0	84.0	970.12	48.0	106.0	-34.0	-994.0
1636886997.619629	8.0	0.0	0.0	-3.0	0.0	0.0	67.0	69.0	176.0	140.0	84.0	970.18	48.0	97.0	-22.0	-1024.0
1636886997.720409	8.0	0.0	0.0	-4.0	0.0	0.0	67.0	69.0	176.0	140.0	84.0	970.11	48.0	97.0	-33.0	-983.0
1636886997.823867	8.0	0.0	0.0	-4.0	-1.0	0.0	67.0	69.0	173.0	140.0	84.0	970.14	48.0	110.0	-22.0	-1011.0
1636886997.92531	8.0	0.0	0.0	-5.0	-1.0	0.0	67.0	69.0	174.0	140.0	84.0	970.09	48.0	111.0	-24.0	-998.0
1636886998.028157	7.0	1.0	0.0	-5.0	-1.0	0.0	66.0	69.0	174.0	140.0	84.0	969.89	48.0	102.0	-23.0	-1004.0
1636886998.127844	7.0	1.0	0.0	-5.0	-1.0	0.0	66.0	69.0	175.0	140.0	84.0	969.9	48.0	128.0	-28.0	-985.0
1636886998.228868	7.0	1.0	0.0	-6.0	-1.0	0.0	66.0	69.0	174.0	140.0	84.0	970.1	48.0	115.0	-26.0	-991.0
1636886998.333363	7.0	2.0	0.0	-6.0	-1.0	0.0	66.0	69.0	174.0	140.0	84.0	970.0	48.0	107.0	-23.0	-989.0
1636886998.432687	7.0	2.0	0.0	-6.0	-1.0	0.0	66.0	69.0	175.0	140.0	84.0	970.14	49.0	114.0	-29.0	-987.0
1636886998.537652	7.0	2.0	0.0	-6.0	-1.0	0.0	66.0	69.0	174.0	140.0	84.0	970.1	49.0	107.0	-25.0	-993.0
1636886998.63754	7.0	3.0	0.0	-6.0	-1.0	0.0	66.0	69.0	173.0	140.0	84.0	970.16	49.0	140.0	-37.0	-986.0
1636886998.744193	5.0	3.0	0.0	-7.0	-1.0	0.0	66.0	69.0	172.0	140.0	84.0	970.1	49.0	134.0	-51.0	-997.0
1636886998.843843	3.0	3.0	0.0	-6.0	0.0	0.0	66.0	69.0	173.0	140.0	84.0	970.15	49.0	108.0	-28.0	-1007.0
1636886998.943279	2.0	2.0	0.0	-6.0	0.0	0.0	66.0	69.0	171.0	140.0	84.0	970.07	49.0	124.0	-43.0	-991.0
1636886999.044885	2.0	2.0	0.0	-5.0	0.0	0.0	67.0	68.0	170.0	140.0	84.0	970.06	49.0	128.0	-33.0	-1005.0
1636886999.148746	2.0	2.0	0.0	-5.0	0.0	0.0	67.0	68.0	171.0	140.0	84.0	970.03	49.0	131.0	-49.0	-985.0
1636886999.249178	5.0	3.0	0.0	-4.0	0.0	0.0	67.0	68.0	170.0	140.0	84.0	970.02	49.0	93.0	-44.0	-999.0
1636886999.351088	7.0	2.0	0.0	-5.0	0.0	0.0	67.0	68.0	171.0	140.0	84.0	970.01	49.0	115.0	-59.0	-983.0
1636886999.455821	8.0	0.0	0.0	-5.0	0.0	0.0	67.0	68.0	174.0	140.0	84.0	970.03	50.0	101.0	-43.0	-985.0
1636886999.506806	8.0	0.0	0.0	-6.0	-1.0	0.0	67.0	68.0	173.0	140.0	84.0	970.1	50.0	101.0	-39.0	-1013.0
1636886999.608082	8.0	1.0	0.0	-6.0	-1.0	0.0	67.0	68.0	173.0	140.0	84.0	970.04	50.0	94.0	-39.0	-1008.0
1636886999.708837	7.0	2.0	0.0	-7.0	-1.0	0.0	67.0	68.0	171.0	140.0	84.0	969.95	50.0	98.0	-32.0	-1006.0
1636886999.810454	7.0	2.0	0.0	-7.0	0.0	0.0	67.0	68.0	172.0	140.0	84.0	969.99	50.0	94.0	-32.0	-988.0
1636886999.914264	7.0	2.0	0.0	-8.0	0.0	0.0	67.0	68.0	172.0	140.0	84.0	969.99	50.0	106.0	-37.0	-985.0
1636887000.017469	5.0	3.0	0.0	-8.0	0.0	0.0	67.0	69.0	173.0	140.0	84.0	970.07	50.0	107.0	-22.0	-1014.0
1636887000.118511	2.0	2.0	0.0	-8.0	0.0	0.0	67.0	69.0	175.0	140.0	84.0	970.05	50.0	141.0	-40.0	-1000.0
1636887000.220617	2.0	2.0	0.0	-7.0	0.0	0.0	67.0	69.0	174.0	140.0	84.0	969.95	50.0	133.0	-45.0	-978.0
1636887000.320494	2.0	1.0	0.0	-6.0	0.0	0.0	67.0	69.0	175.0	140.0	84.0	970.14	50.0	101.0	-24.0	-978.0
1636887000.42376	2.0	1.0	0.0	-5.0	0.0	0.0	67.0	69.0	173.0	140.0	84.0	970.02	51.0	109.0	-30.0	-993.0
1636887000.527793	2.0	2.0	0.0	-5.0	0.0	0.0	67.0	69.0	176.0	140.0	84.0	970.04	51.0	103.0	-17.0	-987.0
1636887000.626877	2.0	1.0	0.0	-4.0	0.0	0.0	67.0	69.0	175.0	140.0	84.0	970.02	51.0	103.0	-29.0	-992.0
1636887000.729902	2.0	1.0	0.0	-4.0	0.0	0.0	67.0	69.0	177.0	140.0	84.0	970.03	51.0	90.0	-22.0	-986.0
1636887000.82996	2.0	1.0	0.0	-3.0	0.0	0.0	67.0	69.0	176.0	140.0	84.0	970.03	51.0	107.0	-27.0	-996.0
1636887000.932322	4.0	1.0	0.0	-3.0	0.0	0.0	67.0	69.0	177.0	140.0	84.0	970.0	51.0	121.0	-34.0	-968.0
1636887001.037477	8.0	0.0	0.0	-3.0	0.0	0.0	66.0	69.0	179.0	140.0	84.0	970.01	51.0	83.0	-27.0	-991.0
1636887001.137497	8.0	0.0	0.0	-4.0	0.0	0.0	66.0	69.0	175.0	140.0	84.0	969.97	51.0	109.0	-31.0	-1010.0
1636887001.241089	8.0	0.0	0.0	-4.0	0.0	0.0	66.0	69.0	178.0	140.0	84.0	970.04	51.0	109.0	-31.0	-987.0
1636887001.340951	8.0	0.0	0.0	-5.0	0.0	0.0	66.0	69.0	180.0	140.0	84.0	970.05	51.0	117.0	-28.0	-998.0
1636887001.445553	8.0	0.0	0.0	-5.0	0.0	0.0	66.0	69.0	178.0	140.0	83.0	969.98	52.0	100.0	-13.0	-986.0
1636887001.544542	8.0	0.0	0.0	-5.0	0.0	0.0	66.0	69.0	178.0	140.0	83.0	970.0	52.0	90.0	-9.0	-995.0
1636887001.646584	8.0	0.0	0.0	-6.0	0.0	0.0	66.0	69.0	181.0	140.0	83.0	970.02	52.0	93.0	-22.0	-980.0
1636887001.751107	8.0	0.0	0.0	-6.0	0.0	0.0	66.0	69.0	180.0	140.0	83.0	970.03	52.0	83.0	-18.0	-1002.0
1636887001.852871	8.0	0.0	0.0	-7.0	0.0	0.0	66.0	69.0	180.0	150.0	83.0	970.02	52.0	87.0	-23.0	-997.0
1636887001.953575	8.0	0.0	0.0	-7.0	-1.0	0.0	66.0	69.0	182.0	150.0	83.0	970.0	52.0	85.0	-23.0	-1006.0
1636887002.057038	8.0	0.0	0.0	-8.0	-1.0	0.0	66.0	68.0	179.0	150.0	83.0	969.94	52.0	87.0	-39.0	-983.0
1636887002.158145	8.0	0.0	0.0	-9.0	-1.0	0.0	66.0	68.0	183.0	150.0	83.0	970.0	52.0	88.0	-8.0	-990.0
1636887002.259645	8.0	0.0	0.0	-9.0	-1.0	0.0	66.0	68.0	180.0	150.0	83.0	969.92	52.0	106.0	-17.0	-997.0
1636887002.360215	8.0	0.0	0.0	-9.0	-1.0	0.0	66.0	68.0	181.0	150.0	83.0	969.94	52.0	103.0	-34.0	-989.0
1636887002.462941	8.0	1.0	0.0	-10.0	-1.0	0.0	66.0	68.0	182.0	150.0	83.0	970.11	53.0	120.0	-23.0	-960.0
1636887002.567745	8.0	1.0	0.0	-10.0	-1.0	0.0	66.0	68.0	182.0	150.0	83.0	969.97	53.0	124.0	-43.0	-978.0
1636887002.666547	8.0	1.0	0.0	-10.0	-2.0	0.0	66.0	68.0	183.0	150.0	83.0	970.05	53.0	130.0	-34.0	-987.0
1636887002.767793	8.0	2.0	0.0	-11.0	-2.0	0.0	66.0	68.0	182.0	150.0	83.0	970.01	53.0	101.0	-28.0	-984.0
1636887002.871653	7.0	3.0	0.0	-11.0	-1.0	0.0	66.0	68.0	181.0	150.0	83.0	970.04	53.0	117.0	-41.0	-993.0
1636887002.971994	7.0	4.0	0.0	-11.0	-1.0	0.0	66.0	68.0	181.0	150.0	83.0	969.96	53.0	119.0	-48.0	-980.0
1636887003.075419	5.0	4.0	0.0	-11.0	-1.0	0.0	66.0	69.0	180.0	150.0	83.0	969.98	53.0	107.0	-41.0	-994.0
1636887003.177025	1.0	4.0	0.0	-11.0	0.0	0.0	66.0	69.0	179.0	150.0	83.0	969.95	53.0	126.0	-32.0	-983.0
1636887003.282331	0.0	3.0	0.0	-10.0	0.0	0.0	66.0	69.0	176.0	150.0	83.0	969.96	53.0	110.0	-45.0	-991.0
1636887003.380122	0.0	2.0	0.0	-9.0	0.0	0.0	66.0	69.0	179.0	150.0	83.0	969.92	53.0	114.0	-47.0	-982.0
1636887003.482977	0.0	2.0	0.0	-8.0	0.0	0.0	66.0	69.0	181.0	150.0	83.0	970.08	54.0	120.0	-49.0	-973.0
1636887003.587092	0.0	2.0	0.0	-7.0	0.0	0.0	66.0	69.0	177.0	150.0	83.0	969.97	54.0	125.0	-63.0	-998.0
1636887003.688049	0.0	3.0	0.0	-6.0	0.0	0.0	66.0	69.0	178.0	150.0	83.0	969.98	54.0	107.0	-48.0	-996.0
1636887003.788744	1.0	3.0	0.0	-6.0	0.0	0.0	66.0	69.0	174.0	150.0	83.0	970.03	54.0	112.0	-65.0	-998.0
1636887003.840559	1.0	3.0	0.0	-5.0	0.0	0.0	66.0	69.0	176.0	150.0	83.0	969.98	54.0	111.0	-67.0	-990.0
1636887003.943691	0.0	3.0	0.0	-4.0	0.0	0.0	66.0	69.0	174.0	140.0	83.0	970.02	54.0	84.0	-56.0	-1044.0
1636887004.047106	-7.0	2.0	0.0	-3.0	0.0	0.0	67.0	69.0	177.0	140.0	83.0	969.96	54.0	113.0	-46.0	-954.0
1636887004.14869	-7.0	1.0	0.0	-1.0	0.0	0.0	67.0	69.0	178.0	140.0	83.0	969.86	54.0	71.0	-60.0	-1021.0
1636887004.250307	-7.0	1.0	0.0	0.0	0.0	0.0	67.0	69.0	177.0	140.0	83.0	969.93	54.0	56.0	-55.0	-1033.0
1636887004.350584	-6.0	3.0	0.0	1.0	0.0	0.0	67.0	69.0	177.0	140.0	83.0	969.89	54.0	38.0	-52.0	-1033.0
1636887004.452604	-3.0	3.0	0.0	3.0	0.0	0.0	67.0	69.0	173.0	140.0	83.0	969.91	55.0	22.0	-49.0	-1034.0
1636887004.557484	0.0	3.0	0.0	3.0	0.0	0.0	67.0	69.0	171.0	140.0	83.0	969.95	55.0	22.0	-50.0	-1017.0
1636887004.656259	1.0	3.0	0.0	3.0	0.0	0.0	67.0	69.0	173.0	140.0	83.0	969.92	55.0	15.0	-43.0	-995.0
1636887004.761439	2.0	3.0	0.0	3.0	0.0	0.0	67.0	69.0	172.0	140.0	83.0	970.01	55.0	5.0	-45.0	-998.0
1636887004.862831	2.0	2.0	0.0	2.0	0.0	0.0	67.0	69.0	173.0	140.0	83.0	969.91	55.0	20.0	-48.0	-996.0
1636887004.965622	2.0	2.0	0.0	2.0	0.0	0.0	67.0	69.0	172.0	140.0	83.0	969.97	55.0	20.0	-46.0	-1001.0
1636887005.066322	2.0	2.0	0.0	2.0	0.0	0.0	66.0	68.0	174.0	140.0	83.0	969.97	55.0	20.0	-46.0	-1003.0
1636887005.168949	2.0	1.0	0.0	1.0	0.0	0.0	66.0	68.0	173.0	140.0	83.0	969.95	55.0	18.0	-46.0	-1001.0
1636887005.270529	2.0	1.0	0.0	1.0	0.0	0.0	66.0	68.0	173.0	140.0	83.0	970.04	55.0	24.0	-46.0	-999.0
1636887005.370394	2.0	2.0	0.0	1.0	0.0	0.0	66.0	68.0	174.0	140.0	83.0	970.03	55.0	21.0	-45.0	-1003.0
1636887005.475407	5.0	2.0	0.0	1.0	0.0	0.0	66.0	68.0	175.0	140.0	83.0	970.02	56.0	29.0	-43.0	-1004.0
1636887005.575694	4.0	2.0	0.0	0.0	0.0	0.0	66.0	68.0	173.0	140.0	83.0	970.01	56.0	47.0	-43.0	-982.0
1636887005.679735	3.0	2.0	0.0	0.0	0.0	0.0	66.0	68.0	175.0	140.0	83.0	970.04	56.0	37.0	-50.0	-1012.0
1636887005.779768	2.0	2.0	0.0	0.0	0.0	0.0	66.0	68.0	176.0	140.0	83.0	970.03	56.0	35.0	-29.0	-995.0
1636887005.883611	2.0	2.0	0.0	0.0	0.0	0.0	66.0	68.0	175.0	140.0	83.0	970.01	56.0	47.0	-37.0	-989.0
1636887005.982551	1.0	2.0	0.0	0.0	0.0	0.0	66.0	68.0	177.0	140.0	83.0	969.96	56.0	43.0	-35.0	-1000.0
1636887006.084304	1.0	2.0	0.0	0.0	0.0	0.0	67.0	69.0	176.0	140.0	83.0	969.95	56.0	36.0	-28.0	-996.0
1636887006.185974	1.0	2.0	0.0	0.0	0.0	0.0	67.0	69.0	177.0	140.0	83.0	969.96	56.0	61.0	-53.0	-977.0
1636887006.291445	1.0	2.0	0.0	0.0	0.0	0.0	67.0	69.0	176.0	140.0	83.0	970.01	56.0	45.0	-50.0	-1006.0
1636887006.391462	1.0	2.0	0.0	0.0	0.0	0.0	67.0	69.0	175.0	140.0	83.0	970.04	56.0	28.0	-23.0	-1006.0
1636887006.494757	1.0	2.0	0.0	0.0	0.0	0.0	67.0	69.0	178.0	140.0	83.0	970.0	57.0	65.0	-44.0	-984.0
1636887006.593905	1.0	2.0	0.0	0.0	0.0	0.0	67.0	69.0	177.0	140.0	83.0	970.02	57.0	58.0	-55.0	-996.0
1636887006.695702	-1.0	2.0	0.0	0.0	0.0	0.0	67.0	69.0	178.0	140.0	83.0	970.05	57.0	33.0	-21.0	-1023.0
1636887006.801242	-7.0	2.0	0.0	1.0	0.0	0.0	67.0	69.0	180.0	140.0	83.0	969.99	57.0	26.0	-24.0	-1020.0
1636887006.902861	-7.0	1.0	0.0	2.0	0.0	0.0	67.0	69.0	182.0	140.0	83.0	970.03	57.0	27.0	-32.0	-1011.0
1636887007.004405	-7.0	1.0	0.0	4.0	0.0	0.0	67.0	69.0	181.0	140.0	83.0	969.99	57.0	23.0	-46.0	-1002.0
1636887007.106191	-7.0	1.0	0.0	5.0	0.0	0.0	66.0	69.0	180.0	140.0	83.0	970.18	57.0	-5.0	-26.0	-1026.0
1636887007.20848	-7.0	1.0	0.0	7.0	0.0	0.0	66.0	69.0	180.0	140.0	83.0	970.09	57.0	-13.0	-25.0	-1016.0
1636887007.308029	-7.0	2.0	0.0	8.0	0.0	0.0	66.0	69.0	178.0	140.0	83.0	970.07	57.0	4.0	-44.0	-1006.0
1636887007.40977	-7.0	3.0	0.0	9.0	0.0	0.0	66.0	69.0	179.0	140.0	82.0	970.04	57.0	-18.0	-26.0	-987.0
1636887007.513451	-4.0	3.0	0.0	10.0	0.0	0.0	66.0	69.0	177.0	140.0	82.0	970.05	58.0	-29.0	-35.0	-996.0
1636887007.616811	0.0	3.0	0.0	10.0	0.0	0.0	66.0	69.0	176.0	140.0	82.0	970.11	58.0	-20.0	-50.0	-1009.0
1636887007.718248	3.0	2.0	0.0	10.0	0.0	0.0	66.0	69.0	176.0	140.0	82.0	970.11	58.0	-16.0	-46.0	-996.0
1636887007.819808	3.0	2.0	0.0	9.0	0.0	0.0	66.0	69.0	175.0	140.0	82.0	970.12	58.0	-10.0	-36.0	-1009.0
1636887007.920307	4.0	2.0	0.0	8.0	0.0	0.0	66.0	69.0	175.0	140.0	82.0	970.14	58.0	-9.0	-41.0	-1006.0
1636887007.974205	4.0	2.0	0.0	7.0	0.0	0.0	66.0	69.0	177.0	140.0	82.0	970.09	58.0	-4.0	-40.0	-1012.0
1636887008.072779	4.0	2.0	0.0	6.0	0.0	0.0	66.0	69.0	177.0	140.0	82.0	970.11	58.0	-2.0	-34.0	-1006.0
1636887008.177411	3.0	2.0	0.0	5.0	0.0	0.0	66.0	69.0	178.0	140.0	82.0	970.16	58.0	2.0	-31.0	-1000.0
1636887008.280419	2.0	1.0	0.0	5.0	0.0	0.0	66.0	69.0	175.0	140.0	82.0	970.17	58.0	4.0	-33.0	-1013.0
1636887008.378815	-2.0	1.0	0.0	4.0	0.0	0.0	66.0	69.0	179.0	140.0	82.0	970.11	58.0	8.0	-32.0	-995.0
1636887008.482415	-2.0	1.0	0.0	4.0	0.0	0.0	66.0	69.0	179.0	140.0	82.0	970.11	58.0	8.0	-32.0	-995.0
1636887008.482415	-7.0	1.0	0.0	5.0	0.0	0.0	66.0	69.0	181.0	140.0	82.0	970.07	59.0	-10.0	-32.0	-1020.0
1636887008.58615	-8.0	0.0	0.0	7.0	0.0	0.0	66.0	69.0	179.0	140.0	82.0	970.1	59.0	-20.0	-31.0	-1014.0
1636887008.686969	-8.0	0.0	0.0	8.0	0.0	0.0	66.0	69.0	179.0	140.0	82.0	970.11	59.0	-25.0	-32.0	-994.0
1636887008.788686	-7.0	0.0	0.0	9.0	0.0	0.0	66.0	69.0	179.0	140.0	82.0	970.16	59.0	-36.0	-23.0	-1000.0
1636887008.891366	-7.0	0.0	0.0	10.0	0.0	0.0	66.0	69.0	179.0	140.0	82.0	970.14	59.0	-39.0	-28.0	-996.0
1636887008.992784	-7.0	0.0	0.0	11.0	0.0	0.0	66.0	69.0	178.0	140.0	82.0	970.13	59.0	-48.0	-24.0	-1008.0
1636887009.09594	-7.0	1.0	0.0	12.0	0.0	0.0	66.0	70.0	177.0	140.0	82.0	970.11	59.0	-62.0	-22.0	-1001.0
1636887009.197817	-7.0	2.0	0.0	12.0	0.0	0.0	66.0	70.0	177.0	140.0	82.0	970.1	59.0	-59.0	-20.0	-979.0
1636887009.299203	-3.0	2.0	0.0	13.0	0.0	0.0	66.0	70.0	175.0	140.0	82.0	970.15	59.0	-67.0	-32.0	-1009.0
1636887009.400673	1.0	1.0	0.0	12.0	0.0	0.0	66.0	70.0	175.0	140.0	82.0	970.15	59.0	-57.0	-24.0	-995.0
1636887009.503736	2.0	1.0	0.0	11.0	0.0	0.0	66.0	70.0	173.0	140.0	82.0	970.1	60.0	-63.0	-30.0	-1003.0
1636887009.605056	3.0	1.0	0.0	10.0	0.0	0.0	66.0	70.0	174.0	140.0	82.0	970.19	60.0	-48.0	-31.0	-1010.0
1636887009.704917	3.0	1.0	0.0	9.0	0.0	0.0	66.0	70.0	174.0	140.0	82.0	970.1	60.0	-39.0	-34.0	-999.0
1636887009.808267	3.0	1.0	0.0	8.0	0.0	0.0	66.0	70.0	175.0	140.0	82.0	970.1	60.0	-28.0	-35.0	-1001.0
1636887009.912159	3.0	1.0	0.0	7.0	0.0	0.0	66.0	70.0	176.0	140.0	82.0	970.09	60.0	-16.0	-40.0	-1002.0
1636887010.016186	3.0	1.0	0.0	6.0	0.0	0.0	66.0	70.0	174.0	140.0	82.0	970.13	60.0	-22.0	-31.0	-1015.0
1636887010.117059	3.0	1.0	0.0	6.0	0.0	0.0	65.0	67.0	175.0	140.0	82.0	970.09	60.0	-10.0	-24.0	-1005.0
1636887010.218114	3.0	1.0	0.0	5.0	0.0	0.0	65.0	67.0	174.0	140.0	82.0	970.11	60.0	-1.0	-35.0	-989.0
1636887010.322891	2.0	1.0	0.0	4.0	0.0	0.0	65.0	67.0	175.0	140.0	82.0	970.18	60.0	-5.0	-24.0	-1007.0
1636887010.422299	2.0	1.0	0.0	4.0	0.0	0.0	65.0	67.0	173.0	140.0	82.0	970.15	60.0	1.0	-33.0	-1003.0
1636887010.548086	1.0	1.0	0.0	3.0	0.0	0.0	65.0	67.0	175.0	140.0	82.0	970.14	61.0	5.0	-30.0	-1001.0
1636887010.623352	-6.0	1.0	0.0	3.0	0.0	0.0	65.0	67.0	177.0	140.0	82.0	970.15	61.0	6.0	-24.0	-965.0
1636887010.742136	-8.0	0.0	0.0	5.0	0.0	0.0	65.0	67.0	177.0	140.0	82.0	970.17	61.0	-12.0	-26.0	-1006.0
1636887010.829609	-8.0	0.0	0.0	6.0	0.0	0.0	65.0	67.0	178.0	140.0	82.0	970.18	61.0	-18.0	-28.0	-1007.0
1636887010.931381	-7.0	0.0	0.0	7.0	0.0	0.0	65.0	67.0	175.0	140.0	82.0	970.2	61.0	-27.0	-28.0	-1016.0
1636887011.032824	-7.0	0.0	0.0	8.0	0.0	0.0	65.0	67.0	175.0	140.0	82.0	970.16	61.0	-29.0	-32.0	-978.0
1636887011.148994	-5.0	2.0	0.0	10.0	0.0	0.0	65.0	68.0	178.0	140.0	82.0	970.2	61.0	-48.0	-22.0	-997.0
1636887011.238131	-1.0	1.0	0.0	10.0	0.0	0.0	65.0	68.0	172.0	140.0	82.0	970.25	61.0	-46.0	-22.0	-1008.0
1636887011.349978	1.0	1.0	0.0	10.0	0.0	0.0	65.0	68.0	171.0	140.0	82.0	970.23	61.0	-51.0	-22.0	-1005.0
1636887011.442034	2.0	1.0	0.0	9.0	0.0	0.0	65.0	68.0	174.0	140.0	82.0	970.17	62.0	-46.0	-22.0	-1002.0
1636887011.551433	2.0	1.0	0.0	8.0	0.0	0.0	65.0	68.0	174.0	140.0	82.0	970.24	62.0	-35.0	-29.0	-1024.0
1636887011.668512	2.0	1.0	0.0	7.0	0.0	0.0	65.0	68.0	171.0	140.0	82.0	970.24	62.0	-34.0	-24.0	-1006.0
1636887011.698905	2.0	1.0	0.0	6.0	0.0	0.0	65.0	68.0	171.0	140.0	82.0	970.19	62.0	-27.0	-26.0	-1003.0
1636887011.831384	2.0	1.0	0.0	6.0	0.0	0.0	65.0	68.0	172.0	140.0	82.0	970.22	62.0	-22.0	-19.0	-1016.0
1636887011.903544	2.0	1.0	0.0	5.0	0.0	0.0	65.0	68.0	171.0	140.0	82.0	970.17	62.0	-15.0	-22.0	-1008.0
1636887012.038067	2.0	0.0	0.0	4.0	0.0	0.0	65.0	68.0	170.0	140.0	82.0	970.23	62.0	-6.0	-19.0	-1009.0
1636887012.106641	2.0	0.0	0.0	4.0	0.0	0.0	65.0	67.0	169.0	140.0	82.0	970.18	62.0	-6.0	-20.0	-1001.0
1636887012.207473	2.0	0.0	0.0	3.0	0.0	0.0	65.0	67.0	172.0	140.0	82.0	970.15	62.0	-8.0	-17.0	-1009.0
1636887012.342913	5.0	0.0	0.0	3.0	0.0	0.0	65.0	67.0	170.0	140.0	82.0	970.06	62.0	3.0	-24.0	-1004.0
1636887012.447213	7.0	0.0	0.0	2.0	0.0	0.0	65.0	67.0	173.0	140.0	82.0	970.15	63.0	24.0	-30.0	-1007.0
1636887012.518271	7.0	0.0	0.0	1.0	0.0	0.0	65.0	67.0	171.0	140.0	82.0	970.18	63.0	35.0	-36.0	-980.0
1636887012.613423	7.0	0.0	0.0	0.0	0.0	0.0	65.0	67.0	173.0	140.0	82.0	970.16	63.0	28.0	-38.0	-1020.0
1636887012.75208	7.0	0.0	0.0	0.0	0.0	0.0	65.0	67.0	173.0	140.0	82.0	970.25	63.0	30.0	-20.0	-1028.0
1636887012.819919	7.0	0.0	0.0	-1.0	0.0	0.0	65.0	67.0	172.0	140.0	82.0	970.24	63.0	41.0	-17.0	-999.0
1636887012.959217	8.0	0.0	0.0	-2.0	0.0	0.0	65.0	67.0	175.0	140.0	82.0	970.24	63.0	51.0	-27.0	-1008.0
1636887013.028409	7.0	0.0	0.0	-3.0	0.0	0.0	65.0	67.0	175.0	140.0	82.0	970.33	63.0	53.0	-21.0	-998.0
1636887013.126424	8.0	0.0	0.0	-4.0	0.0	0.0	65.0	68.0	176.0	140.0	82.0	970.25	63.0	53.0	1.0	-998.0
1636887013.263281	8.0	0.0	0.0	-5.0	0.0	0.0	65.0	68.0	176.0	140.0	82.0	970.25	63.0	75.0	-7.0	-992.0
1636887013.370063	8.0	0.0	0.0	-6.0	0.0	0.0	65.0	68.0	175.0	140.0	82.0	970.22	63.0	82.0	-15.0	-989.0
1636887013.440001	8.0	0.0	0.0	-6.0	0.0	0.0	65.0	68.0	173.0	140.0	82.0	970.23	64.0	86.0	-26.0	-973.0
1636887013.534096	8.0	0.0	0.0	-7.0	0.0	0.0	65.0	68.0	175.0	140.0	82.0	970.14	64.0	84.0	-53.0	-996.0
1636887013.672097	8.0	0.0	0.0	-8.0	0.0	0.0	65.0	68.0	177.0	140.0	82.0	970.23	64.0	93.0	-30.0	-987.0
1636887013.74415	7.0	1.0	0.0	-8.0	0.0	0.0	65.0	68.0	178.0	140.0	82.0	970.23	64.0	105.0	-45.0	-978.0
1636887013.880529	7.0	2.0	0.0	-9.0	0.0	0.0	65.0	68.0	178.0	140.0	82.0	970.3	64.0	114.0	-52.0	-994.0
1636887013.948434	4.0	3.0	0.0	-9.0	0.0	0.0	65.0	68.0	175.0	140.0	82.0	970.29	64.0	92.0	-37.0	-990.0
1636887014.049375	1.0	3.0	0.0	-9.0	0.0	0.0	65.0	68.0	176.0	140.0	82.0	970.28	64.0	110.0	-47.0	-985.0
1636887014.184262	0.0	2.0	0.0	-8.0	0.0	0.0	66.0	67.0	174.0	140.0	82.0	970.28	64.0	90.0	-17.0	-990.0
1636887014.247552	1.0	2.0	0.0	-7.0	0.0	0.0	66.0	67.0	175.0	140.0	82.0	970.3	64.0	117.0	-37.0	-983.0
1636887014.360925	5.0	2.0	0.0	-7.0	0.0	0.0	66.0	67.0	177.0	140.0	82.0	970.08	64.0	69.0	8.0	-968.0
1636887014.44971	8.0	0.0	0.0	-7.0	0.0	0.0	66.0	67.0	177.0	140.0	81.0	970.17	65.0	114.0	-46.0	-978.0
1636887014.59726	8.0	0.0	0.0	-7.0	0.0	0.0	66.0	67.0	177.0	140.0	81.0	970.18	65.0	89.0	-23.0	-1016.0
1636887014.665131	8.0	0.0	0.0	-8.0	0.0	0.0	66.0	67.0	177.0	140.0	81.0	970.28	65.0	84.0	-17.0	-1003.0
1636887014.757848	8.0	0.0	0.0	-8.0	0.0	0.0	66.0	67.0	179.0	140.0	81.0	970.17	65.0	81.0	0.0	-987.0
1636887014.871737	8.0	0.0	0.0	-9.0	0.0	0.0	66.0	67.0	177.0	140.0	81.0	970.14	65.0	123.0	-10.0	-997.0
1636887014.969132	8.0	0.0	0.0	-9.0	0.0	0.0	66.0	67.0	176.0	140.0	81.0	970.12	65.0	97.0	17.0	-1010.0
1636887015.06394	8.0	0.0	0.0	-10.0	0.0	0.0	66.0	67.0	177.0	140.0	81.0	970.06	65.0	105.0	4.0	-1004.0
1636887015.163605	8.0	0.0	0.0	-10.0	0.0	0.0	65.0	67.0	176.0	140.0	81.0	970.05	65.0	109.0	-17.0	-986.0
1636887015.28097	8.0	0.0	0.0	-10.0	0.0	0.0	65.0	67.0	176.0	140.0	81.0	969.9	65.0	111.0	-5.0	-999.0
1636887015.369868	7.0	0.0	0.0	-10.0	0.0	0.0	65.0	67.0	175.0	140.0	81.0	969.92	65.0	116.0	7.0	-1011.0
1636887015.472837	8.0	0.0	0.0	-10.0	0.0	0.0	65.0	67.0	177.0	140.0	81.0	969.9	66.0	122.0	0.0	-981.0
1636887015.588333	7.0	0.0	0.0	-11.0	0.0	0.0	65.0	67.0	176.0	140.0	81.0	969.82	66.0	152.0	-5.0	-1005.0
1636887015.65694	7.0	0.0	0.0	-11.0	0.0	0.0	65.0	67.0	176.0	140.0	81.0	969.82	66.0	152.0	-5.0	-1005.0
1636887015.65694	8.0	0.0	0.0	-10.0	0.0	0.0	65.0	67.0	179.0	140.0	81.0	969.83	66.0	125.0	7.0	-1007.0
1636887015.727902	8.0	0.0	0.0	-11.0	0.0	0.0	65.0	67.0	179.0	140.0	81.0	969.95	66.0	129.0	-8.0	-982.0
1636887015.82735	7.0	0.0	0.0	-11.0	0.0	0.0	65.0	67.0	176.0	140.0	81.0	969.89	66.0	136.0	-16.0	-1007.0
1636887015.931036	3.0	0.0	0.0	-11.0	0.0	0.0	65.0	67.0	174.0	140.0	81.0	969.98	66.0	145.0	-9.0	-980.0
1636887016.03018	1.0	0.0	0.0	-10.0	0.0	0.0	65.0	67.0	176.0	140.0	81.0	969.94	66.0	140.0	-21.0	-967.0
1636887016.186339	0.0	0.0	0.0	-9.0	0.0	0.0	65.0	68.0	178.0	140.0	81.0	969.96	66.0	111.0	-20.0	-1010.0
1636887016.288497	0.0	0.0	0.0	-8.0	0.0	0.0	65.0	68.0	174.0	140.0	81.0	969.91	66.0	111.0	-20.0	-1018.0
1636887016.338151	0.0	0.0	0.0	-7.0	0.0	0.0	65.0	68.0	175.0	140.0	81.0	969.97	66.0	90.0	-9.0	-980.0
1636887016.439926	0.0	0.0	0.0	-6.0	0.0	0.0	65.0	68.0	176.0	140.0	81.0	970.02	67.0	82.0	-6.0	-989.0
1636887016.543976	0.0	0.0	0.0	-6.0	0.0	0.0	65.0	68.0	174.0	140.0	81.0	970.05	67.0	100.0	-24.0	-992.0
1636887016.645502	1.0	0.0	0.0	-5.0	0.0	0.0	65.0	68.0	176.0	140.0	81.0	969.92	67.0	86.0	-13.0	-981.0
1636887016.74567	7.0	0.0	0.0	-5.0	0.0	0.0	65.0	68.0	176.0	140.0	81.0	969.97	67.0	71.0	-30.0	-1016.0
1636887016.84666	8.0	0.0	0.0	-6.0	0.0	0.0	65.0	68.0	176.0	140.0	81.0	969.92	67.0	70.0	-8.0	-1018.0
1636887016.949038	8.0	0.0	0.0	-6.0	0.0	0.0	65.0	68.0	174.0	140.0	81.0	969.95	67.0	83.0	-19.0	-994.0
1636887017.051834	8.0	0.0	0.0	-7.0	0.0	0.0	65.0	68.0	175.0	140.0	81.0	969.89	67.0	78.0	-21.0	-1022.0
1636887017.154394	8.0	0.0	0.0	-8.0	0.0	0.0	65.0	67.0	173.0	140.0	81.0	969.9	67.0	86.0	-19.0	-1002.0
1636887017.256235	7.0	0.0	0.0	-8.0	0.0	0.0	65.0	67.0	175.0	140.0	81.0	969.9	67.0	105.0	-23.0	-998.0
1636887017.357747	7.0	1.0	0.0	-9.0	0.0	0.0	65.0	67.0	173.0	140.0	81.0	969.9	67.0	97.0	-18.0	-991.0
1636887017.459488	7.0	1.0	0.0	-9.0	0.0	0.0	65.0	67.0	174.0	140.0	81.0	969.91	68.0	98.0	-21.0	-1019.0
1636887017.562405	4.0	1.0	0.0	-9.0	0.0	0.0	65.0	67.0	172.0	140.0	81.0	969.87	68.0	116.0	-35.0	-1012.0
1636887017.666946	1.0	1.0	0.0	-9.0	0.0	0.0	65.0	67.0	170.0	140.0	81.0	969.9	68.0	95.0	-16.0	-992.0
1636887017.767631	0.0	1.0	0.0	-8.0	0.0	0.0	65.0	67.0	171.0	140.0	81.0	969.94	68.0	97.0	-15.0	-993.0
1636887017.87022	0.0	1.0	0.0	-7.0	0.0	0.0	65.0	67.0	168.0	140.0	81.0	969.9	68.0	96.0	-29.0	-1002.0
1636887017.972747	0.0	1.0	0.0	-6.0	0.0	0.0	65.0	67.0	169.0	140.0	81.0	969.96	68.0	89.0	-19.0	-1024.0
1636887018.074063	0.0	1.0	0.0	-6.0	0.0	0.0	65.0	67.0	168.0	140.0	81.0	969.89	68.0	78.0	-18.0	-1009.0
1636887018.176231	0.0	1.0	0.0	-5.0	0.0	0.0	66.0	67.0	170.0	140.0	81.0	969.76	68.0	84.0	-18.0	-1009.0
1636887018.280056	1.0	1.0	0.0	-4.0	0.0	0.0	66.0	67.0	171.0	140.0	81.0	969.9	68.0	88.0	-23.0	-1002.0
1636887018.379567	4.0	1.0	0.0	-4.0	0.0	0.0	66.0	67.0	171.0	140.0	81.0	969.89	68.0	79.0	-18.0	-1003.0
1636887018.482762	7.0	1.0	0.0	-4.0	0.0	0.0	66.0	67.0	170.0	140.0	81.0	969.91	69.0	77.0	-20.0	-990.0
1636887018.583352	6.0	1.0	0.0	-5.0	0.0	0.0	66.0	67.0	171.0	140.0	81.0	969.97	69.0	109.0	-50.0	-987.0
1636887018.689594	3.0	1.0	0.0	-5.0	0.0	0.0	66.0	67.0	174.0	140.0	81.0	970.02	69.0	74.0	-28.0	-997.0
1636887018.787089	2.0	2.0	0.0	-5.0	0.0	0.0	66.0	67.0	174.0	140.0	81.0	969.89	69.0	92.0	-56.0	-1035.0
1636887018.890511	2.0	2.0	0.0	-4.0	0.0	0.0	66.0	67.0	173.0	140.0	81.0	969.93	69.0	101.0	-45.0	-1013.0
1636887018.991429	2.0	1.0	0.0	-4.0	0.0	0.0	66.0	67.0	174.0	140.0	81.0	969.93	69.0	103.0	-47.0	-1004.0
1636887019.09515	2.0	1.0	0.0	-3.0	0.0	0.0	66.0	67.0	175.0	140.0	81.0	969.93	69.0	93.0	-39.0	-972.0
1636887019.193957	1.0	1.0	0.0	-3.0	0.0	0.0	64.0	67.0	174.0	140.0	81.0	969.95	69.0	86.0	-48.0	-1001.0
1636887019.29704	1.0	1.0	0.0	-3.0	0.0	0.0	64.0	67.0	175.0	140.0	81.0	969.88	69.0	64.0	-26.0	-995.0
1636887019.400148	1.0	1.0	0.0	-2.0	0.0	0.0	64.0	67.0	179.0	140.0	81.0	969.9	69.0	89.0	-44.0	-986.0
1636887019.502945	1.0	1.0	0.0	-2.0	0.0	0.0	64.0	67.0	177.0	140.0	81.0	969.91	70.0	58.0	-20.0	-990.0
1636887019.601805	2.0	1.0	0.0	-2.0	0.0	0.0	64.0	67.0	179.0	140.0	81.0	969.89	70.0	76.0	-41.0	-984.0
1636887019.706111	3.0	1.0	0.0	-2.0	0.0	0.0	64.0	67.0	179.0	140.0	81.0	969.95	70.0	64.0	-25.0	-988.0
1636887019.806124	3.0	1.0	0.0	-2.0	0.0	0.0	64.0	67.0	181.0	140.0	81.0	970.01	70.0	67.0	-37.0	-988.0
1636887019.907472	2.0	1.0	0.0	-1.0	0.0	0.0	64.0	67.0	179.0	140.0	81.0	969.99	70.0	76.0	-35.0	-996.0
1636887020.011665	2.0	1.0	0.0	-1.0	0.0	0.0	64.0	67.0	180.0	140.0	81.0	969.92	70.0	58.0	-31.0	-997.0
1636887020.111496	2.0	1.0	0.0	-1.0	0.0	0.0	64.0	67.0	181.0	140.0	81.0	969.91	70.0	52.0	-28.0	-992.0
1636887020.2165	2.0	1.0	0.0	-1.0	0.0	0.0	65.0	67.0	183.0	140.0	81.0	969.94	70.0	43.0	-31.0	-1019.0
1636887020.315574	0.0	1.0	0.0	-1.0	0.0	0.0	65.0	67.0	182.0	150.0	81.0	969.95	70.0	59.0	-36.0	-978.0
1636887020.418937	0.0	1.0	0.0	0.0	0.0	0.0	65.0	67.0	183.0	150.0	81.0	969.94	70.0	31.0	-28.0	-994.0
1636887020.522371	1.0	1.0	0.0	0.0	0.0	0.0	65.0	67.0	180.0	150.0	81.0	969.98	71.0	39.0	-22.0	-1001.0
1636887020.573136	1.0	1.0	0.0	0.0	0.0	0.0	65.0	67.0	181.0	150.0	81.0	969.95	71.0	39.0	-25.0	-972.0
1636887020.67557	2.0	2.0	0.0	0.0	0.0	0.0	65.0	67.0	181.0	150.0	81.0	969.91	71.0	58.0	-27.0	-980.0
1636887020.777607	2.0	2.0	0.0	0.0	0.0	0.0	65.0	67.0	183.0	150.0	81.0	970.02	71.0	53.0	-32.0	-995.0
1636887020.878843	-2.0	1.0	0.0	0.0	0.0	0.0	65.0	67.0	182.0	150.0	81.0	969.98	71.0	23.0	0.0	-1005.0
1636887020.980793	-8.0	1.0	0.0	1.0	0.0	0.0	65.0	67.0	184.0	150.0	81.0	970.04	71.0	12.0	-4.0	-1013.0
1636887021.083989	-8.0	0.0	0.0	3.0	0.0	0.0	65.0	67.0	183.0	150.0	81.0	970.01	71.0	17.0	-13.0	-973.0
1636887021.183653	-5.0	0.0	0.0	5.0	0.0	0.0	65.0	67.0	180.0	150.0	81.0	970.05	71.0	12.0	-26.0	-997.0
1636887021.287833	0.0	0.0	0.0	6.0	0.0	0.0	65.0	67.0	180.0	150.0	81.0	970.07	71.0	0.0	-13.0	-1003.0
1636887021.388685	2.0	1.0	0.0	6.0	0.0	0.0	65.0	67.0	179.0	150.0	81.0	970.13	71.0	9.0	-23.0	-1005.0
1636887021.487897	3.0	1.0	0.0	5.0	0.0	0.0	65.0	67.0	178.0	150.0	81.0	970.11	72.0	-1.0	-14.0	-1008.0
1636887021.591964	4.0	1.0	0.0	5.0	0.0	0.0	65.0	67.0	180.0	150.0	81.0	969.99	72.0	16.0	-25.0	-1014.0
1636887021.695914	4.0	1.0	0.0	4.0	0.0	0.0	65.0	67.0	177.0	150.0	81.0	970.05	72.0	22.0	-22.0	-991.0
1636887021.797258	4.0	1.0	0.0	4.0	0.0	0.0	65.0	67.0	180.0	150.0	81.0	969.93	72.0	37.0	-30.0	-995.0
1636887021.898106	4.0	1.0	0.0	4.0	0.0	0.0	65.0	67.0	178.0	150.0	81.0	970.06	72.0	43.0	-29.0	-997.0
1636887021.998455	4.0	0.0	0.0	3.0	0.0	0.0	65.0	67.0	178.0	150.0	81.0	969.93	72.0	53.0	-30.0	-982.0
1636887022.103955	4.0	0.0	0.0	3.0	0.0	0.0	65.0	67.0	176.0	150.0	81.0	970.05	72.0	42.0	-27.0	-997.0
1636887022.201993	4.0	1.0	0.0	3.0	0.0	0.0	65.0	66.0	176.0	150.0	81.0	969.98	72.0	45.0	-28.0	-1004.0
1636887022.305627	4.0	1.0	0.0	2.0	0.0	0.0	65.0	66.0	177.0	150.0	81.0	969.93	72.0	63.0	-33.0	-1001.0
1636887022.407193	4.0	1.0	0.0	2.0	0.0	0.0	65.0	66.0	176.0	140.0	81.0	970.01	72.0	41.0	-14.0	-997.0
1636887022.510379	2.0	1.0	0.0	2.0	0.0	0.0	65.0	66.0	175.0	140.0	81.0	969.94	73.0	62.0	-30.0	-996.0
1636887022.612104	-5.0	1.0	0.0	3.0	0.0	0.0	65.0	66.0	179.0	140.0	81.0	970.01	73.0	52.0	-24.0	-972.0
1636887022.612104	-5.0	1.0	0.0	3.0	0.0	0.0	65.0	66.0	179.0	140.0	81.0	970.01	73.0	52.0	-24.0	-972.0
1636887022.715419	-7.0	0.0	0.0	4.0	0.0	0.0	65.0	66.0	176.0	140.0	81.0	969.96	73.0	15.0	-13.0	-1018.0
1636887022.817541	-7.0	1.0	0.0	6.0	0.0	0.0	65.0	66.0	175.0	140.0	81.0	970.01	73.0	24.0	-23.0	-985.0
1636887022.915876	-4.0	1.0	0.0	7.0	0.0	0.0	65.0	66.0	175.0	140.0	81.0	969.99	73.0	11.0	-22.0	-1014.0
1636887023.021737	0.0	1.0	0.0	8.0	0.0	0.0	65.0	66.0	170.0	140.0	81.0	969.97	73.0	-3.0	-13.0	-1003.0
1636887023.123311	3.0	0.0	0.0	8.0	0.0	0.0	65.0	66.0	174.0	140.0	81.0	970.01	73.0	13.0	-20.0	-1002.0
1636887023.228419	4.0	0.0	0.0	6.0	0.0	0.0	63.0	67.0	172.0	140.0	81.0	969.98	73.0	23.0	-28.0	-1011.0
1636887023.324923	4.0	0.0	0.0	6.0	0.0	0.0	63.0	67.0	171.0	140.0	81.0	970.06	73.0	17.0	-25.0	-995.0
1636887023.430275	4.0	1.0	0.0	5.0	0.0	0.0	63.0	67.0	172.0	140.0	81.0	970.05	74.0	7.0	-15.0	-1020.0
1636887023.529535	4.0	1.0	0.0	4.0	0.0	0.0	63.0	67.0	171.0	140.0	81.0	970.02	74.0	31.0	-33.0	-1017.0
1636887023.633642	4.0	1.0	0.0	4.0	0.0	0.0	63.0	67.0	172.0	140.0	81.0	970.01	74.0	19.0	-42.0	-993.0
1636887023.735243	4.0	2.0	0.0	3.0	0.0	0.0	63.0	67.0	173.0	140.0	81.0	969.95	74.0	27.0	-26.0	-1015.0
1636887023.837125	2.0	2.0	0.0	3.0	0.0	0.0	63.0	67.0	171.0	140.0	81.0	969.95	74.0	23.0	-29.0	-1019.0
1636887023.939838	-4.0	2.0	0.0	3.0	0.0	0.0	63.0	67.0	170.0	140.0	81.0	969.92	74.0	26.0	-31.0	-1019.0
1636887024.041241	-7.0	1.0	0.0	5.0	0.0	0.0	63.0	67.0	174.0	140.0	81.0	969.94	74.0	50.0	-32.0	-948.0
1636887024.145746	-7.0	1.0	0.0	6.0	0.0	0.0	63.0	67.0	171.0	140.0	81.0	969.9	74.0	26.0	-37.0	-1000.0
1636887024.247116	-7.0	2.0	0.0	8.0	0.0	0.0	65.0	66.0	172.0	140.0	81.0	970.02	74.0	17.0	-48.0	-1014.0
1636887024.296971	-2.0	2.0	0.0	9.0	0.0	0.0	65.0	66.0	170.0	140.0	81.0	969.95	74.0	6.0	-34.0	-985.0
1636887024.398428	2.0	1.0	0.0	9.0	0.0	0.0	65.0	66.0	169.0	140.0	80.0	970.02	75.0	-22.0	-22.0	-1014.0
1636887024.498877	4.0	1.0	0.0	8.0	0.0	0.0	65.0	66.0	172.0	140.0	80.0	970.02	75.0	-15.0	-19.0	-1031.0
1636887024.601948	4.0	1.0	0.0	7.0	0.0	0.0	65.0	66.0	171.0	140.0	80.0	970.09	75.0	-12.0	-26.0	-1011.0
1636887024.701812	4.0	1.0	0.0	7.0	0.0	0.0	65.0	66.0	171.0	140.0	80.0	970.05	75.0	-3.0	-32.0	-1002.0
1636887024.804812	4.0	1.0	0.0	6.0	0.0	0.0	65.0	66.0	171.0	140.0	80.0	970.06	75.0	-5.0	-21.0	-997.0
1636887024.907608	4.0	2.0	0.0	5.0	0.0	0.0	65.0	66.0	172.0	140.0	80.0	970.08	75.0	2.0	-34.0	-988.0
1636887025.008466	4.0	2.0	0.0	5.0	0.0	0.0	65.0	66.0	172.0	140.0	80.0	970.12	75.0	3.0	-29.0	-994.0
1636887025.113709	4.0	2.0	0.0	4.0	0.0	0.0	65.0	66.0	171.0	140.0	80.0	970.07	75.0	17.0	-32.0	-1004.0
1636887025.213503	4.0	2.0	0.0	4.0	0.0	0.0	65.0	66.0	173.0	140.0	80.0	970.02	75.0	13.0	-30.0	-1007.0
1636887025.319208	4.0	2.0	0.0	3.0	0.0	0.0	65.0	66.0	176.0	140.0	80.0	970.11	75.0	27.0	-42.0	-990.0
1636887025.420596	3.0	2.0	0.0	3.0	0.0	0.0	65.0	66.0	174.0	140.0	80.0	970.07	76.0	25.0	-40.0	-1003.0
1636887025.519885	3.0	1.0	0.0	2.0	0.0	0.0	65.0	66.0	173.0	140.0	80.0	970.04	76.0	18.0	-36.0	-998.0
1636887025.623045	3.0	1.0	0.0	2.0	0.0	0.0	65.0	66.0	174.0	140.0	80.0	970.1	76.0	31.0	-39.0	-995.0
1636887025.722077	1.0	1.0	0.0	2.0	0.0	0.0	65.0	66.0	177.0	140.0	80.0	970.02	76.0	26.0	-33.0	-993.0
1636887025.827627	-5.0	1.0	0.0	2.0	0.0	0.0	65.0	66.0	177.0	140.0	80.0	970.06	76.0	29.0	-37.0	-1005.0
1636887025.929639	-8.0	1.0	0.0	4.0	0.0	0.0	65.0	66.0	179.0	140.0	80.0	970.04	76.0	26.0	-42.0	-1009.0
1636887026.02979	-8.0	1.0	0.0	6.0	0.0	0.0	65.0	66.0	181.0	140.0	80.0	970.05	76.0	35.0	-43.0	-992.0
1636887026.130898	-7.0	1.0	0.0	7.0	0.0	0.0	65.0	66.0	182.0	150.0	80.0	970.1	76.0	37.0	-46.0	-991.0
1636887026.237163	-2.0	2.0	0.0	9.0	0.0	0.0	64.0	66.0	178.0	150.0	80.0	970.07	76.0	2.0	-40.0	-992.0
1636887026.334866	2.0	1.0	0.0	9.0	0.0	0.0	64.0	66.0	175.0	150.0	80.0	970.1	76.0	-7.0	-31.0	-996.0
1636887026.437871	4.0	1.0	0.0	8.0	0.0	0.0	64.0	66.0	179.0	150.0	80.0	970.11	77.0	-1.0	-34.0	-992.0
1636887026.53984	4.0	1.0	0.0	7.0	0.0	0.0	64.0	66.0	174.0	150.0	80.0	970.11	77.0	1.0	-32.0	-1009.0
1636887026.642974	4.0	1.0	0.0	7.0	0.0	0.0	64.0	66.0	176.0	140.0	80.0	970.17	77.0	4.0	-29.0	-1013.0
1636887026.742851	4.0	2.0	0.0	6.0	0.0	0.0	64.0	66.0	175.0	140.0	80.0	970.08	77.0	15.0	-34.0	-992.0
1636887026.847448	4.0	2.0	0.0	5.0	0.0	0.0	64.0	66.0	174.0	140.0	80.0	970.1	77.0	20.0	-35.0	-1007.0
1636887026.946517	4.0	2.0	0.0	5.0	0.0	0.0	64.0	66.0	172.0	140.0	80.0	970.1	77.0	27.0	-37.0	-1019.0
1636887027.047897	4.0	1.0	0.0	4.0	0.0	0.0	64.0	66.0	172.0	140.0	80.0	970.07	77.0	33.0	-34.0	-1003.0
1636887027.153454	3.0	1.0	0.0	4.0	0.0	0.0	64.0	66.0	174.0	140.0	80.0	970.13	77.0	31.0	-31.0	-1018.0
1636887027.253344	-1.0	1.0	0.0	4.0	0.0	0.0	64.0	67.0	173.0	140.0	80.0	970.06	77.0	47.0	-35.0	-1025.0
1636887027.354249	-7.0	1.0	0.0	5.0	0.0	0.0	64.0	67.0	176.0	140.0	80.0	970.14	77.0	66.0	-48.0	-988.0
1636887027.456528	-8.0	0.0	0.0	7.0	0.0	0.0	64.0	67.0	178.0	140.0	80.0	970.03	78.0	18.0	-26.0	-1027.0
1636887027.559784	-7.0	1.0	0.0	8.0	0.0	0.0	64.0	67.0	177.0	140.0	80.0	970.15	78.0	7.0	-39.0	-1029.0
1636887027.659643	-5.0	2.0	0.0	10.0	0.0	0.0	64.0	67.0	176.0	140.0	80.0	970.09	78.0	14.0	-23.0	-989.0
1636887027.763722	0.0	1.0	0.0	10.0	0.0	0.0	64.0	67.0	173.0	140.0	80.0	970.11	78.0	0.0	-27.0	-1013.0
1636887027.867499	4.0	1.0	0.0	10.0	0.0	0.0	64.0	67.0	174.0	140.0	80.0	970.1	78.0	-8.0	-25.0	-1015.0
1636887027.967779	4.0	1.0	0.0	9.0	0.0	0.0	64.0	67.0	174.0	140.0	80.0	970.17	78.0	0.0	-24.0	-1003.0
1636887028.018718	5.0	1.0	0.0	8.0	0.0	0.0	64.0	67.0	176.0	140.0	80.0	970.2	78.0	4.0	-21.0	-1002.0
1636887028.122094	5.0	1.0	0.0	7.0	0.0	0.0	64.0	67.0	176.0	140.0	80.0	970.15	78.0	11.0	-21.0	-1005.0
1636887028.221888	5.0	1.0	0.0	7.0	0.0	0.0	64.0	67.0	177.0	140.0	80.0	970.1	78.0	23.0	-27.0	-991.0
1636887028.325473	5.0	1.0	0.0	6.0	0.0	0.0	64.0	67.0	178.0	140.0	80.0	970.04	78.0	23.0	-20.0	-994.0
1636887028.427623	5.0	1.0	0.0	5.0	0.0	0.0	64.0	67.0	174.0	140.0	80.0	970.19	79.0	41.0	-25.0	-1005.0
1636887028.531482	5.0	1.0	0.0	5.0	0.0	0.0	64.0	67.0	175.0	140.0	80.0	970.16	79.0	37.0	-20.0	-995.0
1636887028.632301	5.0	1.0	0.0	4.0	0.0	0.0	64.0	67.0	174.0	140.0	80.0	970.15	79.0	38.0	-15.0	-998.0
1636887028.731798	5.0	0.0	0.0	4.0	0.0	0.0	64.0	67.0	177.0	140.0	80.0	970.09	79.0	44.0	-16.0	-994.0
1636887028.836325	5.0	0.0	0.0	3.0	0.0	0.0	64.0	67.0	176.0	140.0	80.0	970.11	79.0	44.0	-10.0	-1004.0
1636887028.937069	4.0	0.0	0.0	3.0	0.0	0.0	64.0	67.0	177.0	140.0	80.0	970.19	79.0	50.0	-12.0	-989.0
1636887029.040237	4.0	0.0	0.0	2.0	0.0	0.0	64.0	67.0	175.0	140.0	80.0	970.14	79.0	59.0	-27.0	-988.0
1636887029.141378	4.0	0.0	0.0	2.0	0.0	0.0	64.0	67.0	174.0	140.0	80.0	970.07	79.0	54.0	-25.0	-993.0
1636887029.24436	4.0	0.0	0.0	2.0	0.0	0.0	65.0	67.0	177.0	140.0	80.0	970.15	79.0	60.0	-35.0	-1006.0
1636887029.344322	4.0	0.0	0.0	2.0	0.0	0.0	65.0	67.0	178.0	140.0	80.0	970.03	79.0	49.0	-39.0	-1004.0
1636887029.446596	4.0	1.0	0.0	1.0	0.0	0.0	65.0	67.0	177.0	140.0	80.0	970.1	80.0	44.0	-23.0	-993.0
1636887029.549786	4.0	1.0	0.0	1.0	0.0	0.0	65.0	67.0	173.0	140.0	80.0	970.06	80.0	62.0	-21.0	-963.0
