pitch	roll	yaw	vgx	vgy	vgz	templ	temph	tof	h	bat	baro	time	agx	agy	agz	timestamp
1.0	0.0	10.0	0.0	0.0	0.0	80.0	83.0	10.0	0.0	65.0	967.68	109.0	35.0	8.0	-998.0	1636887522.476583
1.0	0.0	10.0	0.0	0.0	0.0	80.0	83.0	10.0	0.0	65.0	967.68	109.0	35.0	8.0	-998.0	1636887522.476583
1.0	0.0	10.0	0.0	0.0	0.0	80.0	83.0	10.0	0.0	65.0	967.66	109.0	34.0	7.0	-998.0	1636887522.5789
1.0	0.0	10.0	0.0	0.0	0.0	80.0	83.0	10.0	0.0	65.0	967.75	109.0	35.0	7.0	-996.0	1636887522.683276
1.0	0.0	10.0	0.0	0.0	0.0	80.0	83.0	10.0	0.0	65.0	967.7	109.0	33.0	7.0	-998.0	1636887522.785524
1.0	0.0	10.0	0.0	0.0	0.0	79.0	82.0	10.0	0.0	65.0	967.75	109.0	34.0	6.0	-998.0	1636887522.887206
1.0	0.0	10.0	0.0	0.0	0.0	79.0	82.0	10.0	0.0	65.0	967.72	109.0	34.0	6.0	-999.0	1636887522.988299
1.0	0.0	10.0	0.0	0.0	0.0	79.0	82.0	10.0	0.0	65.0	967.7	109.0	34.0	7.0	-1001.0	1636887523.089965
1.0	0.0	10.0	0.0	0.0	0.0	79.0	82.0	10.0	0.0	65.0	967.69	109.0	35.0	7.0	-1001.0	1636887523.19055
1.0	0.0	10.0	0.0	0.0	0.0	79.0	82.0	10.0	0.0	65.0	967.68	109.0	34.0	7.0	-998.0	1636887523.29471
1.0	0.0	10.0	0.0	0.0	0.0	79.0	82.0	10.0	0.0	65.0	967.73	109.0	34.0	8.0	-996.0	1636887523.396806
1.0	0.0	10.0	0.0	0.0	0.0	79.0	82.0	10.0	0.0	65.0	967.7	109.0	34.0	8.0	-997.0	1636887523.499052
1.0	0.0	10.0	0.0	0.0	0.0	79.0	82.0	10.0	0.0	65.0	967.62	109.0	34.0	7.0	-999.0	1636887523.599518
1.0	0.0	10.0	0.0	0.0	0.0	79.0	82.0	10.0	0.0	65.0	967.7	109.0	35.0	7.0	-999.0	1636887523.656146
1.0	0.0	10.0	0.0	0.0	0.0	79.0	82.0	10.0	0.0	65.0	967.68	109.0	33.0	9.0	-1000.0	1636887523.752969
1.0	0.0	10.0	0.0	0.0	0.0	80.0	82.0	10.0	0.0	65.0	967.68	109.0	35.0	6.0	-1002.0	1636887523.857671
1.0	0.0	10.0	0.0	0.0	0.0	80.0	82.0	10.0	0.0	65.0	967.65	109.0	33.0	7.0	-999.0	1636887523.959065
1.0	0.0	10.0	0.0	0.0	0.0	80.0	82.0	10.0	0.0	65.0	967.71	109.0	34.0	8.0	-997.0	1636887524.061192
1.0	0.0	10.0	0.0	0.0	0.0	80.0	82.0	10.0	0.0	65.0	967.73	109.0	34.0	6.0	-1000.0	1636887524.16554
1.0	0.0	10.0	0.0	0.0	0.0	80.0	82.0	10.0	0.0	65.0	967.71	109.0	33.0	7.0	-996.0	1636887524.268097
1.0	0.0	10.0	0.0	0.0	0.0	80.0	82.0	10.0	0.0	65.0	967.65	109.0	32.0	6.0	-1000.0	1636887524.364428
1.0	0.0	10.0	0.0	0.0	0.0	80.0	82.0	10.0	0.0	65.0	967.72	109.0	34.0	7.0	-998.0	1636887524.468151
1.0	0.0	10.0	0.0	0.0	0.0	80.0	82.0	10.0	0.0	65.0	967.68	109.0	34.0	7.0	-1000.0	1636887524.570159
1.0	0.0	10.0	0.0	0.0	0.0	80.0	82.0	10.0	0.0	65.0	967.66	109.0	35.0	7.0	-998.0	1636887524.673725
1.0	0.0	10.0	0.0	0.0	0.0	80.0	82.0	10.0	0.0	65.0	967.67	109.0	34.0	7.0	-998.0	1636887524.774783
1.0	0.0	10.0	0.0	0.0	0.0	79.0	82.0	10.0	0.0	65.0	967.7	109.0	35.0	7.0	-1000.0	1636887524.877623
1.0	0.0	10.0	0.0	0.0	0.0	79.0	82.0	10.0	0.0	65.0	967.72	109.0	34.0	7.0	-999.0	1636887524.978389
1.0	0.0	10.0	0.0	0.0	0.0	79.0	82.0	10.0	0.0	65.0	967.74	109.0	32.0	8.0	-999.0	1636887525.081582
1.0	0.0	10.0	0.0	0.0	0.0	79.0	82.0	10.0	0.0	65.0	967.77	109.0	34.0	7.0	-1000.0	1636887525.18315
1.0	0.0	10.0	0.0	0.0	0.0	79.0	82.0	10.0	0.0	65.0	967.7	109.0	34.0	6.0	-998.0	1636887525.381628
1.0	0.0	10.0	0.0	0.0	0.0	79.0	82.0	10.0	0.0	65.0	967.71	109.0	33.0	8.0	-998.0	1636887525.386874
1.0	0.0	10.0	0.0	0.0	0.0	79.0	82.0	10.0	0.0	65.0	967.74	109.0	34.0	8.0	-997.0	1636887525.489643
1.0	0.0	10.0	0.0	0.0	0.0	79.0	82.0	10.0	0.0	65.0	967.72	109.0	32.0	7.0	-999.0	1636887525.59164
1.0	0.0	10.0	0.0	0.0	0.0	79.0	82.0	10.0	0.0	65.0	967.7	109.0	33.0	8.0	-998.0	1636887525.693156
1.0	0.0	10.0	0.0	0.0	0.0	79.0	82.0	10.0	0.0	65.0	967.75	109.0	33.0	7.0	-1002.0	1636887525.79571
1.0	0.0	10.0	0.0	0.0	0.0	80.0	81.0	10.0	0.0	65.0	967.74	109.0	34.0	8.0	-999.0	1636887525.897042
1.0	0.0	10.0	0.0	0.0	0.0	80.0	81.0	10.0	0.0	65.0	967.78	109.0	34.0	6.0	-998.0	1636887525.998986
1.0	0.0	10.0	0.0	0.0	0.0	80.0	81.0	10.0	0.0	65.0	967.68	109.0	34.0	9.0	-998.0	1636887526.100209
1.0	0.0	10.0	0.0	0.0	0.0	80.0	81.0	10.0	0.0	65.0	967.69	109.0	34.0	7.0	-998.0	1636887526.201837
1.0	0.0	10.0	0.0	0.0	0.0	80.0	81.0	10.0	0.0	65.0	967.75	109.0	34.0	8.0	-998.0	1636887526.302474
1.0	0.0	10.0	0.0	0.0	0.0	80.0	81.0	10.0	0.0	65.0	967.72	109.0	33.0	9.0	-1000.0	1636887526.405414
1.0	0.0	10.0	0.0	0.0	0.0	80.0	81.0	10.0	0.0	65.0	967.75	109.0	34.0	7.0	-997.0	1636887526.507131
1.0	0.0	10.0	0.0	0.0	0.0	80.0	81.0	10.0	0.0	65.0	967.74	109.0	34.0	7.0	-1000.0	1636887526.607817
1.0	0.0	10.0	0.0	0.0	0.0	80.0	81.0	10.0	0.0	65.0	967.68	109.0	34.0	7.0	-998.0	1636887526.711211
1.0	0.0	10.0	0.0	0.0	0.0	80.0	81.0	10.0	0.0	65.0	967.73	109.0	34.0	6.0	-997.0	1636887526.811796
1.0	0.0	10.0	0.0	0.0	0.0	80.0	82.0	10.0	0.0	65.0	967.76	109.0	36.0	7.0	-1000.0	1636887526.918209
1.0	0.0	10.0	0.0	0.0	0.0	80.0	82.0	10.0	0.0	65.0	967.76	109.0	34.0	6.0	-997.0	1636887527.019546
1.0	0.0	10.0	0.0	0.0	0.0	80.0	82.0	10.0	0.0	65.0	967.68	109.0	34.0	6.0	-1000.0	1636887527.119427
1.0	0.0	10.0	0.0	0.0	0.0	80.0	82.0	10.0	0.0	65.0	967.7	109.0	34.0	8.0	-1001.0	1636887527.174005
1.0	0.0	10.0	0.0	0.0	0.0	80.0	82.0	10.0	0.0	65.0	967.74	109.0	34.0	7.0	-998.0	1636887527.272991
1.0	0.0	10.0	0.0	0.0	0.0	80.0	82.0	10.0	0.0	65.0	967.77	109.0	33.0	7.0	-1002.0	1636887527.376348
1.0	0.0	10.0	0.0	0.0	0.0	80.0	82.0	10.0	0.0	65.0	967.69	109.0	34.0	7.0	-997.0	1636887527.478045
1.0	0.0	10.0	0.0	0.0	0.0	80.0	82.0	10.0	0.0	65.0	967.76	109.0	34.0	8.0	-996.0	1636887527.578441
1.0	0.0	10.0	0.0	0.0	0.0	80.0	82.0	10.0	0.0	65.0	967.76	109.0	33.0	9.0	-999.0	1636887527.679465
1.0	0.0	10.0	0.0	0.0	0.0	80.0	82.0	10.0	0.0	65.0	967.76	109.0	33.0	9.0	-998.0	1636887527.784386
1.0	0.0	10.0	0.0	0.0	0.0	80.0	82.0	10.0	0.0	65.0	967.72	109.0	35.0	8.0	-995.0	1636887527.886256
1.0	0.0	10.0	0.0	0.0	0.0	80.0	82.0	10.0	0.0	65.0	967.7	109.0	36.0	8.0	-999.0	1636887527.985691
1.0	0.0	10.0	0.0	0.0	0.0	80.0	82.0	10.0	0.0	65.0	967.74	109.0	33.0	8.0	-998.0	1636887528.08976
1.0	0.0	10.0	0.0	0.0	0.0	80.0	82.0	10.0	0.0	65.0	967.76	109.0	33.0	6.0	-1001.0	1636887528.19127
1.0	0.0	10.0	0.0	0.0	0.0	80.0	82.0	10.0	0.0	65.0	967.79	109.0	35.0	7.0	-1002.0	1636887528.294172
1.0	0.0	10.0	0.0	0.0	0.0	80.0	82.0	10.0	0.0	65.0	967.76	109.0	36.0	8.0	-999.0	1636887528.39747
1.0	0.0	10.0	0.0	0.0	0.0	80.0	82.0	10.0	0.0	65.0	967.73	109.0	34.0	6.0	-999.0	1636887528.497747
1.0	0.0	10.0	0.0	0.0	0.0	80.0	82.0	10.0	0.0	65.0	967.73	109.0	35.0	8.0	-997.0	1636887528.60113
1.0	0.0	10.0	0.0	0.0	0.0	80.0	82.0	10.0	0.0	65.0	967.74	109.0	35.0	9.0	-995.0	1636887528.702413
1.0	0.0	10.0	0.0	0.0	0.0	80.0	82.0	10.0	0.0	65.0	967.73	109.0	35.0	9.0	-997.0	1636887528.804019
1.0	0.0	10.0	0.0	0.0	0.0	80.0	82.0	10.0	0.0	65.0	967.7	109.0	34.0	7.0	-1000.0	1636887528.903604
1.0	0.0	10.0	0.0	0.0	0.0	80.0	82.0	10.0	0.0	65.0	967.74	109.0	35.0	9.0	-1002.0	1636887529.008329
1.0	0.0	10.0	0.0	0.0	0.0	80.0	82.0	10.0	0.0	65.0	967.68	109.0	35.0	8.0	-998.0	1636887529.11024
1.0	0.0	10.0	0.0	0.0	0.0	80.0	82.0	10.0	0.0	65.0	967.7	109.0	34.0	9.0	-999.0	1636887529.211653
1.0	0.0	10.0	0.0	0.0	0.0	80.0	82.0	10.0	0.0	65.0	967.72	109.0	33.0	7.0	-1002.0	1636887529.314113
1.0	0.0	10.0	0.0	0.0	0.0	80.0	82.0	10.0	0.0	65.0	967.74	109.0	33.0	8.0	-998.0	1636887529.417549
1.0	0.0	10.0	0.0	0.0	0.0	80.0	82.0	10.0	0.0	65.0	967.72	109.0	33.0	7.0	-999.0	1636887529.517235
1.0	0.0	10.0	0.0	0.0	0.0	80.0	82.0	10.0	0.0	65.0	967.73	109.0	35.0	8.0	-998.0	1636887529.620173
1.0	0.0	10.0	0.0	0.0	0.0	80.0	82.0	10.0	0.0	65.0	967.73	109.0	34.0	8.0	-998.0	1636887529.720592
1.0	0.0	10.0	0.0	0.0	0.0	80.0	82.0	10.0	0.0	65.0	967.7	109.0	34.0	7.0	-998.0	1636887529.825265
1.0	0.0	10.0	0.0	0.0	0.0	79.0	82.0	10.0	0.0	65.0	967.74	109.0	34.0	8.0	-997.0	1636887529.926301
1.0	0.0	10.0	0.0	0.0	0.0	79.0	82.0	10.0	0.0	65.0	967.67	109.0	36.0	8.0	-997.0	1636887530.028194
1.0	0.0	10.0	0.0	0.0	0.0	79.0	82.0	10.0	0.0	65.0	967.76	109.0	33.0	9.0	-999.0	1636887530.131023
1.0	0.0	10.0	0.0	0.0	0.0	79.0	82.0	10.0	0.0	65.0	967.7	109.0	35.0	9.0	-999.0	1636887530.233194
1.0	0.0	10.0	0.0	0.0	0.0	79.0	82.0	10.0	0.0	65.0	967.71	109.0	33.0	8.0	-998.0	1636887530.333779
1.0	0.0	10.0	0.0	0.0	0.0	79.0	82.0	10.0	0.0	65.0	967.73	109.0	34.0	7.0	-999.0	1636887530.436617
1.0	0.0	10.0	0.0	0.0	0.0	79.0	82.0	10.0	0.0	65.0	967.7	109.0	34.0	7.0	-1000.0	1636887530.54102
1.0	0.0	10.0	0.0	0.0	0.0	79.0	82.0	10.0	0.0	65.0	967.72	109.0	34.0	8.0	-999.0	1636887530.641019
1.0	0.0	10.0	0.0	0.0	0.0	79.0	82.0	10.0	0.0	65.0	967.71	109.0	35.0	6.0	-998.0	1636887530.692216
1.0	0.0	10.0	0.0	0.0	0.0	79.0	82.0	10.0	0.0	65.0	967.74	109.0	35.0	7.0	-1000.0	1636887530.793978
1.0	0.0	10.0	0.0	0.0	0.0	80.0	82.0	10.0	0.0	65.0	967.75	109.0	33.0	8.0	-1000.0	1636887530.944099
1.0	0.0	10.0	0.0	0.0	0.0	80.0	82.0	10.0	0.0	65.0	967.75	109.0	33.0	8.0	-1000.0	1636887530.999229
1.0	0.0	10.0	0.0	0.0	0.0	80.0	82.0	10.0	0.0	65.0	967.78	109.0	36.0	10.0	-1000.0	1636887531.099528
1.0	0.0	10.0	0.0	0.0	0.0	80.0	82.0	10.0	0.0	65.0	967.75	109.0	34.0	8.0	-998.0	1636887531.202228
1.0	0.0	10.0	0.0	0.0	0.0	80.0	82.0	10.0	0.0	65.0	967.73	109.0	35.0	8.0	-1002.0	1636887531.304076
1.0	0.0	10.0	0.0	0.0	0.0	80.0	82.0	10.0	0.0	65.0	967.69	109.0	34.0	7.0	-1000.0	1636887531.40266
1.0	0.0	10.0	0.0	0.0	0.0	80.0	82.0	10.0	0.0	65.0	967.76	109.0	34.0	8.0	-999.0	1636887531.507814
1.0	0.0	10.0	0.0	0.0	0.0	80.0	82.0	10.0	0.0	65.0	967.71	109.0	35.0	6.0	-998.0	1636887531.608825
1.0	0.0	10.0	0.0	0.0	0.0	80.0	82.0	10.0	0.0	65.0	967.71	109.0	34.0	9.0	-997.0	1636887531.709148
1.0	0.0	10.0	0.0	0.0	0.0	80.0	82.0	10.0	0.0	65.0	967.75	109.0	34.0	8.0	-999.0	1636887531.811696
1.0	0.0	10.0	0.0	0.0	0.0	80.0	82.0	10.0	0.0	65.0	967.75	109.0	34.0	8.0	-998.0	1636887531.915949
1.0	0.0	10.0	0.0	0.0	0.0	80.0	82.0	10.0	0.0	65.0	967.73	109.0	35.0	8.0	-997.0	1636887532.015367
1.0	0.0	10.0	0.0	0.0	0.0	80.0	82.0	10.0	0.0	65.0	967.74	109.0	33.0	7.0	-998.0	1636887532.118009
1.0	0.0	10.0	0.0	0.0	0.0	80.0	82.0	10.0	0.0	65.0	967.76	109.0	33.0	8.0	-999.0	1636887532.22037
1.0	0.0	10.0	0.0	0.0	0.0	80.0	82.0	10.0	0.0	65.0	967.79	109.0	35.0	6.0	-998.0	1636887532.322699
1.0	0.0	10.0	0.0	0.0	0.0	80.0	82.0	10.0	0.0	65.0	967.7	109.0	34.0	7.0	-998.0	1636887532.423815
1.0	0.0	10.0	0.0	0.0	0.0	80.0	82.0	10.0	0.0	65.0	967.75	109.0	34.0	7.0	-998.0	1636887532.525518
1.0	0.0	10.0	0.0	0.0	0.0	80.0	82.0	10.0	0.0	65.0	967.78	109.0	33.0	9.0	-999.0	1636887532.63056
1.0	0.0	10.0	0.0	0.0	0.0	80.0	82.0	10.0	0.0	65.0	967.76	109.0	34.0	7.0	-999.0	1636887532.73031
1.0	0.0	10.0	0.0	0.0	0.0	80.0	82.0	10.0	0.0	65.0	967.77	109.0	34.0	7.0	-998.0	1636887532.833064
1.0	0.0	10.0	0.0	0.0	0.0	80.0	82.0	10.0	0.0	65.0	967.75	109.0	35.0	7.0	-997.0	1636887532.935096
1.0	0.0	10.0	0.0	0.0	0.0	80.0	82.0	10.0	0.0	65.0	967.73	109.0	34.0	8.0	-998.0	1636887533.034357
1.0	0.0	10.0	0.0	0.0	0.0	80.0	82.0	10.0	0.0	65.0	967.7	109.0	34.0	7.0	-999.0	1636887533.136688
1.0	0.0	10.0	0.0	0.0	0.0	80.0	82.0	10.0	0.0	65.0	967.72	109.0	34.0	8.0	-999.0	1636887533.240541
1.0	0.0	10.0	0.0	0.0	0.0	80.0	82.0	10.0	0.0	65.0	967.75	109.0	34.0	8.0	-997.0	1636887533.34313
1.0	0.0	10.0	0.0	0.0	0.0	80.0	82.0	10.0	0.0	65.0	967.78	109.0	33.0	7.0	-1002.0	1636887533.444312
1.0	0.0	10.0	0.0	0.0	0.0	80.0	82.0	10.0	0.0	65.0	967.74	109.0	35.0	7.0	-1000.0	1636887533.54764
1.0	0.0	10.0	0.0	0.0	0.0	80.0	82.0	10.0	0.0	65.0	967.73	109.0	33.0	9.0	-999.0	1636887533.649452
1.0	0.0	10.0	0.0	0.0	0.0	80.0	82.0	10.0	0.0	65.0	967.75	109.0	35.0	7.0	-999.0	1636887533.753376
1.0	0.0	10.0	0.0	0.0	0.0	80.0	82.0	10.0	0.0	65.0	967.73	109.0	36.0	8.0	-999.0	1636887533.854093
1.0	0.0	10.0	0.0	0.0	0.0	80.0	82.0	10.0	0.0	65.0	967.76	109.0	34.0	7.0	-997.0	1636887533.955563
1.0	0.0	10.0	0.0	0.0	0.0	80.0	82.0	10.0	0.0	65.0	967.74	109.0	35.0	9.0	-999.0	1636887534.055447
1.0	0.0	10.0	0.0	0.0	0.0	80.0	82.0	10.0	0.0	65.0	967.75	109.0	33.0	8.0	-1000.0	1636887534.158459
1.0	0.0	10.0	0.0	0.0	0.0	80.0	82.0	10.0	0.0	65.0	967.78	109.0	35.0	7.0	-998.0	1636887534.262239
1.0	0.0	10.0	0.0	0.0	0.0	80.0	82.0	10.0	0.0	65.0	967.72	109.0	34.0	9.0	-996.0	1636887534.311537
1.0	0.0	10.0	0.0	0.0	0.0	80.0	82.0	10.0	0.0	65.0	967.71	109.0	35.0	7.0	-996.0	1636887534.411523
1.0	0.0	10.0	0.0	0.0	0.0	80.0	82.0	10.0	0.0	65.0	967.79	109.0	34.0	8.0	-1000.0	1636887534.515241
1.0	0.0	10.0	0.0	0.0	0.0	80.0	82.0	10.0	0.0	65.0	967.73	109.0	33.0	8.0	-998.0	1636887534.618466
1.0	0.0	10.0	0.0	0.0	0.0	80.0	82.0	10.0	0.0	65.0	967.79	109.0	33.0	7.0	-1000.0	1636887534.721163
1.0	0.0	10.0	0.0	0.0	0.0	80.0	82.0	10.0	0.0	65.0	967.75	109.0	34.0	8.0	-999.0	1636887534.819876
1.0	0.0	10.0	0.0	0.0	0.0	79.0	81.0	10.0	0.0	65.0	967.68	109.0	34.0	7.0	-998.0	1636887534.92254
1.0	0.0	10.0	0.0	0.0	0.0	79.0	81.0	10.0	0.0	65.0	967.72	109.0	33.0	8.0	-998.0	1636887535.02673
1.0	0.0	10.0	0.0	0.0	0.0	79.0	81.0	10.0	0.0	65.0	967.74	109.0	35.0	9.0	-998.0	1636887535.127108
1.0	0.0	10.0	0.0	0.0	0.0	79.0	81.0	10.0	0.0	65.0	967.73	109.0	34.0	8.0	-1001.0	1636887535.227475
1.0	0.0	10.0	0.0	0.0	0.0	79.0	81.0	10.0	0.0	65.0	967.69	109.0	33.0	8.0	-998.0	1636887535.333233
1.0	0.0	10.0	0.0	0.0	0.0	79.0	81.0	10.0	0.0	65.0	967.8	109.0	34.0	8.0	-999.0	1636887535.431967
1.0	0.0	10.0	0.0	0.0	0.0	79.0	81.0	10.0	0.0	65.0	967.72	109.0	33.0	7.0	-998.0	1636887535.534258
1.0	0.0	10.0	0.0	0.0	0.0	79.0	81.0	10.0	0.0	65.0	967.74	109.0	34.0	7.0	-1001.0	1636887535.638935
1.0	0.0	10.0	0.0	0.0	0.0	79.0	81.0	10.0	0.0	65.0	967.73	109.0	34.0	7.0	-1001.0	1636887535.738767
1.0	0.0	10.0	0.0	0.0	0.0	79.0	81.0	10.0	0.0	65.0	967.76	109.0	35.0	6.0	-999.0	1636887535.839282
1.0	0.0	10.0	0.0	0.0	0.0	80.0	81.0	10.0	0.0	65.0	967.75	109.0	34.0	8.0	-997.0	1636887535.94517
1.0	0.0	10.0	0.0	0.0	0.0	80.0	81.0	10.0	0.0	65.0	967.76	109.0	33.0	8.0	-1000.0	1636887536.045248
1.0	0.0	10.0	0.0	0.0	0.0	80.0	81.0	10.0	0.0	65.0	967.78	109.0	34.0	8.0	-998.0	1636887536.145528
1.0	0.0	10.0	0.0	0.0	0.0	80.0	81.0	10.0	0.0	65.0	967.72	109.0	34.0	6.0	-1000.0	1636887536.250476
1.0	0.0	10.0	0.0	0.0	0.0	80.0	81.0	10.0	0.0	65.0	967.73	109.0	32.0	8.0	-998.0	1636887536.351278
1.0	0.0	10.0	0.0	0.0	0.0	80.0	81.0	10.0	0.0	65.0	967.69	109.0	33.0	8.0	-998.0	1636887536.455624
1.0	0.0	10.0	0.0	0.0	0.0	80.0	81.0	10.0	0.0	65.0	967.7	109.0	34.0	8.0	-997.0	1636887536.556952
1.0	0.0	10.0	0.0	0.0	0.0	80.0	81.0	10.0	0.0	65.0	967.79	109.0	33.0	8.0	-999.0	1636887536.66013
1.0	0.0	10.0	0.0	0.0	0.0	80.0	81.0	10.0	0.0	65.0	967.76	109.0	35.0	7.0	-1001.0	1636887536.760016
1.0	0.0	10.0	0.0	0.0	0.0	80.0	81.0	10.0	0.0	65.0	967.76	109.0	34.0	6.0	-999.0	1636887536.863844
1.0	0.0	10.0	0.0	0.0	0.0	80.0	82.0	10.0	0.0	65.0	967.76	109.0	29.0	10.0	-999.0	1636887536.965227
1.0	0.0	10.0	0.0	0.0	0.0	80.0	82.0	10.0	0.0	65.0	967.76	109.0	35.0	12.0	-1001.0	1636887537.066677
1.0	0.0	10.0	0.0	0.0	0.0	80.0	82.0	10.0	0.0	65.0	967.76	109.0	24.0	12.0	-1010.0	1636887537.167552
1.0	0.0	10.0	0.0	0.0	0.0	80.0	82.0	10.0	0.0	65.0	967.76	109.0	20.0	6.0	-1004.0	1636887537.269117
1.0	0.0	10.0	0.0	0.0	0.0	80.0	82.0	10.0	0.0	65.0	967.76	109.0	46.0	-17.0	-1013.0	1636887537.372178
0.0	0.0	10.0	0.0	0.0	0.0	80.0	82.0	10.0	0.0	65.0	967.76	109.0	26.0	-20.0	-1128.0	1636887537.474323
-3.0	1.0	9.0	0.0	0.0	-1.0	80.0	82.0	10.0	0.0	65.0	967.76	109.0	28.0	-22.0	-1170.0	1636887537.576973
-1.0	0.0	9.0	1.0	0.0	-4.0	80.0	82.0	10.0	0.0	65.0	967.76	110.0	38.0	-47.0	-1309.0	1636887537.679052
1.0	0.0	9.0	1.0	0.0	-7.0	80.0	82.0	12.0	10.0	65.0	967.76	110.0	23.0	-33.0	-1172.0	1636887537.779815
3.0	0.0	10.0	1.0	0.0	-8.0	80.0	82.0	21.0	20.0	65.0	968.07	110.0	21.0	-45.0	-1068.0	1636887537.829296
4.0	0.0	10.0	1.0	0.0	-8.0	79.0	82.0	29.0	30.0	65.0	968.08	110.0	17.0	-37.0	-1003.0	1636887537.981217
3.0	2.0	9.0	0.0	0.0	-8.0	79.0	82.0	35.0	30.0	65.0	968.2	110.0	19.0	-28.0	-954.0	1636887538.088298
3.0	2.0	9.0	0.0	0.0	-8.0	79.0	82.0	42.0	40.0	65.0	968.27	110.0	30.0	-24.0	-911.0	1636887538.136244
2.0	2.0	9.0	0.0	0.0	-7.0	79.0	82.0	49.0	50.0	65.0	968.31	110.0	29.0	-26.0	-887.0	1636887538.236247
2.0	2.0	10.0	0.0	0.0	-6.0	79.0	82.0	55.0	60.0	65.0	968.43	110.0	39.0	-31.0	-859.0	1636887538.339357
2.0	1.0	10.0	0.0	0.0	-4.0	79.0	82.0	60.0	60.0	65.0	968.41	110.0	44.0	-49.0	-881.0	1636887538.440771
2.0	1.0	10.0	0.0	0.0	-3.0	79.0	82.0	65.0	60.0	65.0	968.49	110.0	34.0	-28.0	-883.0	1636887538.542192
2.0	2.0	10.0	0.0	0.0	-2.0	79.0	82.0	67.0	70.0	65.0	968.46	111.0	43.0	-27.0	-919.0	1636887538.647341
2.0	1.0	10.0	0.0	0.0	-1.0	79.0	82.0	69.0	70.0	65.0	968.51	111.0	42.0	-31.0	-940.0	1636887538.748582
2.0	2.0	10.0	0.0	0.0	-1.0	79.0	82.0	72.0	70.0	65.0	968.45	111.0	38.0	-27.0	-963.0	1636887538.850807
2.0	2.0	10.0	0.0	0.0	0.0	80.0	82.0	73.0	70.0	65.0	968.46	111.0	24.0	-22.0	-975.0	1636887538.953655
2.0	2.0	10.0	0.0	0.0	0.0	80.0	82.0	74.0	70.0	65.0	968.5	111.0	43.0	-32.0	-988.0	1636887539.052817
2.0	2.0	10.0	0.0	0.0	0.0	80.0	82.0	75.0	70.0	65.0	968.49	111.0	39.0	-35.0	-989.0	1636887539.155307
2.0	2.0	10.0	0.0	0.0	0.0	80.0	82.0	75.0	70.0	65.0	968.51	111.0	35.0	-32.0	-1015.0	1636887539.256815
2.0	2.0	10.0	0.0	0.0	0.0	80.0	82.0	76.0	80.0	65.0	968.5	111.0	45.0	-40.0	-1005.0	1636887539.361513
2.0	2.0	9.0	0.0	0.0	0.0	80.0	82.0	77.0	80.0	65.0	968.51	111.0	41.0	-40.0	-1001.0	1636887539.462813
2.0	3.0	9.0	0.0	0.0	0.0	80.0	82.0	78.0	80.0	65.0	968.5	111.0	59.0	-38.0	-1127.0	1636887539.565197
2.0	3.0	9.0	0.0	0.0	-2.0	80.0	82.0	81.0	80.0	65.0	968.55	112.0	66.0	-30.0	-1190.0	1636887539.667759
3.0	2.0	10.0	0.0	0.0	-4.0	80.0	82.0	86.0	80.0	65.0	968.64	112.0	62.0	-39.0	-1176.0	1636887539.768747
3.0	1.0	10.0	0.0	0.0	-5.0	80.0	82.0	93.0	90.0	65.0	968.64	112.0	56.0	-39.0	-1158.0	1636887539.869582
3.0	1.0	10.0	0.0	0.0	-7.0	79.0	82.0	101.0	90.0	65.0	968.72	112.0	66.0	-36.0	-1118.0	1636887539.973441
3.0	2.0	10.0	0.0	0.0	-8.0	79.0	82.0	110.0	100.0	65.0	968.8	112.0	51.0	-41.0	-1098.0	1636887540.073102
3.0	1.0	9.0	0.0	0.0	-9.0	79.0	82.0	118.0	110.0	65.0	968.83	112.0	37.0	-46.0	-1051.0	1636887540.174585
3.0	1.0	10.0	0.0	0.0	-9.0	79.0	82.0	129.0	120.0	65.0	968.97	112.0	32.0	-39.0	-1027.0	1636887540.278649
2.0	1.0	10.0	0.0	0.0	-10.0	79.0	82.0	139.0	130.0	65.0	969.12	112.0	39.0	-31.0	-1009.0	1636887540.381589
2.0	2.0	9.0	0.0	0.0	-10.0	79.0	82.0	149.0	140.0	65.0	969.22	112.0	41.0	-35.0	-1006.0	1636887540.481712
1.0	2.0	9.0	0.0	0.0	-10.0	79.0	82.0	159.0	150.0	65.0	969.3	112.0	38.0	-20.0	-987.0	1636887540.584785
1.0	2.0	10.0	0.0	0.0	-10.0	79.0	82.0	168.0	160.0	65.0	969.33	113.0	54.0	-20.0	-989.0	1636887540.6862
1.0	1.0	10.0	0.0	0.0	-10.0	79.0	82.0	180.0	170.0	65.0	969.52	113.0	59.0	-40.0	-1016.0	1636887540.786934
2.0	0.0	10.0	0.0	0.0	-10.0	79.0	82.0	193.0	180.0	65.0	969.5	113.0	56.0	-48.0	-1012.0	1636887540.889401
3.0	1.0	10.0	0.0	0.0	-10.0	79.0	81.0	208.0	190.0	65.0	969.66	113.0	52.0	-37.0	-999.0	1636887540.993507
3.0	2.0	10.0	0.0	0.0	-10.0	79.0	81.0	222.0	200.0	65.0	969.77	113.0	44.0	-36.0	-988.0	1636887541.092009
3.0	3.0	10.0	0.0	0.0	-10.0	79.0	81.0	229.0	210.0	65.0	969.87	113.0	69.0	-47.0	-988.0	1636887541.195841
2.0	3.0	9.0	0.0	0.0	-10.0	79.0	81.0	245.0	220.0	65.0	969.98	113.0	91.0	-30.0	-981.0	1636887541.29866
3.0	2.0	9.0	0.0	0.0	-10.0	79.0	81.0	254.0	240.0	65.0	969.95	113.0	76.0	-31.0	-995.0	1636887541.401426
4.0	2.0	9.0	0.0	0.0	-10.0	79.0	81.0	264.0	250.0	65.0	970.2	113.0	86.0	-37.0	-958.0	1636887541.580429
5.0	1.0	9.0	0.0	0.0	-10.0	79.0	81.0	278.0	260.0	65.0	970.25	113.0	50.0	-25.0	-818.0	1636887541.602087
5.0	1.0	10.0	0.0	0.0	-8.0	79.0	81.0	289.0	270.0	65.0	970.42	114.0	69.0	-18.0	-774.0	1636887541.725471
5.0	2.0	10.0	0.0	0.0	-6.0	79.0	81.0	290.0	280.0	65.0	970.45	114.0	65.0	-20.0	-792.0	1636887541.758656
5.0	3.0	10.0	0.0	0.0	-4.0	79.0	81.0	294.0	280.0	65.0	970.36	114.0	81.0	-29.0	-823.0	1636887541.862995
5.0	3.0	10.0	0.0	0.0	-2.0	79.0	81.0	292.0	290.0	65.0	970.37	114.0	67.0	-25.0	-885.0	1636887542.023322
5.0	1.0	10.0	0.0	0.0	-1.0	79.0	81.0	295.0	290.0	65.0	970.35	114.0	58.0	-61.0	-914.0	1636887542.064699
4.0	0.0	10.0	0.0	0.0	0.0	79.0	81.0	290.0	290.0	65.0	970.36	114.0	42.0	-48.0	-954.0	1636887542.166787
3.0	2.0	10.0	0.0	0.0	0.0	79.0	81.0	296.0	290.0	65.0	970.38	114.0	32.0	-35.0	-961.0	1636887542.266729
3.0	3.0	10.0	0.0	0.0	0.0	79.0	81.0	294.0	290.0	65.0	970.4	114.0	59.0	-53.0	-990.0	1636887542.369398
2.0	3.0	10.0	0.0	0.0	0.0	79.0	81.0	288.0	290.0	65.0	970.4	114.0	59.0	-73.0	-997.0	1636887542.469919
2.0	3.0	10.0	0.0	0.0	0.0	79.0	81.0	292.0	290.0	65.0	970.31	114.0	76.0	-54.0	-1009.0	1636887542.602578
2.0	4.0	9.0	0.0	0.0	0.0	79.0	81.0	296.0	280.0	65.0	970.34	115.0	98.0	-2.0	-1008.0	1636887542.673889
3.0	3.0	9.0	0.0	0.0	0.0	79.0	81.0	288.0	280.0	65.0	970.28	115.0	80.0	-19.0	-1016.0	1636887542.812572
5.0	1.0	9.0	0.0	0.0	0.0	79.0	81.0	297.0	280.0	65.0	970.47	115.0	62.0	-47.0	-1020.0	1636887542.953648
4.0	2.0	9.0	0.0	0.0	0.0	79.0	80.0	287.0	280.0	65.0	970.39	115.0	56.0	-38.0	-1032.0	1636887542.981611
5.0	2.0	9.0	0.0	0.0	0.0	79.0	80.0	287.0	280.0	65.0	970.37	115.0	99.0	-53.0	-991.0	1636887543.168737
5.0	1.0	9.0	0.0	0.0	0.0	79.0	80.0	298.0	290.0	65.0	970.41	115.0	101.0	-42.0	-1022.0	1636887543.18414
5.0	2.0	9.0	0.0	0.0	0.0	79.0	80.0	295.0	290.0	65.0	970.41	115.0	113.0	-37.0	-1014.0	1636887543.288001
-2.0	2.0	9.0	1.0	0.0	0.0	79.0	80.0	295.0	290.0	65.0	970.45	115.0	103.0	-37.0	-989.0	1636887543.424489
-10.0	1.0	9.0	2.0	1.0	0.0	79.0	80.0	294.0	290.0	65.0	970.31	115.0	96.0	-21.0	-1016.0	1636887543.566579
-14.0	0.0	9.0	5.0	1.0	0.0	79.0	80.0	303.0	290.0	65.0	970.25	116.0	117.0	-23.0	-1009.0	1636887543.592032
-15.0	0.0	10.0	8.0	2.0	0.0	79.0	80.0	304.0	290.0	65.0	970.23	116.0	92.0	-19.0	-995.0	1636887543.733754
-6.0	0.0	10.0	11.0	2.0	0.0	79.0	80.0	290.0	290.0	65.0	970.31	116.0	84.0	-17.0	-1011.0	1636887543.795331
2.0	0.0	10.0	13.0	2.0	0.0	79.0	80.0	296.0	290.0	65.0	970.34	116.0	54.0	-28.0	-1031.0	1636887543.898454
6.0	1.0	10.0	13.0	2.0	0.0	78.0	81.0	287.0	290.0	65.0	970.33	116.0	10.0	-15.0	-1016.0	1636887544.002414
8.0	1.0	10.0	12.0	1.0	0.0	78.0	81.0	292.0	290.0	65.0	970.37	116.0	28.0	-30.0	-1005.0	1636887544.104071
9.0	2.0	10.0	11.0	0.0	0.0	78.0	81.0	297.0	290.0	65.0	970.33	116.0	31.0	-34.0	-1010.0	1636887544.203901
9.0	3.0	10.0	10.0	0.0	0.0	78.0	81.0	287.0	290.0	65.0	970.28	116.0	32.0	-32.0	-1005.0	1636887544.307887
8.0	4.0	10.0	9.0	0.0	0.0	78.0	81.0	295.0	290.0	65.0	970.33	116.0	51.0	-39.0	-1002.0	1636887544.409421
8.0	4.0	10.0	8.0	0.0	0.0	78.0	81.0	292.0	290.0	65.0	970.26	116.0	46.0	-39.0	-1003.0	1636887544.509882
7.0	3.0	10.0	7.0	0.0	0.0	78.0	81.0	297.0	290.0	65.0	970.24	117.0	46.0	-27.0	-1003.0	1636887544.614651
7.0	2.0	10.0	6.0	1.0	0.0	78.0	81.0	297.0	290.0	65.0	970.24	117.0	63.0	-36.0	-1025.0	1636887544.717113
7.0	1.0	10.0	5.0	1.0	0.0	78.0	81.0	295.0	290.0	65.0	970.26	117.0	67.0	-25.0	-998.0	1636887544.817751
7.0	1.0	9.0	4.0	1.0	0.0	78.0	81.0	297.0	290.0	65.0	970.29	117.0	93.0	-43.0	-993.0	1636887544.918852
6.0	0.0	9.0	4.0	1.0	0.0	78.0	80.0	291.0	290.0	65.0	970.25	117.0	43.0	-32.0	-1014.0	1636887545.019659
-1.0	0.0	9.0	4.0	1.0	0.0	78.0	80.0	291.0	290.0	65.0	970.21	117.0	64.0	-25.0	-1023.0	1636887545.12385
-10.0	1.0	9.0	5.0	1.0	0.0	78.0	80.0	293.0	290.0	65.0	970.28	117.0	80.0	-24.0	-1016.0	1636887545.225904
-13.0	1.0	9.0	8.0	1.0	0.0	78.0	80.0	296.0	290.0	65.0	970.21	117.0	68.0	-50.0	-1020.0	1636887545.328271
-6.0	1.0	9.0	10.0	2.0	0.0	78.0	80.0	286.0	290.0	65.0	970.22	117.0	46.0	-40.0	-1001.0	1636887545.430324
2.0	1.0	9.0	12.0	2.0	0.0	78.0	80.0	290.0	290.0	65.0	970.2	117.0	27.0	-46.0	-1019.0	1636887545.531194
6.0	1.0	10.0	11.0	2.0	0.0	78.0	80.0	284.0	290.0	65.0	970.21	118.0	23.0	-28.0	-1009.0	1636887545.631864
8.0	1.0	9.0	11.0	2.0	0.0	78.0	80.0	283.0	290.0	65.0	970.23	118.0	25.0	-29.0	-1014.0	1636887545.734877
8.0	0.0	9.0	10.0	1.0	0.0	78.0	80.0	280.0	290.0	65.0	970.15	118.0	39.0	-33.0	-1027.0	1636887545.838759
8.0	1.0	10.0	8.0	0.0	0.0	78.0	80.0	284.0	290.0	65.0	970.18	118.0	39.0	-31.0	-1016.0	1636887545.887441
8.0	2.0	10.0	7.0	0.0	0.0	77.0	80.0	286.0	290.0	65.0	970.18	118.0	40.0	-28.0	-1004.0	1636887546.038764
7.0	2.0	10.0	6.0	0.0	0.0	77.0	80.0	284.0	290.0	65.0	970.14	118.0	40.0	-26.0	-1003.0	1636887546.144352
1.0	2.0	10.0	6.0	0.0	0.0	77.0	80.0	284.0	290.0	65.0	970.28	118.0	36.0	-37.0	-1019.0	1636887546.193517
-7.0	2.0	9.0	6.0	0.0	0.0	77.0	80.0	291.0	290.0	65.0	970.2	118.0	46.0	-36.0	-998.0	1636887546.295825
-8.0	2.0	9.0	8.0	0.0	0.0	77.0	80.0	289.0	290.0	65.0	970.29	118.0	37.0	-42.0	-1030.0	1636887546.398138
-8.0	2.0	9.0	10.0	1.0	0.0	77.0	80.0	292.0	290.0	65.0	970.23	118.0	13.0	-18.0	-1022.0	1636887546.49921
-8.0	1.0	9.0	11.0	1.0	0.0	77.0	80.0	294.0	290.0	65.0	970.25	119.0	14.0	-25.0	-1029.0	1636887546.601585
-8.0	1.0	9.0	13.0	1.0	0.0	77.0	80.0	290.0	290.0	65.0	970.29	119.0	8.0	-30.0	-1006.0	1636887546.705742
-8.0	1.0	9.0	14.0	2.0	0.0	77.0	80.0	291.0	290.0	65.0	970.28	119.0	-8.0	-15.0	-1019.0	1636887546.806863
-8.0	1.0	9.0	16.0	2.0	0.0	77.0	80.0	286.0	290.0	65.0	970.26	119.0	-19.0	-26.0	-994.0	1636887546.909283
-8.0	1.0	9.0	17.0	2.0	0.0	77.0	80.0	289.0	290.0	65.0	970.29	119.0	-27.0	-24.0	-1007.0	1636887547.008157
-8.0	0.0	9.0	18.0	2.0	0.0	77.0	80.0	287.0	290.0	65.0	970.38	119.0	-39.0	-24.0	-1002.0	1636887547.109715
-8.0	1.0	10.0	19.0	2.0	0.0	77.0	80.0	291.0	290.0	65.0	970.34	119.0	-51.0	-21.0	-1009.0	1636887547.215239
-7.0	1.0	10.0	20.0	3.0	0.0	77.0	80.0	288.0	290.0	65.0	970.38	119.0	-57.0	-18.0	-1009.0	1636887547.316105
-8.0	2.0	10.0	21.0	3.0	0.0	77.0	80.0	284.0	290.0	65.0	970.25	119.0	-58.0	-16.0	-1001.0	1636887547.41907
-2.0	3.0	9.0	22.0	4.0	0.0	77.0	80.0	279.0	290.0	65.0	970.12	119.0	-61.0	-16.0	-960.0	1636887547.520785
4.0	1.0	9.0	21.0	4.0	0.0	77.0	80.0	288.0	280.0	65.0	970.09	120.0	-81.0	-16.0	-1037.0	1636887547.620397
7.0	0.0	9.0	20.0	4.0	0.0	77.0	80.0	284.0	280.0	65.0	970.24	120.0	-63.0	-18.0	-1001.0	1636887547.724517
8.0	0.0	9.0	18.0	4.0	0.0	77.0	80.0	292.0	280.0	65.0	970.29	120.0	-56.0	-23.0	-1036.0	1636887547.826633
8.0	0.0	9.0	16.0	4.0	0.0	77.0	80.0	287.0	280.0	65.0	970.44	120.0	-38.0	-24.0	-1026.0	1636887547.927309
8.0	0.0	9.0	14.0	3.0	0.0	77.0	79.0	290.0	280.0	65.0	970.37	120.0	-23.0	-19.0	-1022.0	1636887548.030394
8.0	0.0	9.0	12.0	3.0	0.0	77.0	79.0	291.0	290.0	65.0	970.46	120.0	-22.0	-13.0	-1010.0	1636887548.132953
8.0	0.0	9.0	11.0	2.0	0.0	77.0	79.0	286.0	290.0	65.0	970.48	120.0	-10.0	-9.0	-1017.0	1636887548.234339
8.0	0.0	9.0	10.0	2.0	0.0	77.0	79.0	294.0	290.0	65.0	970.4	120.0	0.0	-13.0	-998.0	1636887548.33699
8.0	0.0	9.0	8.0	1.0	0.0	77.0	79.0	293.0	290.0	65.0	970.48	120.0	-2.0	-4.0	-994.0	1636887548.436851
8.0	0.0	9.0	7.0	1.0	0.0	77.0	79.0	291.0	290.0	65.0	970.45	120.0	21.0	-16.0	-1011.0	1636887548.540303
8.0	0.0	9.0	6.0	0.0	0.0	77.0	79.0	296.0	290.0	65.0	970.46	121.0	27.0	-13.0	-983.0	1636887548.640165
8.0	0.0	9.0	5.0	0.0	0.0	77.0	79.0	300.0	290.0	65.0	970.52	121.0	17.0	17.0	-990.0	1636887548.743293
8.0	0.0	10.0	4.0	0.0	0.0	77.0	79.0	294.0	290.0	65.0	970.44	121.0	34.0	0.0	-1003.0	1636887548.845926
8.0	0.0	10.0	3.0	0.0	0.0	77.0	79.0	301.0	300.0	65.0	970.6	121.0	53.0	0.0	-998.0	1636887548.945476
8.0	0.0	10.0	2.0	0.0	0.0	76.0	79.0	303.0	300.0	65.0	970.41	121.0	67.0	-9.0	-979.0	1636887549.048215
8.0	0.0	10.0	1.0	0.0	0.0	76.0	79.0	298.0	300.0	65.0	970.42	121.0	62.0	3.0	-961.0	1636887549.151985
8.0	0.0	10.0	1.0	0.0	0.0	76.0	79.0	298.0	300.0	65.0	970.43	121.0	65.0	-13.0	-962.0	1636887549.256205
8.0	0.0	10.0	0.0	0.0	0.0	76.0	79.0	294.0	300.0	65.0	970.45	121.0	81.0	-16.0	-953.0	1636887549.357224
8.0	0.0	10.0	0.0	0.0	0.0	76.0	79.0	303.0	300.0	65.0	970.38	121.0	105.0	-18.0	-963.0	1636887549.45725
8.0	0.0	10.0	0.0	0.0	0.0	76.0	79.0	298.0	300.0	65.0	970.47	121.0	80.0	-5.0	-991.0	1636887549.557714
8.0	0.0	10.0	0.0	-1.0	0.0	76.0	79.0	300.0	300.0	65.0	970.48	122.0	115.0	-21.0	-961.0	1636887549.663428
8.0	0.0	10.0	-1.0	-1.0	0.0	76.0	79.0	295.0	300.0	65.0	970.5	122.0	125.0	-29.0	-985.0	1636887549.76354
8.0	0.0	10.0	-1.0	-1.0	0.0	76.0	79.0	297.0	300.0	65.0	970.38	122.0	124.0	-29.0	-969.0	1636887549.816423
8.0	0.0	10.0	-1.0	-1.0	0.0	76.0	79.0	297.0	290.0	65.0	970.46	122.0	103.0	-3.0	-1014.0	1636887549.915802
8.0	0.0	10.0	-1.0	-1.0	0.0	75.0	77.0	291.0	290.0	65.0	970.39	122.0	125.0	-12.0	-1006.0	1636887550.070309
8.0	0.0	10.0	-1.0	-1.0	0.0	75.0	77.0	288.0	290.0	65.0	970.31	122.0	127.0	-26.0	-999.0	1636887550.172573
8.0	0.0	10.0	-2.0	-1.0	0.0	75.0	77.0	294.0	290.0	65.0	970.3	122.0	125.0	-18.0	-1018.0	1636887550.275319
8.0	0.0	9.0	-2.0	-1.0	0.0	75.0	77.0	286.0	290.0	65.0	970.12	122.0	144.0	-16.0	-1001.0	1636887550.375289
8.0	0.0	10.0	-2.0	-1.0	0.0	75.0	77.0	288.0	290.0	65.0	970.16	122.0	131.0	0.0	-1020.0	1636887550.478649
8.0	0.0	10.0	-2.0	-1.0	0.0	75.0	77.0	283.0	290.0	65.0	970.19	122.0	152.0	-8.0	-988.0	1636887550.528536
8.0	0.0	10.0	-2.0	-1.0	0.0	75.0	77.0	289.0	290.0	65.0	969.99	123.0	137.0	-23.0	-1015.0	1636887550.631976
8.0	1.0	10.0	-2.0	-1.0	0.0	75.0	77.0	286.0	290.0	65.0	970.12	123.0	159.0	-14.0	-1014.0	1636887550.73476
8.0	0.0	10.0	-2.0	-1.0	0.0	75.0	77.0	283.0	290.0	65.0	970.06	123.0	158.0	-2.0	-997.0	1636887550.835876
8.0	0.0	10.0	-3.0	-1.0	0.0	75.0	77.0	282.0	290.0	65.0	970.11	123.0	136.0	-3.0	-995.0	1636887550.935924
9.0	0.0	10.0	-3.0	-1.0	0.0	75.0	78.0	286.0	290.0	65.0	970.02	123.0	126.0	6.0	-985.0	1636887551.03925
9.0	0.0	10.0	-3.0	-1.0	0.0	75.0	78.0	288.0	290.0	65.0	970.03	123.0	124.0	8.0	-990.0	1636887551.142238
8.0	0.0	10.0	-3.0	-1.0	0.0	75.0	78.0	287.0	290.0	65.0	970.04	123.0	119.0	7.0	-999.0	1636887551.242537
8.0	0.0	10.0	-3.0	-1.0	0.0	75.0	78.0	286.0	290.0	65.0	970.07	123.0	144.0	-19.0	-980.0	1636887551.342613
8.0	0.0	10.0	-4.0	-1.0	0.0	75.0	78.0	285.0	290.0	65.0	970.15	123.0	130.0	-4.0	-985.0	1636887551.446185
8.0	0.0	10.0	-4.0	-1.0	0.0	75.0	78.0	289.0	290.0	65.0	970.03	123.0	123.0	-2.0	-987.0	1636887551.546479
8.0	0.0	10.0	-4.0	-1.0	0.0	75.0	78.0	289.0	290.0	65.0	970.06	124.0	140.0	-4.0	-976.0	1636887551.652631
8.0	0.0	10.0	-4.0	-1.0	0.0	75.0	78.0	291.0	290.0	65.0	970.09	124.0	114.0	8.0	-988.0	1636887551.752679
8.0	0.0	10.0	-4.0	-1.0	0.0	75.0	78.0	289.0	290.0	65.0	970.13	124.0	131.0	-3.0	-978.0	1636887551.85648
8.0	0.0	10.0	-5.0	-1.0	0.0	75.0	78.0	288.0	290.0	65.0	970.07	124.0	138.0	-19.0	-987.0	1636887551.955587
8.0	0.0	10.0	-5.0	-1.0	0.0	75.0	78.0	285.0	290.0	65.0	970.1	124.0	140.0	2.0	-967.0	1636887552.058793
9.0	0.0	10.0	-5.0	-1.0	0.0	75.0	78.0	284.0	290.0	65.0	969.99	124.0	148.0	-19.0	-980.0	1636887552.161294
9.0	0.0	9.0	-5.0	-1.0	0.0	75.0	78.0	293.0	290.0	65.0	970.04	124.0	129.0	1.0	-981.0	1636887552.264186
9.0	0.0	9.0	-5.0	-1.0	0.0	75.0	78.0	285.0	290.0	65.0	970.07	124.0	99.0	17.0	-993.0	1636887552.36644
9.0	0.0	10.0	-6.0	-1.0	0.0	75.0	78.0	287.0	290.0	65.0	969.91	124.0	127.0	-12.0	-1003.0	1636887552.466887
8.0	0.0	9.0	-6.0	-1.0	0.0	75.0	78.0	285.0	290.0	65.0	969.97	124.0	117.0	2.0	-1002.0	1636887552.568594
8.0	0.0	10.0	-6.0	-1.0	0.0	75.0	78.0	284.0	290.0	65.0	969.89	125.0	144.0	-14.0	-1009.0	1636887552.671597
8.0	0.0	10.0	-7.0	-1.0	0.0	75.0	78.0	285.0	280.0	65.0	969.89	125.0	104.0	9.0	-1007.0	1636887552.774237
9.0	0.0	9.0	-7.0	-1.0	0.0	75.0	78.0	288.0	280.0	65.0	969.9	125.0	122.0	14.0	-1024.0	1636887552.875788
8.0	0.0	10.0	-7.0	-1.0	0.0	75.0	78.0	286.0	280.0	65.0	969.95	125.0	139.0	20.0	-992.0	1636887552.976674
8.0	0.0	10.0	-7.0	-1.0	0.0	76.0	78.0	288.0	280.0	65.0	970.0	125.0	146.0	-27.0	-1005.0	1636887553.080191
9.0	0.0	9.0	-7.0	-1.0	0.0	76.0	78.0	285.0	280.0	65.0	970.1	125.0	124.0	-21.0	-1004.0	1636887553.180748
9.0	0.0	9.0	-8.0	-2.0	0.0	76.0	78.0	287.0	280.0	65.0	969.95	125.0	155.0	-38.0	-993.0	1636887553.282333
8.0	0.0	9.0	-8.0	-2.0	0.0	76.0	78.0	286.0	280.0	65.0	970.03	125.0	130.0	-28.0	-969.0	1636887553.382857
8.0	0.0	9.0	-8.0	-2.0	0.0	76.0	78.0	292.0	290.0	65.0	970.12	125.0	140.0	-36.0	-979.0	1636887553.488073
8.0	0.0	9.0	-8.0	-3.0	0.0	76.0	78.0	296.0	290.0	65.0	970.26	125.0	156.0	-57.0	-984.0	1636887553.589778
9.0	0.0	9.0	-8.0	-3.0	0.0	76.0	78.0	294.0	290.0	65.0	970.22	126.0	137.0	-48.0	-971.0	1636887553.691583
9.0	0.0	9.0	-8.0	-3.0	0.0	76.0	78.0	296.0	290.0	65.0	970.32	126.0	125.0	-51.0	-995.0	1636887553.895799
9.0	0.0	10.0	-8.0	-4.0	0.0	76.0	78.0	299.0	290.0	65.0	970.05	126.0	133.0	-36.0	-983.0	1636887553.895799
9.0	0.0	10.0	-9.0	-4.0	0.0	76.0	78.0	302.0	290.0	65.0	969.96	126.0	143.0	-35.0	-974.0	1636887554.037404
8.0	1.0	10.0	-9.0	-4.0	0.0	75.0	77.0	297.0	290.0	65.0	970.12	126.0	138.0	-28.0	-965.0	1636887554.165631
8.0	1.0	10.0	-9.0	-4.0	0.0	75.0	77.0	301.0	290.0	65.0	970.16	126.0	134.0	-40.0	-994.0	1636887554.322865
8.0	2.0	10.0	-9.0	-4.0	0.0	75.0	77.0	303.0	290.0	65.0	970.05	126.0	134.0	-32.0	-982.0	1636887554.325351
8.0	2.0	10.0	-9.0	-4.0	0.0	75.0	77.0	301.0	290.0	65.0	969.89	126.0	153.0	-26.0	-971.0	1636887554.354569
8.0	4.0	10.0	-9.0	-4.0	0.0	75.0	77.0	302.0	290.0	65.0	970.06	126.0	144.0	-30.0	-971.0	1636887554.456729
8.0	3.0	10.0	-9.0	-4.0	0.0	75.0	77.0	303.0	290.0	65.0	970.21	126.0	134.0	-41.0	-977.0	1636887554.557926
7.0	4.0	10.0	-9.0	-4.0	0.0	75.0	77.0	298.0	290.0	65.0	970.04	127.0	151.0	-38.0	-983.0	1636887554.658357
6.0	5.0	10.0	-9.0	-3.0	0.0	75.0	77.0	290.0	290.0	65.0	970.15	127.0	134.0	-31.0	-985.0	1636887554.762765
4.0	4.0	10.0	-9.0	-3.0	0.0	75.0	77.0	289.0	290.0	65.0	970.08	127.0	147.0	-50.0	-981.0	1636887554.880622
2.0	3.0	10.0	-8.0	-2.0	0.0	75.0	77.0	291.0	290.0	65.0	970.07	127.0	148.0	-49.0	-980.0	1636887554.967195
3.0	3.0	10.0	-7.0	-2.0	0.0	75.0	77.0	296.0	290.0	65.0	970.2	127.0	119.0	-31.0	-964.0	1636887555.099742
9.0	3.0	10.0	-7.0	-2.0	0.0	75.0	77.0	291.0	290.0	65.0	970.15	127.0	129.0	-50.0	-1015.0	1636887555.169073
8.0	1.0	10.0	-8.0	-2.0	0.0	75.0	77.0	294.0	290.0	65.0	970.1	127.0	131.0	-45.0	-1012.0	1636887555.270878
8.0	0.0	10.0	-8.0	-2.0	0.0	75.0	77.0	293.0	290.0	65.0	970.06	127.0	138.0	-43.0	-1006.0	1636887555.404256
8.0	1.0	10.0	-8.0	-3.0	0.0	75.0	77.0	299.0	290.0	65.0	970.11	127.0	126.0	-44.0	-1015.0	1636887555.504234
8.0	1.0	10.0	-8.0	-3.0	0.0	75.0	77.0	298.0	290.0	65.0	969.9	127.0	129.0	-35.0	-985.0	1636887555.5778
8.0	1.0	10.0	-8.0	-3.0	0.0	75.0	77.0	296.0	290.0	65.0	969.88	128.0	145.0	-44.0	-1004.0	1636887555.701401
8.0	1.0	10.0	-8.0	-3.0	0.0	75.0	77.0	301.0	290.0	65.0	969.81	128.0	138.0	-20.0	-987.0	1636887555.844066
8.0	2.0	10.0	-8.0	-3.0	0.0	75.0	77.0	296.0	290.0	65.0	969.91	128.0	143.0	-23.0	-979.0	1636887555.881274
8.0	2.0	10.0	-9.0	-3.0	0.0	75.0	77.0	293.0	290.0	65.0	969.96	128.0	145.0	-45.0	-971.0	1636887556.0203
8.0	3.0	10.0	-9.0	-3.0	0.0	74.0	77.0	300.0	290.0	65.0	969.98	128.0	138.0	-39.0	-980.0	1636887556.165598
8.0	4.0	10.0	-9.0	-3.0	0.0	74.0	77.0	292.0	290.0	65.0	970.05	128.0	144.0	-41.0	-999.0	1636887556.191156
6.0	4.0	10.0	-9.0	-2.0	0.0	74.0	77.0	296.0	290.0	65.0	970.08	128.0	131.0	-28.0	-994.0	1636887556.289818
3.0	3.0	10.0	-8.0	-2.0	0.0	74.0	77.0	289.0	290.0	65.0	970.11	128.0	133.0	-43.0	-970.0	1636887556.392974
2.0	3.0	9.0	-8.0	-2.0	0.0	74.0	77.0	291.0	290.0	65.0	969.98	128.0	140.0	-50.0	-1001.0	1636887556.493991
2.0	2.0	9.0	-7.0	-1.0	0.0	74.0	77.0	293.0	290.0	65.0	970.07	129.0	133.0	-44.0	-979.0	1636887556.599016
2.0	2.0	9.0	-6.0	-1.0	0.0	74.0	77.0	287.0	290.0	65.0	970.09	129.0	143.0	-30.0	-982.0	1636887556.699113
3.0	2.0	10.0	-5.0	-1.0	0.0	74.0	77.0	286.0	290.0	65.0	970.08	129.0	140.0	-49.0	-1017.0	1636887556.800477
2.0	2.0	10.0	-5.0	-1.0	0.0	74.0	77.0	295.0	290.0	65.0	970.06	129.0	129.0	-34.0	-996.0	1636887556.903406
3.0	2.0	10.0	-4.0	-1.0	0.0	74.0	77.0	291.0	290.0	65.0	970.04	129.0	128.0	-44.0	-975.0	1636887557.00357
3.0	2.0	10.0	-3.0	-1.0	0.0	75.0	77.0	293.0	290.0	65.0	970.1	129.0	134.0	-54.0	-1003.0	1636887557.108725
3.0	3.0	10.0	-3.0	0.0	0.0	75.0	77.0	291.0	290.0	65.0	970.06	129.0	133.0	-35.0	-1000.0	1636887557.209681
4.0	2.0	10.0	-2.0	0.0	0.0	75.0	77.0	290.0	290.0	65.0	969.91	129.0	118.0	-23.0	-1005.0	1636887557.309564
9.0	1.0	10.0	-2.0	0.0	0.0	75.0	77.0	294.0	290.0	65.0	970.07	129.0	104.0	-33.0	-1040.0	1636887557.416618
9.0	0.0	10.0	-2.0	0.0	0.0	75.0	77.0	293.0	290.0	65.0	970.09	129.0	126.0	-20.0	-1016.0	1636887557.513631
9.0	0.0	10.0	-3.0	0.0	0.0	75.0	77.0	301.0	290.0	65.0	970.08	130.0	134.0	-28.0	-967.0	1636887557.618738
8.0	0.0	9.0	-3.0	0.0	0.0	75.0	77.0	301.0	290.0	65.0	970.07	130.0	127.0	-28.0	-968.0	1636887557.717304
8.0	0.0	9.0	-3.0	0.0	0.0	75.0	77.0	295.0	290.0	65.0	969.93	130.0	165.0	-24.0	-991.0	1636887557.822474
9.0	0.0	9.0	-3.0	0.0	0.0	75.0	77.0	299.0	290.0	65.0	970.06	130.0	136.0	-32.0	-988.0	1636887557.921855
9.0	0.0	9.0	-3.0	-1.0	0.0	75.0	77.0	301.0	290.0	65.0	970.22	130.0	138.0	-26.0	-976.0	1636887558.024031
9.0	0.0	9.0	-3.0	-1.0	0.0	75.0	76.0	305.0	290.0	65.0	970.03	130.0	146.0	-26.0	-967.0	1636887558.125686
9.0	0.0	9.0	-3.0	-1.0	0.0	75.0	76.0	308.0	290.0	65.0	970.06	130.0	124.0	-13.0	-968.0	1636887558.230807
9.0	0.0	10.0	-4.0	-1.0	0.0	75.0	76.0	302.0	290.0	65.0	969.88	130.0	123.0	-15.0	-1000.0	1636887558.329092
8.0	0.0	10.0	-4.0	-1.0	0.0	75.0	76.0	307.0	290.0	65.0	969.92	130.0	118.0	-9.0	-985.0	1636887558.430984
8.0	0.0	10.0	-4.0	-1.0	0.0	75.0	76.0	306.0	290.0	65.0	969.96	130.0	146.0	-25.0	-977.0	1636887558.53365
9.0	0.0	10.0	-4.0	-1.0	0.0	75.0	76.0	308.0	290.0	65.0	969.9	131.0	126.0	-3.0	-996.0	1636887558.636732
8.0	0.0	10.0	-5.0	-1.0	0.0	75.0	76.0	310.0	290.0	65.0	969.85	131.0	108.0	1.0	-975.0	1636887558.740622
8.0	0.0	10.0	-5.0	-1.0	0.0	75.0	76.0	305.0	290.0	65.0	969.95	131.0	124.0	-20.0	-995.0	1636887558.79013
8.0	0.0	10.0	-5.0	-1.0	0.0	75.0	76.0	311.0	290.0	65.0	969.91	131.0	117.0	-5.0	-963.0	1636887558.890584
9.0	0.0	10.0	-5.0	-2.0	0.0	75.0	76.0	309.0	290.0	65.0	970.04	131.0	136.0	-31.0	-989.0	1636887558.993574
9.0	0.0	10.0	-5.0	-2.0	0.0	74.0	77.0	305.0	300.0	65.0	970.05	131.0	119.0	-37.0	-975.0	1636887559.09607
9.0	0.0	10.0	-6.0	-2.0	0.0	74.0	77.0	313.0	300.0	65.0	970.03	131.0	156.0	-50.0	-978.0	1636887559.197535
8.0	1.0	10.0	-6.0	-3.0	0.0	74.0	77.0	305.0	300.0	65.0	969.92	131.0	120.0	-20.0	-1001.0	1636887559.2994
8.0	1.0	10.0	-6.0	-3.0	0.0	74.0	77.0	311.0	300.0	65.0	970.01	131.0	141.0	-19.0	-987.0	1636887559.404125
8.0	1.0	10.0	-6.0	-3.0	0.0	74.0	77.0	309.0	300.0	65.0	970.14	131.0	113.0	-34.0	-985.0	1636887559.504971
8.0	1.0	10.0	-6.0	-3.0	0.0	74.0	77.0	310.0	300.0	65.0	970.12	132.0	146.0	-50.0	-989.0	1636887559.604825
8.0	2.0	10.0	-6.0	-3.0	0.0	74.0	77.0	303.0	300.0	65.0	970.07	132.0	130.0	-39.0	-991.0	1636887559.70974
8.0	3.0	10.0	-6.0	-3.0	0.0	74.0	77.0	306.0	300.0	65.0	970.01	132.0	161.0	-28.0	-978.0	1636887559.807994
7.0	3.0	10.0	-6.0	-3.0	0.0	74.0	77.0	307.0	300.0	65.0	969.94	132.0	132.0	-21.0	-956.0	1636887559.911319
7.0	3.0	10.0	-6.0	-2.0	0.0	74.0	77.0	299.0	300.0	65.0	969.92	132.0	148.0	-17.0	-993.0	1636887560.013331
7.0	3.0	10.0	-6.0	-2.0	0.0	73.0	76.0	301.0	300.0	65.0	969.97	132.0	144.0	-25.0	-999.0	1636887560.117171
2.0	4.0	10.0	-6.0	-2.0	0.0	73.0	76.0	298.0	300.0	65.0	969.87	132.0	178.0	-42.0	-1011.0	1636887560.217028
-8.0	3.0	9.0	-4.0	-1.0	0.0	73.0	76.0	298.0	300.0	65.0	969.67	132.0	179.0	-32.0	-963.0	1636887560.319824
-9.0	2.0	9.0	-1.0	-1.0	0.0	73.0	76.0	309.0	290.0	65.0	969.97	132.0	172.0	-34.0	-1016.0	1636887560.420881
-7.0	2.0	9.0	1.0	0.0	1.0	73.0	76.0	303.0	290.0	65.0	969.85	132.0	120.0	-29.0	-1019.0	1636887560.525229
-7.0	2.0	9.0	3.0	0.0	1.0	73.0	76.0	300.0	290.0	65.0	970.13	133.0	134.0	-41.0	-1032.0	1636887560.624482
-7.0	3.0	9.0	5.0	0.0	1.0	73.0	76.0	294.0	290.0	65.0	970.11	133.0	106.0	-38.0	-1065.0	1636887560.726149
-5.0	5.0	9.0	8.0	0.0	0.0	73.0	76.0	297.0	290.0	65.0	970.0	133.0	106.0	-48.0	-1025.0	1636887560.829552
-1.0	6.0	10.0	9.0	1.0	0.0	73.0	76.0	290.0	290.0	65.0	970.02	133.0	68.0	-30.0	-1015.0	1636887560.932011
4.0	3.0	10.0	10.0	2.0	0.0	73.0	76.0	291.0	290.0	65.0	970.1	133.0	44.0	-46.0	-1030.0	1636887561.035295
7.0	2.0	10.0	9.0	3.0	0.0	75.0	76.0	293.0	290.0	65.0	969.97	133.0	41.0	-46.0	-1001.0	1636887561.13685
8.0	2.0	10.0	9.0	2.0	0.0	75.0	76.0	294.0	290.0	65.0	970.01	133.0	70.0	-62.0	-998.0	1636887561.236325
8.0	1.0	10.0	8.0	2.0	0.0	75.0	76.0	295.0	290.0	65.0	970.04	133.0	52.0	-59.0	-1005.0	1636887561.339898
8.0	1.0	10.0	7.0	2.0	0.0	75.0	76.0	291.0	290.0	65.0	970.11	133.0	53.0	-65.0	-1024.0	1636887561.441828
7.0	1.0	10.0	6.0	1.0	0.0	75.0	76.0	294.0	290.0	65.0	970.08	133.0	53.0	-56.0	-998.0	1636887561.543837
6.0	2.0	10.0	5.0	1.0	0.0	75.0	76.0	296.0	290.0	65.0	970.13	134.0	54.0	-45.0	-1030.0	1636887561.644382
0.0	2.0	9.0	5.0	1.0	0.0	75.0	76.0	297.0	290.0	65.0	970.08	134.0	67.0	-44.0	-996.0	1636887561.746716
-8.0	2.0	9.0	6.0	1.0	0.0	75.0	76.0	297.0	290.0	65.0	970.23	134.0	61.0	-43.0	-944.0	1636887561.850087
-8.0	2.0	9.0	8.0	2.0	0.0	75.0	76.0	295.0	290.0	65.0	970.1	134.0	44.0	-49.0	-1004.0	1636887561.952754
-8.0	2.0	9.0	10.0	2.0	0.0	75.0	76.0	298.0	290.0	65.0	970.19	134.0	20.0	-49.0	-1013.0	1636887562.056052
-7.0	2.0	9.0	11.0	2.0	0.0	73.0	76.0	296.0	290.0	65.0	970.17	134.0	31.0	-66.0	-1009.0	1636887562.157606
-4.0	4.0	9.0	13.0	2.0	0.0	73.0	76.0	295.0	290.0	65.0	970.2	134.0	27.0	-53.0	-954.0	1636887562.258428
2.0	3.0	10.0	13.0	3.0	0.0	73.0	76.0	293.0	290.0	65.0	970.32	134.0	-3.0	-54.0	-1025.0	1636887562.361851
6.0	2.0	10.0	12.0	3.0	0.0	73.0	76.0	294.0	290.0	65.0	970.32	134.0	0.0	-63.0	-1005.0	1636887562.462021
6.0	2.0	10.0	12.0	3.0	0.0	73.0	76.0	294.0	290.0	65.0	970.32	134.0	0.0	-63.0	-1005.0	1636887562.512943
6.0	2.0	10.0	11.0	2.0	0.0	73.0	76.0	292.0	290.0	65.0	970.27	134.0	-2.0	-54.0	-995.0	1636887562.567977
7.0	2.0	10.0	10.0	2.0	0.0	73.0	76.0	291.0	290.0	65.0	970.22	135.0	-2.0	-42.0	-983.0	1636887562.665263
7.0	2.0	10.0	9.0	2.0	0.0	73.0	76.0	294.0	290.0	65.0	970.25	135.0	9.0	-53.0	-994.0	1636887562.769705
7.0	2.0	10.0	8.0	1.0	0.0	73.0	76.0	298.0	290.0	65.0	970.31	135.0	24.0	-55.0	-1011.0	1636887562.816589
7.0	3.0	10.0	7.0	1.0	0.0	73.0	76.0	295.0	290.0	65.0	970.22	135.0	17.0	-47.0	-1009.0	1636887562.922302
7.0	2.0	10.0	7.0	1.0	0.0	73.0	76.0	288.0	290.0	65.0	970.1	135.0	35.0	-58.0	-1009.0	1636887563.024242
5.0	2.0	10.0	6.0	1.0	0.0	73.0	76.0	293.0	290.0	65.0	970.2	135.0	30.0	-50.0	-1008.0	1636887563.177566
-3.0	2.0	10.0	6.0	1.0	0.0	73.0	76.0	298.0	290.0	65.0	970.19	135.0	36.0	-49.0	-983.0	1636887563.278999
-8.0	1.0	10.0	7.0	1.0	0.0	73.0	76.0	296.0	290.0	65.0	970.2	135.0	14.0	-47.0	-1026.0	1636887563.327792
-8.0	2.0	10.0	9.0	1.0	0.0	73.0	76.0	299.0	290.0	65.0	970.23	135.0	2.0	-49.0	-999.0	1636887563.431736
-8.0	2.0	10.0	10.0	2.0	0.0	73.0	76.0	292.0	290.0	65.0	970.21	135.0	-10.0	-53.0	-1019.0	1636887563.53408
-6.0	4.0	10.0	11.0	2.0	0.0	73.0	76.0	291.0	290.0	65.0	970.25	136.0	-18.0	-37.0	-991.0	1636887563.636993
0.0	3.0	10.0	12.0	2.0	0.0	73.0	76.0	292.0	290.0	65.0	970.24	136.0	-37.0	-32.0	-997.0	1636887563.738042
4.0	2.0	10.0	12.0	2.0	0.0	73.0	76.0	292.0	290.0	65.0	970.38	136.0	-40.0	-34.0	-1023.0	1636887563.839871
5.0	2.0	10.0	10.0	2.0	0.0	73.0	76.0	295.0	290.0	65.0	970.25	136.0	-41.0	-29.0	-1016.0	1636887563.938965
5.0	2.0	10.0	9.0	2.0	0.0	73.0	76.0	293.0	290.0	65.0	970.31	136.0	-23.0	-33.0	-1008.0	1636887564.043474
5.0	1.0	10.0	8.0	2.0	0.0	73.0	75.0	288.0	290.0	65.0	970.26	136.0	0.0	-42.0	-1007.0	1636887564.145022
5.0	1.0	10.0	8.0	1.0	0.0	73.0	75.0	291.0	290.0	65.0	970.27	136.0	0.0	-49.0	-1011.0	1636887564.247266
5.0	2.0	9.0	7.0	1.0	0.0	73.0	75.0	291.0	290.0	65.0	970.3	136.0	6.0	-48.0	-1020.0	1636887564.348389
0.0	2.0	9.0	6.0	1.0	0.0	73.0	75.0	292.0	290.0	65.0	970.26	136.0	26.0	-55.0	-1014.0	1636887564.451253
-8.0	3.0	9.0	7.0	1.0	0.0	73.0	75.0	295.0	290.0	65.0	970.35	136.0	-3.0	-28.0	-1004.0	1636887564.552174
-8.0	3.0	9.0	8.0	2.0	0.0	73.0	75.0	290.0	290.0	65.0	970.24	137.0	-8.0	-46.0	-1021.0	1636887564.655105
-8.0	3.0	9.0	10.0	2.0	0.0	73.0	75.0	291.0	290.0	65.0	970.27	137.0	-20.0	-44.0	-991.0	1636887564.757109
-5.0	4.0	9.0	11.0	3.0	0.0	73.0	75.0	286.0	290.0	65.0	970.28	137.0	-20.0	-50.0	-1011.0	1636887564.863199
1.0	2.0	9.0	11.0	3.0	0.0	73.0	75.0	288.0	290.0	65.0	970.33	137.0	-28.0	-40.0	-1015.0	1636887564.962489
4.0	2.0	9.0	10.0	3.0	0.0	73.0	75.0	289.0	290.0	65.0	970.36	137.0	-16.0	-47.0	-1008.0	1636887565.064877
4.0	1.0	9.0	9.0	3.0	0.0	73.0	75.0	286.0	290.0	65.0	970.35	137.0	-8.0	-45.0	-1011.0	1636887565.164737
4.0	1.0	10.0	9.0	2.0	0.0	73.0	75.0	288.0	290.0	65.0	970.44	137.0	-10.0	-49.0	-1003.0	1636887565.269389
5.0	1.0	10.0	8.0	2.0	0.0	73.0	75.0	287.0	290.0	65.0	970.4	137.0	8.0	-56.0	-1013.0	1636887565.368766
5.0	2.0	10.0	7.0	1.0	0.0	73.0	75.0	288.0	290.0	65.0	970.39	137.0	15.0	-66.0	-993.0	1636887565.47267
5.0	2.0	10.0	6.0	1.0	0.0	73.0	75.0	292.0	290.0	65.0	970.37	137.0	11.0	-64.0	-1004.0	1636887565.57549
5.0	2.0	10.0	6.0	1.0	0.0	73.0	75.0	290.0	290.0	65.0	970.37	138.0	-12.0	-49.0	-1013.0	1636887565.677974
5.0	2.0	10.0	5.0	1.0	0.0	73.0	75.0	286.0	290.0	65.0	970.36	138.0	23.0	-69.0	-1007.0	1636887565.780094
4.0	3.0	10.0	4.0	0.0	0.0	73.0	75.0	288.0	290.0	65.0	970.38	138.0	18.0	-44.0	-997.0	1636887565.881695
4.0	3.0	10.0	3.0	1.0	0.0	73.0	75.0	292.0	290.0	65.0	970.29	138.0	43.0	-43.0	-953.0	1636887565.982787
8.0	2.0	10.0	3.0	1.0	0.0	73.0	75.0	290.0	290.0	65.0	970.36	138.0	32.0	-37.0	-988.0	1636887566.084466
8.0	0.0	9.0	2.0	0.0	0.0	73.0	76.0	297.0	290.0	65.0	970.32	138.0	68.0	-58.0	-991.0	1636887566.184603
8.0	0.0	9.0	1.0	0.0	0.0	73.0	76.0	290.0	290.0	65.0	970.34	138.0	74.0	-44.0	-973.0	1636887566.286701
8.0	1.0	9.0	0.0	0.0	0.0	73.0	76.0	296.0	290.0	65.0	970.19	138.0	57.0	-19.0	-1003.0	1636887566.390333
8.0	0.0	9.0	0.0	0.0	0.0	73.0	76.0	294.0	290.0	65.0	970.16	138.0	80.0	-32.0	-981.0	1636887566.490032
8.0	0.0	9.0	0.0	0.0	0.0	73.0	76.0	293.0	290.0	65.0	970.27	138.0	72.0	-32.0	-976.0	1636887566.593894
8.0	0.0	10.0	-1.0	0.0	0.0	73.0	76.0	294.0	290.0	65.0	970.18	139.0	75.0	-44.0	-992.0	1636887566.693762
8.0	0.0	9.0	-1.0	-1.0	0.0	73.0	76.0	290.0	290.0	65.0	970.28	139.0	70.0	-20.0	-1007.0	1636887566.800197
8.0	0.0	10.0	-2.0	-1.0	0.0	73.0	76.0	285.0	290.0	65.0	970.24	139.0	76.0	-18.0	-990.0	1636887566.850062
8.0	0.0	10.0	-3.0	-1.0	0.0	73.0	76.0	287.0	290.0	65.0	970.27	139.0	83.0	-27.0	-995.0	1636887566.952043
8.0	0.0	10.0	-3.0	-2.0	0.0	73.0	76.0	290.0	290.0	65.0	970.24	139.0	86.0	-28.0	-975.0	1636887567.053708
8.0	0.0	10.0	-4.0	-2.0	0.0	73.0	75.0	289.0	290.0	65.0	970.29	139.0	95.0	-30.0	-1013.0	1636887567.154988
8.0	1.0	10.0	-4.0	-2.0	0.0	73.0	75.0	290.0	290.0	65.0	970.23	139.0	96.0	-16.0	-986.0	1636887567.256429
8.0	1.0	10.0	-5.0	-2.0	0.0	73.0	75.0	286.0	290.0	65.0	970.31	139.0	105.0	-42.0	-999.0	1636887567.35675
8.0	1.0	10.0	-5.0	-2.0	0.0	73.0	75.0	289.0	290.0	65.0	970.38	139.0	116.0	-46.0	-1014.0	1636887567.459649
8.0	2.0	10.0	-5.0	-2.0	0.0	73.0	75.0	287.0	290.0	65.0	970.24	139.0	121.0	-44.0	-981.0	1636887567.561252
8.0	2.0	10.0	-6.0	-2.0	0.0	73.0	75.0	285.0	290.0	65.0	970.23	140.0	121.0	-57.0	-986.0	1636887567.666678
8.0	1.0	9.0	-6.0	-3.0	0.0	73.0	75.0	284.0	290.0	65.0	970.27	140.0	113.0	-31.0	-988.0	1636887567.768815
8.0	1.0	9.0	-6.0	-3.0	0.0	73.0	75.0	283.0	290.0	65.0	970.15	140.0	104.0	-29.0	-1010.0	1636887567.870227
8.0	1.0	9.0	-7.0	-3.0	0.0	73.0	75.0	283.0	290.0	65.0	970.06	140.0	119.0	-23.0	-1030.0	1636887567.970148
8.0	1.0	9.0	-7.0	-3.0	0.0	73.0	75.0	283.0	290.0	65.0	970.04	140.0	126.0	-17.0	-999.0	1636887568.071776
8.0	0.0	10.0	-7.0	-3.0	0.0	72.0	74.0	283.0	280.0	65.0	970.07	140.0	108.0	-19.0	-1002.0	1636887568.175291
8.0	0.0	10.0	-8.0	-3.0	0.0	72.0	74.0	289.0	280.0	65.0	970.04	140.0	112.0	-25.0	-1008.0	1636887568.275218
8.0	1.0	10.0	-8.0	-3.0	0.0	72.0	74.0	285.0	280.0	65.0	969.7	140.0	128.0	-9.0	-1022.0	1636887568.378493
8.0	2.0	10.0	-8.0	-3.0	0.0	72.0	74.0	281.0	280.0	65.0	969.92	140.0	154.0	-27.0	-982.0	1636887568.479097
8.0	2.0	10.0	-8.0	-3.0	0.0	72.0	74.0	279.0	280.0	65.0	969.98	141.0	155.0	-28.0	-1000.0	1636887568.582264
8.0	2.0	10.0	-7.0	-3.0	0.0	72.0	74.0	282.0	280.0	65.0	970.01	141.0	147.0	-37.0	-1008.0	1636887568.683953
8.0	3.0	10.0	-7.0	-3.0	0.0	72.0	74.0	284.0	280.0	65.0	970.13	141.0	146.0	-31.0	-976.0	1636887568.788571
8.0	3.0	10.0	-7.0	-3.0	0.0	72.0	74.0	289.0	280.0	65.0	970.07	141.0	141.0	-34.0	-994.0	1636887568.888915
8.0	3.0	10.0	-7.0	-2.0	0.0	72.0	74.0	289.0	280.0	65.0	970.06	141.0	148.0	-44.0	-985.0	1636887568.989831
7.0	5.0	10.0	-7.0	-2.0	0.0	72.0	74.0	287.0	280.0	65.0	970.12	141.0	148.0	-47.0	-978.0	1636887569.092396
8.0	3.0	10.0	-7.0	-2.0	0.0	72.0	74.0	287.0	280.0	65.0	970.26	141.0	150.0	-43.0	-986.0	1636887569.193806
9.0	1.0	10.0	-7.0	-2.0	0.0	72.0	74.0	289.0	280.0	65.0	970.21	141.0	140.0	-38.0	-980.0	1636887569.296996
8.0	1.0	10.0	-7.0	-2.0	0.0	72.0	74.0	288.0	290.0	65.0	970.2	141.0	151.0	-46.0	-981.0	1636887569.397966
9.0	0.0	10.0	-7.0	-2.0	0.0	72.0	74.0	286.0	290.0	65.0	970.17	141.0	153.0	-47.0	-988.0	1636887569.499061
9.0	0.0	10.0	-7.0	-2.0	0.0	72.0	74.0	286.0	290.0	65.0	970.17	141.0	153.0	-47.0	-988.0	1636887569.552893
8.0	0.0	9.0	-7.0	-3.0	0.0	72.0	74.0	292.0	290.0	65.0	970.26	142.0	155.0	-52.0	-987.0	1636887569.602103
8.0	1.0	10.0	-7.0	-3.0	0.0	72.0	74.0	292.0	290.0	65.0	970.17	142.0	146.0	-48.0	-969.0	1636887569.705965
9.0	0.0	10.0	-7.0	-3.0	0.0	72.0	74.0	296.0	290.0	65.0	970.15	142.0	142.0	-46.0	-995.0	1636887569.807463
9.0	1.0	9.0	-7.0	-3.0	0.0	72.0	74.0	289.0	290.0	65.0	970.24	142.0	149.0	-38.0	-984.0	1636887569.910229
8.0	1.0	9.0	-7.0	-4.0	0.0	72.0	74.0	292.0	290.0	65.0	970.1	142.0	137.0	-45.0	-987.0	1636887570.009124
8.0	1.0	10.0	-7.0	-4.0	0.0	72.0	74.0	299.0	290.0	65.0	970.12	142.0	142.0	-41.0	-980.0	1636887570.110422
8.0	1.0	10.0	-7.0	-4.0	0.0	72.0	75.0	293.0	290.0	65.0	970.02	142.0	149.0	-15.0	-992.0	1636887570.213156
9.0	0.0	10.0	-7.0	-4.0	0.0	72.0	75.0	293.0	290.0	65.0	970.14	142.0	146.0	-53.0	-1009.0	1636887570.317052
8.0	1.0	10.0	-7.0	-4.0	0.0	72.0	75.0	290.0	290.0	65.0	969.98	142.0	144.0	-37.0	-989.0	1636887570.417285
8.0	2.0	10.0	-7.0	-4.0	0.0	72.0	75.0	297.0	290.0	65.0	970.0	142.0	152.0	-41.0	-986.0	1636887570.520362
8.0	2.0	10.0	-7.0	-4.0	0.0	72.0	75.0	295.0	290.0	65.0	969.95	143.0	150.0	-28.0	-991.0	1636887570.621123
8.0	3.0	10.0	-7.0	-4.0	0.0	72.0	75.0	297.0	290.0	65.0	969.94	143.0	143.0	-16.0	-989.0	1636887570.726513
8.0	2.0	10.0	-7.0	-4.0	0.0	72.0	75.0	291.0	290.0	65.0	969.84	143.0	156.0	-30.0	-998.0	1636887570.825873
8.0	1.0	10.0	-7.0	-4.0	0.0	72.0	75.0	299.0	290.0	65.0	970.03	143.0	162.0	-35.0	-975.0	1636887570.929795
9.0	1.0	10.0	-7.0	-4.0	0.0	72.0	75.0	297.0	290.0	65.0	970.04	143.0	160.0	-54.0	-989.0	1636887571.028667
8.0	2.0	10.0	-7.0	-4.0	0.0	72.0	75.0	297.0	290.0	65.0	969.99	143.0	143.0	-29.0	-998.0	1636887571.13094
8.0	3.0	10.0	-7.0	-4.0	0.0	72.0	75.0	297.0	290.0	65.0	970.09	143.0	150.0	-41.0	-981.0	1636887571.236341
8.0	3.0	10.0	-7.0	-4.0	0.0	72.0	75.0	294.0	290.0	65.0	970.1	143.0	164.0	-32.0	-949.0	1636887571.337435
7.0	4.0	10.0	-7.0	-4.0	0.0	72.0	75.0	296.0	290.0	65.0	969.93	143.0	170.0	-38.0	-973.0	1636887571.436827
7.0	5.0	10.0	-6.0	-3.0	0.0	72.0	75.0	299.0	290.0	65.0	970.1	143.0	174.0	-45.0	-982.0	1636887571.490241
7.0	5.0	10.0	-6.0	-3.0	0.0	72.0	75.0	292.0	290.0	65.0	970.1	144.0	154.0	-41.0	-999.0	1636887571.590794
7.0	5.0	10.0	-6.0	-2.0	0.0	72.0	75.0	294.0	290.0	65.0	970.1	144.0	150.0	-35.0	-973.0	1636887571.694889
6.0	4.0	10.0	-6.0	-2.0	0.0	72.0	75.0	296.0	290.0	65.0	970.16	144.0	138.0	-44.0	-979.0	1636887571.797758
5.0	3.0	10.0	-6.0	-1.0	0.0	72.0	75.0	299.0	290.0	65.0	970.07	144.0	129.0	-41.0	-1007.0	1636887571.89823
4.0	3.0	10.0	-5.0	-1.0	0.0	72.0	75.0	299.0	290.0	65.0	970.1	144.0	127.0	-54.0	-993.0	1636887571.999516
4.0	3.0	10.0	-5.0	-1.0	0.0	72.0	75.0	297.0	290.0	65.0	970.14	144.0	144.0	-53.0	-993.0	1636887572.100178
4.0	3.0	10.0	-4.0	-1.0	0.0	71.0	74.0	295.0	290.0	65.0	970.09	144.0	133.0	-57.0	-977.0	1636887572.201886
4.0	3.0	10.0	-4.0	-1.0	0.0	71.0	74.0	297.0	290.0	65.0	970.17	144.0	136.0	-60.0	-987.0	1636887572.30616
4.0	3.0	10.0	-3.0	-1.0	0.0	71.0	74.0	294.0	290.0	65.0	970.01	144.0	140.0	-59.0	-992.0	1636887572.409064
4.0	3.0	10.0	-2.0	0.0	0.0	71.0	74.0	294.0	290.0	65.0	970.15	144.0	132.0	-62.0	-985.0	1636887572.510547
5.0	4.0	10.0	-2.0	0.0	0.0	71.0	74.0	295.0	290.0	65.0	970.2	145.0	147.0	-51.0	-978.0	1636887572.609719
5.0	3.0	10.0	-1.0	0.0	0.0	71.0	74.0	293.0	290.0	65.0	970.1	145.0	134.0	-43.0	-979.0	1636887572.713227
8.0	3.0	9.0	-1.0	0.0	0.0	71.0	74.0	295.0	290.0	65.0	969.96	145.0	141.0	-25.0	-985.0	1636887572.81685
9.0	1.0	9.0	-1.0	0.0	0.0	71.0	74.0	292.0	290.0	65.0	969.9	145.0	123.0	-18.0	-983.0	1636887572.915482
9.0	1.0	9.0	-1.0	0.0	0.0	71.0	74.0	293.0	290.0	65.0	970.02	145.0	115.0	6.0	-952.0	1636887573.020881
9.0	0.0	9.0	-2.0	0.0	0.0	71.0	74.0	298.0	290.0	65.0	969.94	145.0	107.0	5.0	-989.0	1636887573.121322
9.0	0.0	9.0	-2.0	0.0	0.0	71.0	74.0	299.0	290.0	65.0	969.99	145.0	95.0	11.0	-1012.0	1636887573.223165
9.0	0.0	10.0	-3.0	0.0	0.0	71.0	74.0	299.0	290.0	65.0	969.97	145.0	112.0	7.0	-1008.0	1636887573.324474
9.0	0.0	10.0	-3.0	0.0	0.0	71.0	74.0	295.0	290.0	65.0	970.0	145.0	142.0	-32.0	-1013.0	1636887573.427568
9.0	-1.0	10.0	-3.0	0.0	0.0	71.0	74.0	295.0	290.0	65.0	970.1	145.0	151.0	-56.0	-993.0	1636887573.530182
8.0	0.0	10.0	-4.0	0.0	0.0	71.0	74.0	296.0	290.0	65.0	970.14	146.0	149.0	-66.0	-988.0	1636887573.630406
9.0	0.0	10.0	-4.0	-1.0	0.0	71.0	74.0	302.0	290.0	65.0	970.11	146.0	141.0	-54.0	-977.0	1636887573.733018
8.0	0.0	10.0	-4.0	-1.0	0.0	71.0	74.0	301.0	290.0	65.0	970.13	146.0	121.0	-41.0	-997.0	1636887573.83454
8.0	0.0	10.0	-4.0	-1.0	0.0	71.0	74.0	304.0	290.0	65.0	970.1	146.0	118.0	-24.0	-973.0	1636887573.935404
9.0	0.0	10.0	-4.0	-2.0	0.0	71.0	74.0	298.0	290.0	65.0	970.09	146.0	112.0	-34.0	-1008.0	1636887574.038542
8.0	1.0	10.0	-4.0	-2.0	0.0	71.0	74.0	300.0	290.0	65.0	970.16	146.0	127.0	-44.0	-995.0	1636887574.141759
8.0	1.0	10.0	-5.0	-2.0	0.0	72.0	74.0	304.0	290.0	65.0	970.08	146.0	143.0	-49.0	-1002.0	1636887574.24147
8.0	1.0	10.0	-5.0	-3.0	0.0	72.0	74.0	302.0	290.0	64.0	970.09	146.0	131.0	-37.0	-975.0	1636887574.343654
8.0	2.0	10.0	-5.0	-3.0	0.0	72.0	74.0	296.0	290.0	64.0	970.07	146.0	133.0	-41.0	-991.0	1636887574.447971
8.0	2.0	10.0	-5.0	-3.0	0.0	72.0	74.0	291.0	290.0	64.0	970.03	146.0	137.0	-45.0	-988.0	1636887574.548434
8.0	2.0	10.0	-5.0	-3.0	0.0	72.0	74.0	298.0	290.0	64.0	970.23	147.0	134.0	-48.0	-981.0	1636887574.65229
4.0	3.0	10.0	-5.0	-3.0	0.0	72.0	74.0	298.0	290.0	64.0	970.09	147.0	135.0	-39.0	-998.0	1636887574.75467
-2.0	6.0	9.0	-4.0	-2.0	0.0	72.0	74.0	299.0	290.0	64.0	970.08	147.0	138.0	-30.0	-979.0	1636887574.856965
-8.0	3.0	9.0	-2.0	-1.0	0.0	72.0	74.0	303.0	290.0	64.0	970.13	147.0	149.0	-56.0	-1011.0	1636887574.956833
-8.0	2.0	9.0	0.0	0.0	0.0	72.0	74.0	305.0	290.0	64.0	970.09	147.0	110.0	-48.0	-1016.0	1636887575.057907
-7.0	1.0	9.0	3.0	0.0	0.0	72.0	74.0	298.0	290.0	64.0	969.95	147.0	84.0	-32.0	-1032.0	1636887575.160512
-7.0	1.0	9.0	5.0	0.0	0.0	72.0	74.0	306.0	290.0	64.0	970.01	147.0	55.0	-23.0	-1029.0	1636887575.262253
-7.0	1.0	9.0	7.0	0.0	0.0	72.0	74.0	302.0	290.0	64.0	969.98	147.0	71.0	-26.0	-1026.0	1636887575.367695
-7.0	1.0	9.0	9.0	0.0	0.0	72.0	74.0	304.0	290.0	64.0	970.01	147.0	57.0	-27.0	-1005.0	1636887575.466358
-8.0	1.0	9.0	11.0	0.0	0.0	72.0	74.0	302.0	290.0	64.0	970.14	147.0	54.0	-21.0	-1020.0	1636887575.569199
-7.0	3.0	9.0	12.0	0.0	0.0	72.0	74.0	298.0	290.0	64.0	970.23	148.0	34.0	-26.0	-1020.0	1636887575.671655
-6.0	5.0	9.0	14.0	1.0	0.0	72.0	74.0	299.0	290.0	64.0	970.17	148.0	15.0	-31.0	-1041.0	1636887575.774984
1.0	4.0	9.0	15.0	2.0	0.0	72.0	74.0	287.0	290.0	64.0	970.27	148.0	29.0	-31.0	-1016.0	1636887575.826405
6.0	2.0	9.0	14.0	2.0	0.0	72.0	74.0	296.0	290.0	64.0	970.22	148.0	8.0	-30.0	-972.0	1636887575.924864
8.0	2.0	9.0	13.0	2.0	0.0	72.0	74.0	292.0	290.0	64.0	970.32	148.0	8.0	-43.0	-1023.0	1636887576.028965
8.0	2.0	10.0	13.0	1.0	0.0	72.0	74.0	294.0	290.0	64.0	970.26	148.0	22.0	-44.0	-1022.0	1636887576.129638
7.0	2.0	10.0	12.0	1.0	0.0	71.0	74.0	292.0	290.0	64.0	970.26	148.0	19.0	-29.0	-1009.0	1636887576.233891
8.0	2.0	10.0	11.0	1.0	0.0	71.0	74.0	290.0	290.0	64.0	970.21	148.0	48.0	-48.0	-1009.0	1636887576.353895
8.0	2.0	10.0	10.0	1.0	0.0	71.0	74.0	291.0	290.0	64.0	970.17	148.0	47.0	-29.0	-1014.0	1636887576.4574
8.0	2.0	10.0	9.0	1.0	0.0	71.0	74.0	286.0	290.0	64.0	970.2	148.0	65.0	-47.0	-1008.0	1636887576.60448
8.0	2.0	10.0	9.0	1.0	0.0	71.0	74.0	286.0	290.0	64.0	970.2	148.0	65.0	-47.0	-1008.0	1636887576.647889
8.0	2.0	10.0	8.0	1.0	0.0	71.0	74.0	286.0	290.0	64.0	970.27	149.0	57.0	-40.0	-1003.0	1636887576.647889
5.0	2.0	10.0	7.0	1.0	0.0	71.0	74.0	289.0	290.0	64.0	970.13	149.0	64.0	-38.0	-983.0	1636887576.740455
-1.0	3.0	9.0	7.0	1.0	0.0	71.0	74.0	291.0	290.0	64.0	970.23	149.0	55.0	-35.0	-995.0	1636887576.9119
-8.0	2.0	9.0	8.0	1.0	0.0	71.0	74.0	293.0	290.0	64.0	970.17	149.0	49.0	-46.0	-1001.0	1636887576.961524
-8.0	2.0	9.0	10.0	2.0	0.0	71.0	74.0	294.0	290.0	64.0	970.26	149.0	30.0	-57.0	-1031.0	1636887577.049616
-7.0	1.0	9.0	12.0	2.0	0.0	71.0	74.0	290.0	290.0	64.0	970.2	149.0	-1.0	-27.0	-1028.0	1636887577.172637
-7.0	1.0	10.0	13.0	2.0	0.0	71.0	75.0	286.0	290.0	64.0	970.22	149.0	-5.0	-56.0	-1021.0	1636887577.315631
-7.0	2.0	10.0	15.0	2.0	0.0	71.0	75.0	287.0	290.0	64.0	970.25	149.0	-14.0	-45.0	-1013.0	1636887577.365238
-8.0	2.0	10.0	16.0	2.0	0.0	71.0	75.0	294.0	290.0	64.0	970.37	149.0	-28.0	-36.0	-1007.0	1636887577.527378
-7.0	3.0	10.0	17.0	3.0	0.0	71.0	75.0	288.0	290.0	64.0	970.36	149.0	-34.0	-34.0	-1008.0	1636887577.669158
-7.0	3.0	10.0	18.0	3.0	0.0	71.0	75.0	289.0	290.0	64.0	970.32	150.0	-36.0	-34.0	-997.0	1636887577.670024
-7.0	3.0	10.0	19.0	4.0	0.0	71.0	75.0	289.0	290.0	64.0	970.27	150.0	-49.0	-40.0	-974.0	1636887577.8312
-8.0	3.0	9.0	20.0	4.0	0.0	71.0	75.0	300.0	290.0	64.0	970.26	150.0	-48.0	-49.0	-995.0	1636887577.976538
-7.0	3.0	10.0	21.0	4.0	0.0	71.0	75.0	301.0	290.0	64.0	970.23	150.0	-64.0	-46.0	-995.0	1636887577.976538
-7.0	4.0	10.0	22.0	5.0	0.0	71.0	75.0	296.0	290.0	64.0	970.15	150.0	-72.0	-41.0	-989.0	1636887578.137541
-3.0	6.0	9.0	23.0	5.0	0.0	71.0	75.0	290.0	290.0	64.0	970.19	150.0	-66.0	-34.0	-980.0	1636887578.28275
4.0	4.0	10.0	22.0	6.0	0.0	71.0	74.0	294.0	290.0	64.0	970.3	150.0	-61.0	-48.0	-1000.0	1636887578.28275
8.0	2.0	10.0	20.0	6.0	0.0	71.0	74.0	290.0	290.0	63.0	970.4	150.0	-56.0	-48.0	-1006.0	1636887578.445336
8.0	0.0	10.0	19.0	5.0	0.0	71.0	74.0	292.0	290.0	63.0	970.53	150.0	-34.0	-53.0	-1018.0	1636887578.590867
8.0	0.0	10.0	17.0	5.0	0.0	71.0	74.0	283.0	290.0	63.0	970.49	150.0	-16.0	-48.0	-1022.0	1636887578.590867
8.0	0.0	10.0	16.0	4.0	0.0	71.0	74.0	294.0	290.0	63.0	970.48	151.0	-5.0	-54.0	-1014.0	1636887578.754713
8.0	0.0	10.0	14.0	3.0	0.0	71.0	74.0	287.0	290.0	63.0	970.43	151.0	-15.0	-38.0	-1017.0	1636887578.895888
8.0	0.0	10.0	13.0	3.0	0.0	71.0	74.0	290.0	290.0	63.0	970.41	151.0	-16.0	-33.0	-1009.0	1636887578.898654
8.0	0.0	10.0	11.0	2.0	0.0	71.0	74.0	291.0	290.0	63.0	970.31	151.0	-3.0	-34.0	-1014.0	1636887579.059801
8.0	0.0	10.0	10.0	1.0	0.0	71.0	74.0	292.0	290.0	63.0	970.36	151.0	4.0	-35.0	-1021.0	1636887579.202699
8.0	0.0	10.0	9.0	1.0	0.0	71.0	74.0	294.0	290.0	63.0	970.33	151.0	15.0	-41.0	-1011.0	1636887579.202699
8.0	0.0	10.0	7.0	0.0	0.0	71.0	74.0	289.0	290.0	63.0	970.3	151.0	33.0	-41.0	-1017.0	1636887579.368608
8.0	0.0	10.0	6.0	0.0	0.0	71.0	74.0	292.0	290.0	63.0	970.3	151.0	41.0	-47.0	-1004.0	1636887579.512073
8.0	0.0	10.0	5.0	0.0	0.0	71.0	74.0	292.0	290.0	63.0	970.32	151.0	59.0	-52.0	-991.0	1636887579.512073
8.0	0.0	10.0	4.0	0.0	0.0	71.0	74.0	289.0	290.0	63.0	970.27	151.0	39.0	-21.0	-1008.0	1636887579.674903
8.0	0.0	10.0	4.0	0.0	0.0	71.0	74.0	290.0	290.0	63.0	970.28	152.0	67.0	-45.0	-992.0	1636887579.674903
8.0	0.0	10.0	3.0	-1.0	0.0	71.0	74.0	299.0	290.0	63.0	970.31	152.0	70.0	-25.0	-987.0	1636887579.819425
8.0	0.0	10.0	2.0	-1.0	0.0	71.0	74.0	295.0	290.0	63.0	970.32	152.0	83.0	-28.0	-989.0	1636887579.856311
8.0	0.0	10.0	2.0	-1.0	0.0	71.0	74.0	290.0	290.0	63.0	970.36	152.0	60.0	-10.0	-989.0	1636887579.983822
8.0	0.0	10.0	1.0	-1.0	0.0	71.0	74.0	293.0	290.0	63.0	970.26	152.0	85.0	-27.0	-973.0	1636887580.12329
8.0	0.0	10.0	1.0	-2.0	0.0	71.0	74.0	289.0	290.0	63.0	970.32	152.0	108.0	-32.0	-964.0	1636887580.159869
8.0	0.0	10.0	0.0	-2.0	0.0	70.0	73.0	289.0	290.0	63.0	970.25	152.0	100.0	-33.0	-983.0	1636887580.290984
8.0	0.0	10.0	0.0	-2.0	0.0	70.0	73.0	297.0	290.0	63.0	970.26	152.0	96.0	-18.0	-979.0	1636887580.365133
8.0	0.0	10.0	0.0	-2.0	0.0	70.0	73.0	289.0	290.0	63.0	970.33	152.0	98.0	-28.0	-994.0	1636887580.466738
8.0	0.0	10.0	0.0	-3.0	0.0	70.0	73.0	290.0	290.0	63.0	970.46	152.0	104.0	-22.0	-1011.0	1636887580.568117
8.0	0.0	10.0	-1.0	-3.0	0.0	70.0	73.0	292.0	290.0	63.0	970.44	153.0	115.0	-34.0	-991.0	1636887580.670245
8.0	0.0	10.0	-1.0	-3.0	0.0	70.0	73.0	296.0	290.0	63.0	970.21	153.0	111.0	-21.0	-985.0	1636887580.770845
8.0	1.0	10.0	-1.0	-3.0	0.0	70.0	73.0	287.0	290.0	63.0	970.33	153.0	113.0	-24.0	-990.0	1636887580.873657
8.0	1.0	10.0	-1.0	-3.0	0.0	70.0	73.0	295.0	290.0	63.0	970.32	153.0	111.0	-12.0	-985.0	1636887580.976741
8.0	0.0	10.0	-2.0	-3.0	0.0	70.0	73.0	288.0	290.0	63.0	970.06	153.0	127.0	-25.0	-990.0	1636887581.078803
8.0	0.0	10.0	-2.0	-3.0	0.0	70.0	73.0	291.0	290.0	63.0	970.06	153.0	131.0	-30.0	-1002.0	1636887581.179889
8.0	0.0	9.0	-2.0	-3.0	0.0	70.0	73.0	293.0	290.0	63.0	970.05	153.0	124.0	-22.0	-1013.0	1636887581.283967
8.0	1.0	9.0	-2.0	-3.0	0.0	70.0	73.0	292.0	290.0	63.0	970.25	153.0	121.0	-10.0	-987.0	1636887581.381286
9.0	0.0	10.0	-2.0	-3.0	0.0	70.0	73.0	291.0	290.0	63.0	970.14	153.0	105.0	-12.0	-1008.0	1636887581.485512
8.0	0.0	10.0	-3.0	-4.0	0.0	70.0	73.0	287.0	290.0	63.0	970.13	153.0	121.0	-21.0	-991.0	1636887581.588117
8.0	1.0	10.0	-3.0	-4.0	0.0	70.0	73.0	283.0	290.0	63.0	970.11	154.0	109.0	5.0	-1007.0	1636887581.690721
