timestamp	pitch	roll	yaw	vgx	vgy	vgz	templ	temph	tof	h	bat	baro	time	agx	agy	agz	
1636888250.550421	
1636888250.598429	3.0	0.0	0.0	0.0	0.0	0.0	65.0	68.0	173.0	140.0	18.0	969.35	131.0	59.0	-8.0	-988.0	
1636888250.700036	3.0	0.0	0.0	0.0	0.0	0.0	65.0	68.0	172.0	140.0	18.0	969.33	132.0	52.0	-2.0	-989.0	
1636888250.805571	3.0	0.0	0.0	0.0	0.0	0.0	65.0	68.0	174.0	140.0	18.0	969.28	132.0	56.0	-16.0	-995.0	
1636888250.90487	3.0	0.0	0.0	0.0	0.0	0.0	65.0	68.0	170.0	140.0	18.0	969.43	132.0	52.0	-8.0	-1007.0	
1636888251.009456	3.0	0.0	0.0	0.0	0.0	0.0	65.0	68.0	173.0	140.0	18.0	969.38	132.0	53.0	-10.0	-984.0	
1636888251.111627	3.0	0.0	0.0	0.0	0.0	0.0	65.0	68.0	170.0	140.0	18.0	969.37	132.0	67.0	-31.0	-983.0	
1636888251.211168	3.0	0.0	0.0	0.0	0.0	0.0	65.0	67.0	172.0	140.0	18.0	969.38	132.0	66.0	-25.0	-999.0	
1636888251.318396	3.0	0.0	0.0	0.0	0.0	0.0	65.0	67.0	171.0	140.0	18.0	969.35	132.0	51.0	-8.0	-1004.0	
1636888251.416085	3.0	0.0	0.0	0.0	0.0	0.0	65.0	67.0	172.0	140.0	18.0	969.34	132.0	53.0	-8.0	-998.0	
1636888251.518013	3.0	0.0	0.0	0.0	0.0	0.0	65.0	67.0	172.0	140.0	18.0	969.43	132.0	51.0	-11.0	-1010.0	
1636888251.620863	3.0	0.0	0.0	0.0	0.0	0.0	65.0	67.0	172.0	140.0	17.0	969.42	132.0	69.0	-17.0	-991.0	
1636888251.722138	3.0	0.0	0.0	0.0	0.0	0.0	65.0	67.0	174.0	140.0	17.0	969.47	133.0	52.0	-6.0	-991.0	
1636888251.775261	3.0	0.0	0.0	0.0	0.0	0.0	65.0	67.0	173.0	140.0	17.0	969.36	133.0	64.0	-16.0	-991.0	
1636888251.875123	3.0	0.0	0.0	0.0	0.0	0.0	65.0	67.0	171.0	140.0	17.0	969.4	133.0	56.0	-19.0	-1005.0	
1636888251.976834	3.0	0.0	0.0	0.0	0.0	0.0	65.0	67.0	172.0	140.0	17.0	969.33	133.0	47.0	-10.0	-1009.0	
1636888252.0801	2.0	0.0	0.0	0.0	0.0	0.0	65.0	67.0	172.0	140.0	17.0	969.26	133.0	38.0	-6.0	-995.0	
1636888252.183247	2.0	0.0	0.0	0.0	0.0	0.0	65.0	67.0	172.0	140.0	17.0	969.37	133.0	58.0	-19.0	-986.0	
1636888252.284792	2.0	0.0	0.0	0.0	0.0	0.0	65.0	67.0	172.0	140.0	17.0	969.26	133.0	55.0	-22.0	-998.0	
1636888252.385576	2.0	0.0	0.0	0.0	0.0	0.0	65.0	67.0	172.0	140.0	17.0	969.4	133.0	52.0	-16.0	-995.0	
1636888252.487265	2.0	0.0	0.0	0.0	0.0	0.0	65.0	67.0	172.0	140.0	17.0	969.41	133.0	51.0	-12.0	-997.0	
1636888252.589728	2.0	0.0	0.0	0.0	0.0	0.0	65.0	67.0	172.0	140.0	17.0	969.35	133.0	42.0	-15.0	-1014.0	
1636888252.691398	3.0	0.0	0.0	0.0	0.0	0.0	65.0	67.0	171.0	140.0	17.0	969.38	134.0	51.0	-22.0	-988.0	
1636888252.794813	2.0	0.0	0.0	0.0	0.0	0.0	65.0	67.0	172.0	140.0	17.0	969.46	134.0	56.0	-16.0	-991.0	
1636888252.896136	2.0	0.0	0.0	0.0	0.0	0.0	65.0	67.0	172.0	140.0	17.0	969.41	134.0	37.0	-13.0	-1002.0	
1636888252.999592	2.0	0.0	0.0	0.0	0.0	0.0	65.0	67.0	170.0	140.0	17.0	969.32	134.0	49.0	-20.0	-997.0	
1636888253.099995	2.0	0.0	0.0	0.0	0.0	0.0	65.0	67.0	172.0	140.0	17.0	969.4	134.0	39.0	-18.0	-997.0	
1636888253.201308	2.0	0.0	0.0	0.0	0.0	0.0	65.0	67.0	171.0	140.0	17.0	969.32	134.0	45.0	-32.0	-990.0	
1636888253.303939	2.0	1.0	0.0	0.0	0.0	0.0	65.0	67.0	171.0	140.0	17.0	969.33	134.0	55.0	-41.0	-1004.0	
1636888253.409233	2.0	1.0	0.0	0.0	0.0	0.0	65.0	67.0	171.0	140.0	17.0	969.32	134.0	38.0	-21.0	-1000.0	
1636888253.509	2.0	1.0	0.0	0.0	0.0	0.0	65.0	67.0	172.0	140.0	17.0	969.36	134.0	42.0	-19.0	-1013.0	
1636888253.609409	2.0	1.0	0.0	0.0	0.0	0.0	65.0	67.0	172.0	140.0	17.0	969.37	134.0	40.0	-26.0	-995.0	
1636888253.711172	2.0	1.0	0.0	0.0	0.0	0.0	65.0	67.0	174.0	140.0	17.0	969.38	135.0	53.0	-26.0	-999.0	
1636888253.812634	2.0	1.0	0.0	0.0	0.0	0.0	65.0	67.0	171.0	140.0	17.0	969.36	135.0	46.0	-17.0	-990.0	
1636888253.917968	2.0	1.0	0.0	0.0	0.0	0.0	65.0	67.0	172.0	140.0	17.0	969.41	135.0	40.0	-18.0	-995.0	
1636888254.016764	2.0	1.0	0.0	0.0	0.0	0.0	65.0	67.0	171.0	140.0	17.0	969.46	135.0	42.0	-22.0	-997.0	
1636888254.121312	2.0	1.0	0.0	0.0	0.0	0.0	65.0	67.0	172.0	140.0	17.0	969.37	135.0	41.0	-30.0	-991.0	
1636888254.222722	2.0	1.0	0.0	0.0	0.0	0.0	64.0	67.0	171.0	140.0	17.0	969.37	135.0	31.0	-13.0	-998.0	
1636888254.321973	2.0	1.0	0.0	0.0	0.0	0.0	64.0	67.0	173.0	140.0	17.0	969.36	135.0	37.0	-13.0	-997.0	
1636888254.424666	2.0	1.0	0.0	0.0	0.0	0.0	64.0	67.0	171.0	140.0	17.0	969.44	135.0	26.0	-8.0	-1006.0	
1636888254.528069	2.0	1.0	0.0	0.0	0.0	0.0	64.0	67.0	171.0	140.0	17.0	969.38	135.0	42.0	-15.0	-1009.0	
1636888254.627931	2.0	1.0	0.0	0.0	0.0	0.0	64.0	67.0	172.0	140.0	17.0	969.41	135.0	65.0	-36.0	-982.0	
1636888254.72987	2.0	0.0	0.0	0.0	0.0	0.0	64.0	67.0	171.0	140.0	17.0	969.44	136.0	52.0	-19.0	-997.0	
1636888254.834473	2.0	0.0	0.0	0.0	0.0	0.0	64.0	67.0	173.0	140.0	17.0	969.44	136.0	37.0	-10.0	-996.0	
1636888254.936419	2.0	0.0	0.0	0.0	0.0	0.0	64.0	67.0	171.0	140.0	17.0	969.44	136.0	45.0	-20.0	-1010.0	
1636888255.039295	2.0	0.0	0.0	0.0	0.0	0.0	64.0	67.0	171.0	140.0	17.0	969.48	136.0	46.0	-32.0	-997.0	
1636888255.139189	2.0	0.0	0.0	0.0	0.0	0.0	64.0	67.0	171.0	140.0	17.0	969.43	136.0	30.0	-31.0	-993.0	
1636888255.24335	2.0	0.0	0.0	0.0	0.0	0.0	65.0	68.0	171.0	140.0	17.0	969.5	136.0	39.0	-24.0	-996.0	
1636888255.342801	2.0	0.0	0.0	0.0	0.0	0.0	65.0	68.0	170.0	140.0	17.0	969.43	136.0	35.0	-17.0	-1004.0	
1636888255.444234	1.0	0.0	0.0	0.0	0.0	0.0	65.0	68.0	170.0	140.0	17.0	969.46	136.0	32.0	-10.0	-1001.0	
1636888255.548195	1.0	1.0	0.0	0.0	0.0	0.0	65.0	68.0	171.0	140.0	17.0	969.48	136.0	35.0	-19.0	-996.0	
1636888255.648849	1.0	1.0	0.0	0.0	0.0	0.0	65.0	68.0	171.0	140.0	17.0	969.46	136.0	38.0	-16.0	-1000.0	
1636888255.749822	2.0	0.0	0.0	0.0	0.0	0.0	65.0	68.0	171.0	140.0	17.0	969.48	137.0	42.0	-15.0	-1005.0	
1636888255.803643	2.0	0.0	0.0	0.0	0.0	0.0	65.0	68.0	169.0	140.0	17.0	969.49	137.0	31.0	-4.0	-1010.0	
1636888255.906804	2.0	0.0	0.0	0.0	0.0	0.0	65.0	68.0	171.0	140.0	17.0	969.48	137.0	50.0	-14.0	-988.0	
1636888256.007796	2.0	0.0	0.0	0.0	0.0	0.0	65.0	68.0	170.0	140.0	17.0	969.5	137.0	50.0	-24.0	-978.0	
1636888256.109625	2.0	0.0	0.0	0.0	0.0	0.0	65.0	68.0	171.0	140.0	17.0	969.52	137.0	39.0	-8.0	-992.0	
1636888256.211366	2.0	0.0	0.0	0.0	0.0	0.0	65.0	67.0	169.0	140.0	17.0	969.48	137.0	39.0	-10.0	-1009.0	
1636888256.310418	2.0	0.0	0.0	0.0	0.0	0.0	65.0	67.0	170.0	140.0	17.0	969.46	137.0	42.0	-14.0	-1007.0	
1636888256.412692	2.0	0.0	0.0	0.0	0.0	0.0	65.0	67.0	170.0	140.0	17.0	969.45	137.0	29.0	-7.0	-1013.0	
1636888256.515644	2.0	0.0	0.0	0.0	0.0	0.0	65.0	67.0	171.0	140.0	17.0	969.38	137.0	31.0	-14.0	-1004.0	
1636888256.619116	2.0	0.0	0.0	0.0	0.0	0.0	65.0	67.0	170.0	140.0	17.0	969.36	137.0	34.0	-12.0	-986.0	
1636888256.720553	2.0	0.0	0.0	0.0	0.0	0.0	65.0	67.0	171.0	140.0	17.0	969.42	138.0	30.0	-4.0	-1003.0	
1636888256.823426	1.0	0.0	0.0	0.0	0.0	0.0	65.0	67.0	170.0	140.0	17.0	969.44	138.0	25.0	-6.0	-999.0	
1636888256.922984	2.0	0.0	0.0	0.0	0.0	0.0	65.0	67.0	170.0	140.0	17.0	969.37	138.0	28.0	-7.0	-996.0	
1636888257.026849	2.0	0.0	0.0	0.0	0.0	0.0	65.0	67.0	170.0	140.0	17.0	969.47	138.0	31.0	-12.0	-993.0	
1636888257.12915	2.0	0.0	0.0	0.0	0.0	0.0	65.0	67.0	171.0	140.0	17.0	969.47	138.0	27.0	-5.0	-1008.0	
1636888257.230788	1.0	0.0	0.0	0.0	0.0	0.0	64.0	67.0	169.0	140.0	17.0	969.48	138.0	28.0	-10.0	-1000.0	
1636888257.3355	1.0	0.0	0.0	0.0	0.0	0.0	64.0	67.0	169.0	140.0	17.0	969.42	138.0	24.0	-11.0	-988.0	
1636888257.437585	1.0	0.0	0.0	0.0	0.0	0.0	64.0	67.0	170.0	140.0	17.0	969.49	138.0	18.0	-12.0	-1005.0	
1636888257.537097	1.0	0.0	0.0	0.0	0.0	0.0	64.0	67.0	168.0	140.0	17.0	969.39	138.0	22.0	-7.0	-1007.0	
1636888257.638461	1.0	0.0	0.0	0.0	0.0	0.0	64.0	67.0	170.0	140.0	17.0	969.51	138.0	31.0	-14.0	-1004.0	
1636888257.741667	1.0	0.0	0.0	0.0	0.0	0.0	64.0	67.0	170.0	140.0	17.0	969.46	139.0	25.0	-8.0	-988.0	
1636888257.845192	1.0	0.0	0.0	0.0	0.0	0.0	64.0	67.0	171.0	140.0	17.0	969.5	139.0	29.0	-18.0	-991.0	
1636888257.946112	1.0	0.0	0.0	0.0	0.0	0.0	64.0	67.0	169.0	140.0	17.0	969.55	139.0	23.0	-13.0	-988.0	
1636888258.046693	1.0	0.0	0.0	0.0	0.0	0.0	64.0	67.0	171.0	140.0	17.0	969.44	139.0	28.0	-1.0	-998.0	
1636888258.149856	1.0	0.0	0.0	0.0	0.0	0.0	64.0	67.0	170.0	140.0	17.0	969.58	139.0	27.0	-6.0	-997.0	
1636888258.252582	1.0	0.0	0.0	0.0	0.0	0.0	64.0	67.0	171.0	140.0	17.0	969.53	139.0	32.0	-14.0	-999.0	
1636888258.354339	1.0	0.0	0.0	0.0	0.0	0.0	64.0	67.0	171.0	140.0	17.0	969.5	139.0	23.0	0.0	-991.0	
1636888258.454203	1.0	0.0	0.0	0.0	0.0	0.0	64.0	67.0	170.0	140.0	17.0	969.44	139.0	27.0	-13.0	-995.0	
1636888258.558203	1.0	0.0	0.0	0.0	0.0	0.0	64.0	67.0	171.0	140.0	17.0	969.45	139.0	25.0	-7.0	-999.0	
1636888258.65807	1.0	0.0	0.0	0.0	0.0	0.0	64.0	67.0	171.0	140.0	17.0	969.45	139.0	19.0	-4.0	-1000.0	
1636888258.760017	1.0	0.0	0.0	0.0	0.0	0.0	64.0	67.0	172.0	140.0	17.0	969.51	140.0	25.0	-6.0	-1003.0	
1636888258.865259	1.0	0.0	0.0	0.0	0.0	0.0	64.0	67.0	171.0	140.0	17.0	969.47	140.0	18.0	-4.0	-995.0	
1636888258.965602	1.0	0.0	0.0	0.0	0.0	0.0	64.0	67.0	171.0	140.0	17.0	969.43	140.0	16.0	-7.0	-990.0	
1636888259.068478	1.0	0.0	0.0	0.0	0.0	0.0	64.0	67.0	171.0	140.0	17.0	969.47	140.0	22.0	-14.0	-993.0	
1636888259.168626	1.0	0.0	0.0	0.0	0.0	0.0	64.0	67.0	171.0	140.0	17.0	969.54	140.0	21.0	-7.0	-1008.0	
1636888259.274714	1.0	0.0	0.0	0.0	0.0	0.0	65.0	66.0	171.0	140.0	17.0	969.52	140.0	18.0	-7.0	-998.0	
1636888259.373349	0.0	0.0	0.0	0.0	0.0	0.0	65.0	66.0	171.0	140.0	17.0	969.57	140.0	17.0	0.0	-993.0	
1636888259.474772	1.0	0.0	0.0	0.0	0.0	0.0	65.0	66.0	171.0	140.0	17.0	969.53	140.0	30.0	-17.0	-990.0	
1636888259.579393	1.0	0.0	0.0	0.0	0.0	0.0	65.0	66.0	171.0	140.0	17.0	969.61	140.0	21.0	-8.0	-995.0	
1636888259.680534	1.0	0.0	0.0	0.0	0.0	0.0	65.0	66.0	170.0	140.0	17.0	969.58	141.0	19.0	-6.0	-995.0	
1636888259.781155	1.0	0.0	0.0	0.0	0.0	0.0	65.0	66.0	170.0	140.0	17.0	969.48	141.0	11.0	-4.0	-1010.0	
1636888259.885009	1.0	0.0	0.0	0.0	0.0	0.0	65.0	66.0	171.0	140.0	17.0	969.54	141.0	25.0	-8.0	-999.0	
1636888259.934297	1.0	0.0	0.0	0.0	0.0	0.0	65.0	66.0	171.0	140.0	17.0	969.61	141.0	47.0	-23.0	-1009.0	
1636888260.037466	1.0	0.0	0.0	0.0	0.0	0.0	65.0	66.0	171.0	140.0	17.0	969.55	141.0	16.0	-16.0	-1002.0	
1636888260.141038	1.0	0.0	0.0	0.0	0.0	0.0	65.0	66.0	171.0	140.0	17.0	969.5	141.0	16.0	-6.0	-1003.0	
1636888260.243063	1.0	0.0	0.0	0.0	0.0	0.0	65.0	66.0	171.0	140.0	17.0	969.55	141.0	10.0	5.0	-1000.0	
1636888260.344938	1.0	0.0	0.0	0.0	0.0	0.0	65.0	66.0	171.0	140.0	17.0	969.57	141.0	50.0	-21.0	-982.0	
1636888260.447229	1.0	0.0	0.0	0.0	0.0	0.0	65.0	66.0	171.0	140.0	17.0	969.58	141.0	21.0	-15.0	-1002.0	
1636888260.548731	2.0	0.0	0.0	0.0	0.0	0.0	65.0	66.0	172.0	140.0	17.0	969.43	141.0	28.0	-2.0	-1006.0	
1636888260.647827	1.0	0.0	0.0	0.0	0.0	0.0	65.0	66.0	172.0	140.0	17.0	969.51	142.0	19.0	-11.0	-1004.0	
1636888260.751686	2.0	0.0	0.0	0.0	0.0	0.0	65.0	66.0	172.0	140.0	17.0	969.48	142.0	21.0	-12.0	-1017.0	
1636888260.954782	2.0	0.0	0.0	0.0	0.0	0.0	65.0	66.0	173.0	140.0	17.0	969.54	142.0	5.0	2.0	-998.0	
1636888260.954782	2.0	0.0	0.0	0.0	0.0	0.0	65.0	66.0	173.0	140.0	17.0	969.5	142.0	43.0	-29.0	-983.0	
1636888261.059296	2.0	0.0	0.0	0.0	0.0	0.0	65.0	66.0	174.0	140.0	17.0	969.56	142.0	36.0	-22.0	-990.0	
1636888261.160432	1.0	0.0	0.0	0.0	0.0	0.0	65.0	66.0	172.0	140.0	17.0	969.53	142.0	31.0	-9.0	-992.0	
1636888261.263028	1.0	1.0	0.0	0.0	0.0	0.0	64.0	66.0	174.0	140.0	17.0	969.53	142.0	24.0	-16.0	-990.0	
1636888261.362836	1.0	1.0	0.0	0.0	0.0	0.0	64.0	66.0	173.0	140.0	17.0	969.58	142.0	25.0	-14.0	-1012.0	
1636888261.467234	1.0	0.0	0.0	0.0	0.0	0.0	64.0	66.0	174.0	140.0	17.0	969.51	142.0	34.0	-16.0	-990.0	
1636888261.569217	1.0	0.0	0.0	0.0	0.0	0.0	64.0	66.0	173.0	140.0	17.0	969.52	142.0	16.0	-5.0	-992.0	
1636888261.670884	1.0	0.0	0.0	0.0	0.0	0.0	64.0	66.0	171.0	140.0	17.0	969.58	143.0	20.0	-16.0	-1009.0	
1636888261.770747	1.0	0.0	0.0	0.0	0.0	0.0	64.0	66.0	172.0	140.0	17.0	969.48	143.0	18.0	-16.0	-1007.0	
1636888261.875156	1.0	0.0	0.0	0.0	0.0	0.0	64.0	66.0	171.0	140.0	17.0	969.54	143.0	35.0	-27.0	-986.0	
1636888261.979164	1.0	0.0	0.0	0.0	0.0	0.0	64.0	66.0	171.0	140.0	17.0	969.56	143.0	2.0	-1.0	-1009.0	
1636888262.078903	1.0	0.0	0.0	0.0	0.0	0.0	64.0	66.0	171.0	140.0	17.0	969.49	143.0	14.0	-4.0	-1009.0	
1636888262.18208	1.0	0.0	0.0	0.0	0.0	0.0	64.0	66.0	171.0	140.0	17.0	969.48	143.0	22.0	1.0	-1007.0	
1636888262.286006	1.0	0.0	0.0	0.0	0.0	0.0	63.0	67.0	171.0	140.0	17.0	969.6	143.0	18.0	7.0	-1004.0	
1636888262.384823	0.0	0.0	0.0	0.0	0.0	0.0	63.0	67.0	171.0	140.0	17.0	969.57	143.0	12.0	11.0	-1017.0	
1636888262.48696	0.0	0.0	0.0	0.0	0.0	0.0	63.0	67.0	171.0	140.0	17.0	969.62	143.0	18.0	0.0	-998.0	
1636888262.588057	0.0	0.0	0.0	0.0	0.0	0.0	63.0	67.0	171.0	140.0	17.0	969.56	143.0	21.0	5.0	-999.0	
1636888262.690958	1.0	0.0	0.0	0.0	0.0	0.0	63.0	67.0	171.0	140.0	16.0	969.59	144.0	22.0	-6.0	-1008.0	
1636888262.79327	1.0	0.0	0.0	0.0	0.0	0.0	63.0	67.0	172.0	140.0	16.0	969.55	144.0	33.0	-4.0	-995.0	
1636888262.892624	1.0	0.0	0.0	0.0	0.0	0.0	63.0	67.0	172.0	140.0	16.0	969.55	144.0	16.0	15.0	-999.0	
1636888262.996013	1.0	0.0	0.0	0.0	0.0	0.0	63.0	67.0	171.0	140.0	16.0	969.52	144.0	4.0	13.0	-994.0	
1636888263.096019	1.0	0.0	0.0	0.0	0.0	0.0	63.0	67.0	173.0	140.0	16.0	969.59	144.0	13.0	12.0	-1004.0	
1636888263.197405	1.0	0.0	0.0	0.0	0.0	0.0	63.0	67.0	171.0	140.0	16.0	969.63	144.0	46.0	-19.0	-997.0	
1636888263.299822	1.0	0.0	0.0	0.0	0.0	0.0	64.0	66.0	172.0	140.0	16.0	969.59	144.0	17.0	15.0	-984.0	
1636888263.401796	1.0	0.0	0.0	0.0	0.0	0.0	64.0	66.0	172.0	140.0	16.0	969.59	144.0	17.0	8.0	-985.0	
1636888263.506918	1.0	0.0	0.0	0.0	0.0	0.0	64.0	66.0	171.0	140.0	16.0	969.59	144.0	9.0	24.0	-999.0	
1636888263.605871	1.0	0.0	0.0	0.0	0.0	0.0	64.0	66.0	172.0	140.0	16.0	969.64	144.0	23.0	18.0	-1006.0	
1636888263.710134	1.0	0.0	0.0	0.0	0.0	0.0	64.0	66.0	172.0	140.0	16.0	969.67	145.0	12.0	15.0	-1008.0	
1636888263.812249	1.0	0.0	0.0	0.0	0.0	0.0	64.0	66.0	171.0	140.0	16.0	969.55	145.0	28.0	2.0	-1011.0	
1636888263.915258	1.0	0.0	0.0	0.0	0.0	0.0	64.0	66.0	172.0	140.0	16.0	969.51	145.0	39.0	2.0	-994.0	
1636888263.964675	1.0	0.0	0.0	0.0	0.0	0.0	64.0	66.0	173.0	140.0	16.0	969.56	145.0	17.0	1.0	-1006.0	
1636888264.067175	1.0	0.0	0.0	0.0	0.0	0.0	64.0	66.0	172.0	140.0	16.0	969.57	145.0	22.0	0.0	-1005.0	
1636888264.167149	2.0	0.0	0.0	0.0	0.0	0.0	64.0	66.0	173.0	140.0	16.0	969.57	145.0	48.0	-18.0	-1010.0	
1636888264.319675	2.0	0.0	0.0	0.0	0.0	0.0	64.0	66.0	173.0	140.0	16.0	969.58	145.0	51.0	-24.0	-999.0	
1636888264.423532	2.0	0.0	0.0	0.0	0.0	0.0	64.0	66.0	173.0	140.0	16.0	969.59	145.0	23.0	-2.0	-1005.0	
1636888264.475991	1.0	0.0	0.0	0.0	0.0	0.0	64.0	66.0	174.0	140.0	16.0	969.63	145.0	45.0	-9.0	-1011.0	
1636888264.5779	2.0	0.0	0.0	0.0	0.0	0.0	64.0	66.0	173.0	140.0	16.0	969.59	145.0	37.0	3.0	-990.0	
1636888264.676653	2.0	0.0	0.0	0.0	0.0	0.0	64.0	66.0	175.0	140.0	16.0	969.63	146.0	45.0	-17.0	-996.0	
1636888264.780359	2.0	0.0	0.0	0.0	0.0	0.0	64.0	66.0	175.0	140.0	16.0	969.62	146.0	32.0	-10.0	-995.0	
1636888264.882974	2.0	0.0	0.0	0.0	0.0	0.0	64.0	66.0	175.0	140.0	16.0	969.5	146.0	45.0	-19.0	-989.0	
1636888264.984034	2.0	0.0	0.0	0.0	0.0	0.0	64.0	66.0	175.0	140.0	16.0	969.54	146.0	47.0	-35.0	-998.0	
1636888265.085479	2.0	0.0	0.0	0.0	0.0	0.0	64.0	66.0	175.0	140.0	16.0	969.57	146.0	27.0	-28.0	-1007.0	
1636888265.187381	2.0	1.0	0.0	0.0	0.0	0.0	64.0	66.0	177.0	140.0	16.0	969.53	146.0	38.0	-35.0	-981.0	
1636888265.29235	2.0	2.0	0.0	0.0	0.0	0.0	64.0	67.0	177.0	140.0	16.0	969.58	146.0	26.0	-36.0	-990.0	
1636888265.390425	1.0	2.0	0.0	0.0	0.0	0.0	64.0	67.0	179.0	140.0	16.0	969.53	146.0	19.0	-11.0	-1015.0	
1636888265.493415	1.0	1.0	0.0	0.0	0.0	0.0	64.0	67.0	178.0	140.0	16.0	969.51	146.0	37.0	-31.0	-991.0	
1636888265.595495	2.0	1.0	0.0	0.0	0.0	0.0	64.0	67.0	176.0	140.0	16.0	969.53	146.0	23.0	1.0	-999.0	
1636888265.696719	2.0	1.0	0.0	0.0	0.0	0.0	64.0	67.0	175.0	140.0	16.0	969.53	147.0	31.0	-3.0	-1002.0	
1636888265.801924	2.0	1.0	0.0	0.0	0.0	0.0	64.0	67.0	178.0	140.0	16.0	969.46	147.0	36.0	-12.0	-1003.0	
1636888265.901858	2.0	1.0	0.0	0.0	0.0	0.0	64.0	67.0	178.0	140.0	16.0	969.48	147.0	26.0	-25.0	-990.0	
1636888266.004863	2.0	1.0	0.0	0.0	0.0	0.0	64.0	67.0	180.0	140.0	16.0	969.5	147.0	50.0	-46.0	-1001.0	
1636888266.105241	2.0	2.0	0.0	0.0	0.0	0.0	64.0	67.0	180.0	140.0	16.0	969.49	147.0	43.0	-33.0	-986.0	
1636888266.208514	2.0	2.0	0.0	0.0	0.0	0.0	64.0	67.0	179.0	140.0	16.0	969.57	147.0	36.0	-38.0	-1004.0	
1636888266.311102	2.0	3.0	0.0	0.0	0.0	0.0	63.0	66.0	181.0	140.0	16.0	969.6	147.0	29.0	-23.0	-1001.0	
1636888266.412804	2.0	2.0	0.0	0.0	0.0	0.0	63.0	66.0	179.0	140.0	16.0	969.5	147.0	36.0	-31.0	-1010.0	
1636888266.5164	2.0	2.0	0.0	0.0	0.0	0.0	63.0	66.0	178.0	140.0	16.0	969.51	147.0	55.0	-36.0	-986.0	
1636888266.617778	2.0	2.0	0.0	0.0	0.0	0.0	63.0	66.0	179.0	140.0	16.0	969.55	147.0	44.0	-26.0	-995.0	
1636888266.71638	2.0	2.0	0.0	0.0	0.0	0.0	63.0	66.0	182.0	140.0	16.0	969.49	148.0	46.0	-36.0	-997.0	
1636888266.821283	2.0	2.0	0.0	0.0	0.0	0.0	63.0	66.0	181.0	140.0	16.0	969.51	148.0	41.0	-27.0	-999.0	
1636888266.921728	2.0	1.0	0.0	0.0	0.0	0.0	63.0	66.0	178.0	140.0	16.0	969.57	148.0	42.0	-15.0	-1014.0	
1636888267.024321	2.0	1.0	0.0	0.0	0.0	0.0	63.0	66.0	178.0	140.0	16.0	969.53	148.0	43.0	-29.0	-976.0	
1636888267.124186	2.0	1.0	0.0	0.0	0.0	0.0	63.0	66.0	178.0	140.0	16.0	969.58	148.0	50.0	-26.0	-993.0	
1636888267.229874	2.0	1.0	0.0	0.0	0.0	0.0	63.0	66.0	177.0	140.0	16.0	969.55	148.0	40.0	-21.0	-993.0	
1636888267.328746	2.0	1.0	0.0	0.0	0.0	0.0	65.0	66.0	177.0	140.0	16.0	969.55	148.0	40.0	-23.0	-1002.0	
1636888267.432781	2.0	0.0	0.0	0.0	0.0	0.0	65.0	66.0	175.0	140.0	16.0	969.47	148.0	48.0	-15.0	-999.0	
1636888267.532667	2.0	0.0	0.0	0.0	0.0	0.0	65.0	66.0	176.0	140.0	16.0	969.54	148.0	46.0	-12.0	-995.0	
1636888267.636259	2.0	0.0	0.0	0.0	0.0	0.0	65.0	66.0	176.0	140.0	16.0	969.56	148.0	46.0	-17.0	-985.0	
1636888267.737994	2.0	0.0	0.0	0.0	0.0	0.0	65.0	66.0	175.0	140.0	16.0	969.53	149.0	40.0	-1.0	-976.0	
1636888267.83969	2.0	0.0	0.0	0.0	0.0	0.0	65.0	66.0	175.0	140.0	16.0	969.55	149.0	52.0	-24.0	-992.0	
1636888267.94228	2.0	0.0	0.0	0.0	0.0	0.0	65.0	66.0	177.0	140.0	16.0	969.5	149.0	49.0	-21.0	-998.0	
1636888268.045463	2.0	0.0	0.0	0.0	0.0	0.0	65.0	66.0	175.0	140.0	16.0	969.5	149.0	62.0	-33.0	-990.0	
1636888268.148089	2.0	0.0	0.0	0.0	0.0	0.0	65.0	66.0	175.0	140.0	16.0	969.53	149.0	46.0	-15.0	-988.0	
1636888268.19551	2.0	0.0	0.0	0.0	0.0	0.0	65.0	66.0	174.0	140.0	16.0	969.51	149.0	56.0	-22.0	-993.0	
1636888268.30115	2.0	0.0	0.0	0.0	0.0	0.0	64.0	67.0	174.0	140.0	16.0	969.52	149.0	38.0	-8.0	-1005.0	
1636888268.401345	2.0	0.0	0.0	0.0	0.0	0.0	64.0	67.0	175.0	140.0	16.0	969.58	149.0	35.0	3.0	-996.0	
1636888268.50442	2.0	0.0	0.0	0.0	0.0	0.0	64.0	67.0	174.0	140.0	16.0	969.51	149.0	51.0	-24.0	-998.0	
1636888268.605749	2.0	0.0	0.0	0.0	0.0	0.0	64.0	67.0	174.0	140.0	16.0	969.48	149.0	30.0	-10.0	-996.0	
1636888268.705619	2.0	0.0	0.0	0.0	0.0	0.0	64.0	67.0	173.0	140.0	16.0	969.54	150.0	27.0	-3.0	-1005.0	
1636888268.809768	2.0	0.0	0.0	0.0	0.0	0.0	64.0	67.0	173.0	140.0	16.0	969.49	150.0	46.0	-26.0	-988.0	
1636888268.912133	2.0	0.0	0.0	0.0	0.0	0.0	64.0	67.0	173.0	140.0	16.0	969.65	150.0	25.0	3.0	-990.0	
1636888269.01161	1.0	0.0	0.0	0.0	0.0	0.0	64.0	67.0	174.0	140.0	16.0	969.52	150.0	42.0	-16.0	-982.0	
1636888269.11311	2.0	0.0	0.0	0.0	0.0	0.0	64.0	67.0	173.0	140.0	16.0	969.5	150.0	19.0	8.0	-1007.0	
1636888269.216244	2.0	0.0	0.0	0.0	0.0	0.0	64.0	67.0	172.0	140.0	16.0	969.46	150.0	40.0	-25.0	-999.0	
1636888269.320105	1.0	0.0	0.0	0.0	0.0	0.0	63.0	67.0	171.0	140.0	16.0	969.52	150.0	33.0	-3.0	-1001.0	
1636888269.42184	1.0	0.0	0.0	0.0	0.0	0.0	63.0	67.0	170.0	140.0	16.0	969.52	150.0	34.0	-1.0	-1006.0	
1636888269.524887	1.0	0.0	0.0	0.0	0.0	0.0	63.0	67.0	171.0	140.0	16.0	969.59	150.0	31.0	-6.0	-1016.0	
1636888269.623833	2.0	0.0	0.0	0.0	0.0	0.0	63.0	67.0	171.0	140.0	16.0	969.5	150.0	15.0	1.0	-1014.0	
1636888269.728902	2.0	0.0	0.0	0.0	0.0	0.0	63.0	67.0	170.0	140.0	16.0	969.43	151.0	43.0	-19.0	-996.0	
1636888269.829292	2.0	0.0	0.0	0.0	0.0	0.0	63.0	67.0	171.0	140.0	16.0	969.5	151.0	40.0	-19.0	-1002.0	
1636888269.933145	2.0	0.0	0.0	0.0	0.0	0.0	63.0	67.0	171.0	140.0	16.0	969.5	151.0	33.0	-23.0	-983.0	
1636888270.034753	1.0	0.0	0.0	0.0	0.0	0.0	63.0	67.0	171.0	140.0	16.0	969.5	151.0	27.0	-33.0	-999.0	
1636888270.133939	1.0	1.0	0.0	0.0	0.0	0.0	63.0	67.0	172.0	140.0	16.0	969.59	151.0	21.0	-20.0	-1007.0	
1636888270.238874	1.0	1.0	0.0	0.0	0.0	0.0	63.0	67.0	170.0	140.0	16.0	969.52	151.0	36.0	-35.0	-991.0	
1636888270.339552	1.0	1.0	0.0	0.0	0.0	0.0	64.0	66.0	173.0	140.0	16.0	969.56	151.0	20.0	-32.0	-996.0	
1636888270.442841	1.0	2.0	0.0	0.0	0.0	0.0	64.0	66.0	172.0	140.0	16.0	969.52	151.0	28.0	-45.0	-990.0	
1636888270.541492	1.0	2.0	0.0	0.0	0.0	0.0	64.0	66.0	173.0	140.0	16.0	969.53	151.0	16.0	-26.0	-1001.0	
1636888270.653566	1.0	2.0	0.0	0.0	0.0	0.0	64.0	66.0	174.0	140.0	16.0	969.52	151.0	26.0	-31.0	-1006.0	
1636888270.746381	1.0	2.0	0.0	0.0	0.0	0.0	64.0	66.0	173.0	140.0	16.0	969.56	152.0	26.0	-27.0	-1001.0	
1636888270.849457	1.0	2.0	0.0	0.0	0.0	0.0	64.0	66.0	174.0	140.0	16.0	969.49	152.0	27.0	-32.0	-1008.0	
1636888270.952089	1.0	2.0	0.0	0.0	0.0	0.0	64.0	66.0	175.0	140.0	16.0	969.48	152.0	21.0	-18.0	-1026.0	
1636888271.053386	1.0	1.0	0.0	0.0	0.0	0.0	64.0	66.0	173.0	140.0	16.0	969.47	152.0	28.0	-22.0	-989.0	
1636888271.156324	1.0	1.0	0.0	0.0	0.0	0.0	64.0	66.0	172.0	140.0	16.0	969.51	152.0	36.0	-36.0	-1000.0	
1636888271.258285	1.0	1.0	0.0	0.0	0.0	0.0	64.0	66.0	173.0	140.0	16.0	969.49	152.0	48.0	-47.0	-995.0	
1636888271.357264	2.0	1.0	0.0	0.0	0.0	0.0	64.0	65.0	174.0	140.0	16.0	969.44	152.0	38.0	-27.0	-1002.0	
1636888271.462754	1.0	1.0	0.0	0.0	0.0	0.0	64.0	65.0	174.0	140.0	16.0	969.55	152.0	28.0	-17.0	-988.0	
1636888271.561235	2.0	1.0	0.0	0.0	0.0	0.0	64.0	65.0	173.0	140.0	16.0	969.51	152.0	25.0	-15.0	-985.0	
1636888271.665124	2.0	1.0	0.0	0.0	0.0	0.0	64.0	65.0	172.0	140.0	16.0	969.57	152.0	48.0	-28.0	-984.0	
1636888271.768808	2.0	1.0	0.0	0.0	0.0	0.0	64.0	65.0	172.0	140.0	16.0	969.46	153.0	15.0	-4.0	-1015.0	
1636888271.870414	2.0	0.0	0.0	0.0	0.0	0.0	64.0	65.0	173.0	140.0	16.0	969.53	153.0	37.0	-12.0	-995.0	
1636888271.922108	2.0	0.0	0.0	0.0	0.0	0.0	64.0	65.0	171.0	140.0	16.0	969.47	153.0	29.0	0.0	-999.0	
1636888272.02092	2.0	0.0	0.0	0.0	0.0	0.0	64.0	65.0	173.0	140.0	16.0	969.49	153.0	38.0	-20.0	-990.0	
1636888272.126554	1.0	0.0	0.0	0.0	0.0	0.0	64.0	65.0	172.0	140.0	16.0	969.47	153.0	24.0	-7.0	-1004.0	
1636888272.228686	1.0	0.0	0.0	0.0	0.0	0.0	64.0	65.0	170.0	140.0	16.0	969.44	153.0	30.0	-17.0	-1006.0	
1636888272.327442	1.0	0.0	0.0	0.0	0.0	0.0	63.0	65.0	171.0	140.0	16.0	969.55	153.0	38.0	-24.0	-993.0	
1636888272.432537	1.0	0.0	0.0	0.0	0.0	0.0	63.0	65.0	171.0	140.0	16.0	969.47	153.0	32.0	-22.0	-985.0	
1636888272.584394	1.0	1.0	0.0	0.0	0.0	0.0	63.0	65.0	171.0	140.0	16.0	969.45	153.0	30.0	-16.0	-978.0	
1636888272.634075	2.0	1.0	0.0	0.0	0.0	0.0	63.0	65.0	172.0	140.0	16.0	969.54	154.0	20.0	-14.0	-1003.0	
1636888272.737781	2.0	0.0	0.0	0.0	0.0	0.0	63.0	65.0	172.0	140.0	16.0	969.46	154.0	39.0	-17.0	-1018.0	
1636888272.837565	2.0	0.0	0.0	0.0	0.0	0.0	63.0	65.0	171.0	140.0	16.0	969.47	154.0	30.0	-16.0	-1005.0	
1636888272.940553	2.0	0.0	0.0	0.0	0.0	0.0	63.0	65.0	173.0	140.0	16.0	969.52	154.0	32.0	-15.0	-1021.0	
1636888273.043055	2.0	1.0	0.0	0.0	0.0	0.0	63.0	65.0	173.0	140.0	16.0	969.5	154.0	27.0	-18.0	-1005.0	
1636888273.144059	2.0	1.0	0.0	0.0	0.0	0.0	63.0	65.0	173.0	140.0	16.0	969.45	154.0	36.0	-18.0	-1006.0	
1636888273.246882	2.0	1.0	0.0	0.0	0.0	0.0	63.0	65.0	174.0	140.0	16.0	969.45	154.0	26.0	-10.0	-1001.0	
1636888273.346835	2.0	1.0	0.0	0.0	0.0	0.0	63.0	66.0	172.0	140.0	16.0	969.51	154.0	40.0	-14.0	-994.0	
1636888273.451935	2.0	0.0	0.0	0.0	0.0	0.0	63.0	66.0	171.0	140.0	16.0	969.52	154.0	22.0	-14.0	-1007.0	
1636888273.551786	2.0	0.0	0.0	0.0	0.0	0.0	63.0	66.0	172.0	140.0	16.0	969.46	154.0	30.0	-11.0	-996.0	
1636888273.653955	2.0	0.0	0.0	0.0	0.0	0.0	63.0	66.0	172.0	140.0	16.0	969.53	155.0	22.0	0.0	-1021.0	
1636888273.756899	1.0	0.0	0.0	0.0	0.0	0.0	63.0	66.0	170.0	140.0	16.0	969.55	155.0	45.0	-23.0	-1015.0	
1636888273.858387	1.0	0.0	0.0	0.0	0.0	0.0	63.0	66.0	171.0	140.0	16.0	969.52	155.0	28.0	-18.0	-1012.0	
1636888273.959209	1.0	0.0	1.0	0.0	0.0	0.0	63.0	66.0	171.0	140.0	16.0	969.6	155.0	34.0	-18.0	-1001.0	
1636888274.064715	2.0	1.0	1.0	0.0	0.0	0.0	63.0	66.0	172.0	140.0	16.0	969.55	155.0	39.0	-29.0	-984.0	
1636888274.166871	2.0	1.0	1.0	0.0	0.0	0.0	63.0	66.0	174.0	140.0	16.0	969.54	155.0	31.0	-26.0	-989.0	
1636888274.266168	2.0	1.0	0.0	0.0	0.0	0.0	63.0	66.0	173.0	140.0	16.0	969.57	155.0	32.0	-27.0	-990.0	
1636888274.369099	1.0	1.0	0.0	0.0	0.0	0.0	64.0	66.0	172.0	140.0	16.0	969.62	155.0	31.0	-31.0	-1011.0	
1636888274.471405	2.0	1.0	0.0	0.0	0.0	0.0	64.0	66.0	173.0	140.0	16.0	969.58	155.0	32.0	-37.0	-1005.0	
1636888274.571978	2.0	2.0	0.0	0.0	0.0	0.0	64.0	66.0	174.0	140.0	16.0	969.49	155.0	26.0	-43.0	-1007.0	
1636888274.673497	1.0	2.0	0.0	0.0	0.0	0.0	64.0	66.0	174.0	140.0	15.0	969.45	156.0	27.0	-27.0	-1008.0	
1636888274.77736	1.0	2.0	0.0	0.0	0.0	0.0	64.0	66.0	176.0	140.0	15.0	969.44	156.0	26.0	-33.0	-1016.0	
1636888274.880538	1.0	2.0	0.0	0.0	0.0	0.0	64.0	66.0	174.0	140.0	15.0	969.48	156.0	47.0	-29.0	-993.0	
1636888274.983482	1.0	1.0	0.0	0.0	0.0	0.0	64.0	66.0	174.0	140.0	15.0	969.52	156.0	27.0	-25.0	-1009.0	
1636888275.083965	2.0	1.0	0.0	0.0	0.0	0.0	64.0	66.0	174.0	140.0	15.0	969.46	156.0	32.0	-36.0	-998.0	
1636888275.186379	2.0	2.0	0.0	0.0	0.0	0.0	64.0	66.0	174.0	140.0	15.0	969.41	156.0	28.0	-37.0	-997.0	
1636888275.287143	2.0	2.0	0.0	0.0	0.0	0.0	64.0	66.0	175.0	140.0	15.0	969.49	156.0	40.0	-44.0	-985.0	
1636888275.393115	2.0	2.0	0.0	0.0	0.0	0.0	63.0	65.0	175.0	140.0	15.0	969.53	156.0	39.0	-41.0	-998.0	
1636888275.49274	2.0	2.0	0.0	0.0	0.0	0.0	63.0	65.0	175.0	140.0	15.0	969.5	156.0	32.0	-38.0	-1000.0	
1636888275.595989	2.0	2.0	0.0	0.0	0.0	0.0	63.0	65.0	176.0	140.0	15.0	969.52	156.0	29.0	-37.0	-991.0	
1636888275.645609	2.0	2.0	0.0	0.0	0.0	0.0	63.0	65.0	177.0	140.0	15.0	969.47	157.0	32.0	-45.0	-1006.0	
1636888275.746545	1.0	2.0	0.0	0.0	0.0	0.0	63.0	65.0	176.0	140.0	15.0	969.46	157.0	30.0	-44.0	-996.0	
1636888275.847539	1.0	2.0	0.0	0.0	0.0	0.0	63.0	65.0	175.0	140.0	15.0	969.48	157.0	22.0	-34.0	-1008.0	
1636888275.951181	1.0	2.0	0.0	0.0	0.0	0.0	63.0	65.0	173.0	140.0	15.0	969.46	157.0	24.0	-47.0	-1008.0	
1636888276.050245	1.0	2.0	0.0	0.0	0.0	0.0	63.0	65.0	175.0	140.0	15.0	969.43	157.0	11.0	-26.0	-1012.0	
1636888276.153599	1.0	2.0	0.0	0.0	0.0	0.0	63.0	65.0	176.0	140.0	15.0	969.52	157.0	4.0	-23.0	-1016.0	
1636888276.256826	1.0	2.0	0.0	0.0	0.0	0.0	63.0	65.0	174.0	140.0	15.0	969.51	157.0	15.0	-15.0	-1000.0	
1636888276.359297	1.0	1.0	0.0	0.0	0.0	0.0	63.0	66.0	174.0	140.0	15.0	969.43	157.0	20.0	-24.0	-1002.0	
1636888276.461155	1.0	1.0	0.0	0.0	0.0	0.0	63.0	66.0	172.0	140.0	15.0	969.53	157.0	16.0	-22.0	-995.0	
1636888276.562814	0.0	1.0	0.0	0.0	0.0	0.0	63.0	66.0	170.0	140.0	15.0	969.51	157.0	17.0	-29.0	-981.0	
1636888276.665232	0.0	1.0	0.0	0.0	0.0	0.0	63.0	66.0	172.0	140.0	15.0	969.47	158.0	29.0	-35.0	-1011.0	
1636888276.766985	0.0	1.0	0.0	0.0	0.0	0.0	63.0	66.0	170.0	140.0	15.0	969.49	158.0	21.0	-39.0	-1001.0	
1636888276.868294	0.0	1.0	0.0	0.0	0.0	0.0	63.0	66.0	171.0	140.0	15.0	969.51	158.0	13.0	-33.0	-1002.0	
1636888276.968124	0.0	2.0	0.0	0.0	0.0	0.0	63.0	66.0	172.0	140.0	15.0	969.44	158.0	12.0	-30.0	-1002.0	
1636888277.073907	0.0	1.0	0.0	0.0	0.0	0.0	63.0	66.0	172.0	140.0	15.0	969.46	158.0	8.0	-34.0	-1007.0	
1636888277.175205	0.0	1.0	0.0	0.0	0.0	0.0	63.0	66.0	171.0	140.0	15.0	969.39	158.0	12.0	-40.0	-1012.0	
1636888277.274742	0.0	2.0	0.0	0.0	0.0	0.0	63.0	66.0	171.0	140.0	15.0	969.44	158.0	10.0	-36.0	-997.0	
1636888277.377857	0.0	1.0	0.0	0.0	0.0	0.0	63.0	65.0	172.0	140.0	15.0	969.44	158.0	20.0	-33.0	-983.0	
1636888277.478404	0.0	1.0	0.0	0.0	0.0	0.0	63.0	65.0	171.0	140.0	15.0	969.47	158.0	7.0	-42.0	-988.0	
1636888277.580104	0.0	1.0	0.0	0.0	0.0	0.0	63.0	65.0	169.0	140.0	15.0	969.46	158.0	16.0	-42.0	-986.0	
1636888277.684458	0.0	2.0	0.0	0.0	0.0	0.0	63.0	65.0	171.0	140.0	15.0	969.44	159.0	18.0	-48.0	-1023.0	
1636888277.787615	0.0	2.0	0.0	0.0	0.0	0.0	63.0	65.0	171.0	140.0	15.0	969.5	159.0	10.0	-37.0	-988.0	
1636888277.889555	0.0	2.0	0.0	0.0	0.0	0.0	63.0	65.0	172.0	140.0	15.0	969.54	159.0	17.0	-38.0	-1006.0	
1636888277.989888	0.0	2.0	0.0	0.0	0.0	0.0	63.0	65.0	171.0	140.0	15.0	969.49	159.0	29.0	-51.0	-997.0	
1636888278.093709	1.0	2.0	0.0	0.0	0.0	0.0	63.0	65.0	173.0	140.0	15.0	969.46	159.0	19.0	-38.0	-1012.0	
1636888278.191733	1.0	2.0	0.0	0.0	0.0	0.0	63.0	65.0	170.0	140.0	15.0	969.37	159.0	40.0	-38.0	-995.0	
1636888278.296593	2.0	2.0	0.0	0.0	0.0	0.0	63.0	65.0	171.0	140.0	15.0	969.47	159.0	41.0	-38.0	-996.0	
1636888278.39829	2.0	2.0	0.0	0.0	0.0	0.0	63.0	65.0	171.0	140.0	15.0	969.52	159.0	45.0	-45.0	-1015.0	
1636888278.500063	2.0	2.0	0.0	0.0	0.0	0.0	63.0	65.0	172.0	140.0	15.0	969.48	159.0	22.0	-31.0	-1006.0	
1636888278.600916	3.0	1.0	0.0	0.0	0.0	0.0	63.0	65.0	173.0	140.0	15.0	969.54	159.0	37.0	-44.0	-1007.0	
1636888278.703208	2.0	1.0	0.0	0.0	0.0	0.0	63.0	65.0	173.0	140.0	15.0	969.52	160.0	30.0	-25.0	-1002.0	
1636888278.806753	2.0	1.0	0.0	0.0	0.0	0.0	63.0	65.0	173.0	140.0	15.0	969.51	160.0	25.0	-46.0	-1000.0	
1636888278.906241	2.0	2.0	0.0	0.0	0.0	0.0	63.0	65.0	173.0	140.0	15.0	969.53	160.0	30.0	-43.0	-990.0	
1636888279.007455	2.0	2.0	0.0	0.0	0.0	0.0	63.0	65.0	173.0	140.0	15.0	969.54	160.0	38.0	-54.0	-996.0	
1636888279.109993	2.0	1.0	0.0	0.0	0.0	0.0	63.0	65.0	175.0	140.0	15.0	969.55	160.0	23.0	-39.0	-999.0	
1636888279.21175	2.0	2.0	0.0	0.0	0.0	0.0	63.0	65.0	178.0	140.0	15.0	969.54	160.0	28.0	-25.0	-983.0	
1636888279.314723	2.0	2.0	0.0	0.0	0.0	0.0	63.0	65.0	175.0	140.0	15.0	969.53	160.0	34.0	-45.0	-1006.0	
1636888279.416611	2.0	2.0	0.0	0.0	0.0	0.0	63.0	66.0	174.0	140.0	15.0	969.49	160.0	33.0	-47.0	-988.0	
1636888279.518528	3.0	2.0	0.0	0.0	0.0	0.0	63.0	66.0	175.0	140.0	15.0	969.48	160.0	43.0	-50.0	-992.0	
1636888279.619936	2.0	3.0	0.0	0.0	0.0	0.0	63.0	66.0	177.0	140.0	15.0	969.51	160.0	27.0	-32.0	-1014.0	
1636888279.72379	2.0	2.0	0.0	0.0	0.0	0.0	63.0	66.0	178.0	140.0	15.0	969.54	161.0	42.0	-44.0	-997.0	
1636888279.827274	2.0	2.0	0.0	0.0	0.0	0.0	63.0	66.0	175.0	140.0	15.0	969.51	161.0	36.0	-41.0	-998.0	
1636888279.927159	2.0	2.0	0.0	0.0	0.0	0.0	63.0	66.0	175.0	140.0	15.0	969.57	161.0	37.0	-31.0	-988.0	
1636888279.980534	2.0	2.0	0.0	0.0	0.0	0.0	63.0	66.0	177.0	140.0	15.0	969.47	161.0	30.0	-33.0	-1004.0	
1636888280.080969	2.0	2.0	0.0	0.0	0.0	0.0	63.0	66.0	176.0	140.0	15.0	969.54	161.0	52.0	-46.0	-985.0	
1636888280.183053	2.0	1.0	0.0	0.0	0.0	0.0	63.0	66.0	177.0	140.0	15.0	969.58	161.0	49.0	-37.0	-991.0	
1636888280.286393	2.0	1.0	0.0	0.0	0.0	0.0	63.0	66.0	173.0	140.0	15.0	969.47	161.0	48.0	-40.0	-994.0	
1636888280.384939	2.0	2.0	0.0	0.0	0.0	0.0	63.0	66.0	175.0	140.0	15.0	969.54	161.0	43.0	-32.0	-996.0	
1636888280.490321	2.0	2.0	0.0	0.0	0.0	0.0	63.0	66.0	176.0	140.0	15.0	969.53	161.0	31.0	-33.0	-1000.0	
1636888280.589337	2.0	1.0	0.0	0.0	0.0	0.0	63.0	66.0	173.0	140.0	15.0	969.55	161.0	32.0	-40.0	-994.0	
1636888280.694122	2.0	1.0	0.0	0.0	0.0	0.0	63.0	66.0	173.0	140.0	15.0	969.46	162.0	37.0	-40.0	-995.0	
1636888280.792815	2.0	2.0	0.0	0.0	0.0	0.0	63.0	66.0	173.0	140.0	15.0	969.41	162.0	32.0	-40.0	-1000.0	
1636888280.896073	2.0	1.0	0.0	0.0	0.0	0.0	63.0	66.0	174.0	140.0	15.0	969.45	162.0	35.0	-45.0	-1008.0	
1636888281.000256	1.0	2.0	0.0	0.0	0.0	0.0	63.0	66.0	172.0	140.0	15.0	969.44	162.0	22.0	-39.0	-1012.0	
1636888281.099035	1.0	2.0	0.0	0.0	0.0	0.0	63.0	66.0	172.0	140.0	15.0	969.44	162.0	25.0	-38.0	-1007.0	
1636888281.203277	1.0	2.0	0.0	0.0	0.0	0.0	63.0	66.0	172.0	140.0	15.0	969.47	162.0	34.0	-42.0	-1007.0	
1636888281.304831	1.0	2.0	0.0	0.0	0.0	0.0	63.0	66.0	172.0	140.0	15.0	969.44	162.0	30.0	-29.0	-999.0	
1636888281.407159	1.0	2.0	0.0	0.0	0.0	0.0	64.0	66.0	171.0	140.0	15.0	969.4	162.0	24.0	-29.0	-994.0	
1636888281.510362	1.0	2.0	0.0	0.0	0.0	0.0	64.0	66.0	171.0	140.0	15.0	969.46	162.0	28.0	-26.0	-1004.0	
1636888281.609011	2.0	1.0	0.0	0.0	0.0	0.0	64.0	66.0	172.0	140.0	15.0	969.43	162.0	31.0	-30.0	-1000.0	
1636888281.73975	1.0	1.0	0.0	0.0	0.0	0.0	64.0	66.0	173.0	140.0	15.0	969.35	163.0	50.0	-37.0	-988.0	
1636888281.813815	2.0	1.0	0.0	0.0	0.0	0.0	64.0	66.0	172.0	140.0	15.0	969.46	163.0	39.0	-37.0	-1012.0	
1636888281.918624	2.0	1.0	0.0	0.0	0.0	0.0	64.0	66.0	171.0	140.0	15.0	969.42	163.0	35.0	-22.0	-1013.0	
1636888282.017341	2.0	1.0	0.0	0.0	0.0	0.0	64.0	66.0	172.0	140.0	15.0	969.47	163.0	34.0	-25.0	-998.0	
1636888282.120431	2.0	1.0	0.0	0.0	0.0	0.0	64.0	66.0	173.0	140.0	15.0	969.5	163.0	38.0	-33.0	-994.0	
1636888282.223382	2.0	1.0	0.0	0.0	0.0	0.0	64.0	66.0	172.0	140.0	15.0	969.44	163.0	43.0	-38.0	-980.0	
1636888282.325479	2.0	2.0	0.0	0.0	0.0	0.0	64.0	66.0	172.0	140.0	15.0	969.4	163.0	50.0	-34.0	-991.0	
1636888282.426888	2.0	2.0	0.0	0.0	0.0	0.0	63.0	65.0	173.0	140.0	15.0	969.38	163.0	48.0	-23.0	-1001.0	
1636888282.529249	2.0	1.0	0.0	0.0	0.0	0.0	63.0	65.0	173.0	140.0	15.0	969.46	163.0	32.0	-26.0	-1001.0	
1636888282.632598	2.0	1.0	0.0	0.0	0.0	0.0	63.0	65.0	172.0	140.0	14.0	969.51	163.0	48.0	-35.0	-1004.0	
1636888282.734384	2.0	1.0	0.0	0.0	0.0	0.0	63.0	65.0	172.0	140.0	14.0	969.55	164.0	56.0	-35.0	-988.0	
1636888282.837173	2.0	1.0	0.0	0.0	0.0	0.0	63.0	65.0	174.0	140.0	14.0	969.42	164.0	44.0	-25.0	-980.0	
1636888282.938702	2.0	1.0	0.0	0.0	0.0	0.0	63.0	65.0	173.0	140.0	14.0	969.52	164.0	49.0	-34.0	-990.0	
1636888283.040374	2.0	1.0	0.0	0.0	0.0	0.0	63.0	65.0	172.0	140.0	14.0	969.39	164.0	49.0	-33.0	-993.0	
1636888283.140653	2.0	1.0	0.0	0.0	0.0	0.0	63.0	65.0	174.0	140.0	14.0	969.4	164.0	35.0	-25.0	-996.0	
1636888283.241444	2.0	1.0	0.0	0.0	0.0	0.0	63.0	65.0	173.0	140.0	14.0	969.5	164.0	58.0	-41.0	-997.0	
1636888283.344186	2.0	1.0	0.0	0.0	0.0	0.0	63.0	65.0	172.0	140.0	14.0	969.47	164.0	47.0	-22.0	-1006.0	
1636888283.447609	2.0	1.0	0.0	0.0	0.0	0.0	63.0	65.0	172.0	140.0	14.0	969.42	164.0	50.0	-30.0	-978.0	
1636888283.550382	2.0	1.0	0.0	0.0	0.0	0.0	63.0	65.0	173.0	140.0	14.0	969.49	164.0	60.0	-33.0	-988.0	
1636888283.651856	2.0	1.0	0.0	0.0	0.0	0.0	63.0	65.0	173.0	140.0	14.0	969.37	164.0	58.0	-36.0	-988.0	
1636888283.755517	2.0	1.0	0.0	0.0	0.0	0.0	63.0	65.0	172.0	140.0	14.0	969.45	165.0	50.0	-33.0	-991.0	
1636888283.857477	2.0	1.0	0.0	0.0	0.0	0.0	63.0	65.0	172.0	140.0	14.0	969.48	165.0	40.0	-25.0	-1018.0	
1636888283.959849	2.0	1.0	0.0	0.0	0.0	0.0	63.0	65.0	171.0	140.0	14.0	969.39	165.0	36.0	-26.0	-1000.0	
1636888284.061863	2.0	1.0	0.0	0.0	0.0	0.0	63.0	65.0	170.0	140.0	14.0	969.48	165.0	47.0	-40.0	-997.0	
1636888284.109806	2.0	1.0	0.0	0.0	0.0	0.0	63.0	65.0	171.0	140.0	14.0	969.43	165.0	43.0	-39.0	-999.0	
1636888284.215156	2.0	1.0	0.0	0.0	0.0	0.0	63.0	65.0	171.0	140.0	14.0	969.47	165.0	49.0	-38.0	-988.0	
1636888284.316819	2.0	1.0	0.0	0.0	0.0	0.0	63.0	65.0	170.0	140.0	14.0	969.4	165.0	41.0	-33.0	-993.0	
1636888284.417313	2.0	1.0	0.0	0.0	0.0	0.0	63.0	65.0	170.0	140.0	14.0	969.5	165.0	17.0	-8.0	-997.0	
1636888284.519754	1.0	1.0	0.0	0.0	0.0	0.0	63.0	65.0	170.0	140.0	14.0	969.44	165.0	38.0	-14.0	-987.0	
1636888284.62213	1.0	1.0	0.0	0.0	0.0	0.0	63.0	65.0	168.0	140.0	14.0	969.48	165.0	40.0	-15.0	-1001.0	
1636888284.722243	1.0	1.0	0.0	0.0	0.0	0.0	63.0	65.0	168.0	140.0	14.0	969.49	166.0	28.0	-11.0	-981.0	
1636888284.826519	1.0	0.0	0.0	0.0	0.0	0.0	63.0	65.0	169.0	140.0	14.0	969.51	166.0	27.0	-9.0	-999.0	
1636888284.926213	1.0	0.0	0.0	0.0	0.0	0.0	63.0	65.0	169.0	140.0	14.0	969.48	166.0	41.0	-23.0	-993.0	
1636888285.028199	1.0	0.0	0.0	0.0	0.0	0.0	63.0	65.0	168.0	140.0	14.0	969.48	166.0	36.0	-29.0	-1014.0	
1636888285.129756	1.0	1.0	0.0	0.0	0.0	0.0	63.0	65.0	169.0	140.0	14.0	969.49	166.0	36.0	-40.0	-1014.0	
1636888285.234263	1.0	1.0	0.0	0.0	0.0	0.0	63.0	65.0	169.0	140.0	14.0	969.5	166.0	16.0	-14.0	-1002.0	
1636888285.337292	1.0	1.0	0.0	0.0	0.0	0.0	63.0	65.0	169.0	140.0	14.0	969.5	166.0	21.0	-15.0	-994.0	
1636888285.438396	1.0	1.0	0.0	0.0	0.0	0.0	62.0	65.0	170.0	140.0	14.0	969.42	166.0	27.0	-11.0	-997.0	
1636888285.538935	1.0	1.0	0.0	0.0	0.0	0.0	62.0	65.0	169.0	140.0	14.0	969.54	166.0	36.0	-23.0	-989.0	
1636888285.642144	1.0	1.0	0.0	0.0	0.0	0.0	62.0	65.0	168.0	140.0	14.0	969.51	166.0	34.0	-34.0	-988.0	
1636888285.74373	1.0	0.0	0.0	0.0	0.0	0.0	62.0	65.0	169.0	140.0	14.0	969.53	167.0	34.0	-14.0	-1006.0	
1636888285.845022	1.0	1.0	0.0	0.0	0.0	0.0	62.0	65.0	168.0	140.0	14.0	969.51	167.0	40.0	-15.0	-994.0	
1636888285.946684	1.0	0.0	0.0	0.0	0.0	0.0	62.0	65.0	169.0	140.0	14.0	969.48	167.0	37.0	-19.0	-1001.0	
1636888286.04818	1.0	0.0	0.0	0.0	0.0	0.0	62.0	65.0	169.0	140.0	14.0	969.57	167.0	16.0	1.0	-992.0	
1636888286.151709	1.0	0.0	0.0	0.0	0.0	0.0	62.0	65.0	169.0	140.0	14.0	969.56	167.0	31.0	-17.0	-991.0	
1636888286.251569	1.0	0.0	0.0	0.0	0.0	0.0	62.0	65.0	169.0	140.0	14.0	969.47	167.0	19.0	-13.0	-1010.0	
1636888286.357271	1.0	0.0	0.0	0.0	0.0	0.0	62.0	65.0	170.0	140.0	14.0	969.61	167.0	34.0	-23.0	-986.0	
1636888286.457831	1.0	0.0	0.0	0.0	0.0	0.0	63.0	65.0	170.0	140.0	14.0	969.48	167.0	23.0	-17.0	-995.0	
1636888286.560155	1.0	1.0	0.0	0.0	0.0	0.0	63.0	65.0	169.0	140.0	14.0	969.65	167.0	26.0	-33.0	-1004.0	
1636888286.66118	1.0	0.0	0.0	0.0	0.0	0.0	63.0	65.0	169.0	140.0	14.0	969.52	168.0	3.0	-15.0	-996.0	
1636888286.764981	0.0	1.0	0.0	0.0	0.0	0.0	63.0	65.0	169.0	140.0	14.0	969.5	168.0	9.0	-4.0	-1013.0	
1636888286.867811	0.0	0.0	0.0	0.0	0.0	0.0	63.0	65.0	169.0	140.0	14.0	969.52	168.0	6.0	-15.0	-1006.0	
1636888286.967674	0.0	1.0	0.0	0.0	0.0	0.0	63.0	65.0	169.0	140.0	14.0	969.6	168.0	-1.0	-8.0	-1006.0	
1636888287.069048	0.0	1.0	0.0	0.0	0.0	0.0	63.0	65.0	170.0	140.0	14.0	969.6	168.0	30.0	-32.0	-1000.0	
1636888287.171947	0.0	1.0	0.0	0.0	0.0	0.0	63.0	65.0	169.0	140.0	14.0	969.6	168.0	9.0	-18.0	-1003.0	
1636888287.271822	0.0	1.0	0.0	0.0	0.0	0.0	63.0	65.0	169.0	140.0	14.0	969.52	168.0	24.0	-17.0	-1000.0	
1636888287.373104	0.0	1.0	0.0	0.0	0.0	0.0	63.0	65.0	169.0	140.0	14.0	969.51	168.0	19.0	-22.0	-996.0	
1636888287.477811	0.0	1.0	0.0	0.0	0.0	0.0	63.0	65.0	169.0	140.0	14.0	969.54	168.0	19.0	-18.0	-992.0	
1636888287.580792	0.0	1.0	0.0	0.0	0.0	0.0	63.0	65.0	169.0	140.0	14.0	969.48	168.0	20.0	5.0	-1007.0	
1636888287.682677	0.0	0.0	0.0	0.0	0.0	0.0	63.0	65.0	169.0	140.0	14.0	969.55	169.0	23.0	-17.0	-1012.0	
1636888287.784411	0.0	0.0	0.0	0.0	0.0	0.0	63.0	65.0	169.0	140.0	14.0	969.53	169.0	15.0	13.0	-1006.0	
1636888287.886123	0.0	0.0	0.0	0.0	0.0	0.0	63.0	65.0	169.0	140.0	14.0	969.55	169.0	6.0	-3.0	-1007.0	
1636888287.988989	0.0	0.0	0.0	0.0	0.0	0.0	63.0	65.0	170.0	140.0	14.0	969.64	169.0	6.0	10.0	-993.0	
1636888288.090886	0.0	0.0	0.0	0.0	0.0	0.0	63.0	65.0	168.0	140.0	14.0	969.53	169.0	19.0	-4.0	-1001.0	
1636888288.139676	0.0	0.0	0.0	0.0	0.0	0.0	63.0	65.0	168.0	140.0	14.0	969.53	169.0	26.0	-14.0	-989.0	
1636888288.241481	1.0	0.0	0.0	0.0	0.0	0.0	63.0	65.0	170.0	140.0	14.0	969.5	169.0	30.0	-14.0	-983.0	
1636888288.345874	1.0	0.0	0.0	0.0	0.0	0.0	63.0	65.0	170.0	140.0	14.0	969.53	169.0	19.0	-2.0	-1003.0	
1636888288.498401	1.0	0.0	0.0	0.0	0.0	0.0	62.0	65.0	170.0	140.0	14.0	969.62	169.0	13.0	4.0	-995.0	
1636888288.603687	0.0	0.0	0.0	0.0	0.0	0.0	62.0	65.0	171.0	140.0	14.0	969.56	169.0	11.0	-4.0	-984.0	
1636888288.705116	0.0	0.0	0.0	0.0	0.0	0.0	62.0	65.0	170.0	140.0	14.0	969.54	170.0	32.0	-16.0	-999.0	
1636888288.752499	1.0	0.0	0.0	0.0	0.0	0.0	62.0	65.0	170.0	140.0	14.0	969.46	170.0	23.0	-14.0	-1008.0	
1636888288.855014	1.0	0.0	0.0	0.0	0.0	0.0	62.0	65.0	170.0	140.0	14.0	969.57	170.0	6.0	0.0	-982.0	
1636888288.957909	1.0	0.0	0.0	0.0	0.0	0.0	62.0	65.0	171.0	140.0	14.0	969.62	170.0	8.0	-6.0	-987.0	
1636888289.059118	1.0	0.0	0.0	0.0	0.0	0.0	62.0	65.0	171.0	140.0	14.0	969.66	170.0	17.0	-16.0	-999.0	
1636888289.160241	1.0	1.0	0.0	0.0	0.0	0.0	62.0	65.0	172.0	140.0	14.0	969.54	170.0	-4.0	-2.0	-1011.0	
1636888289.260458	1.0	1.0	0.0	0.0	0.0	0.0	62.0	65.0	171.0	140.0	14.0	969.58	170.0	10.0	-15.0	-997.0	
1636888289.365327	1.0	1.0	0.0	0.0	0.0	0.0	62.0	65.0	171.0	140.0	14.0	969.57	170.0	7.0	-18.0	-995.0	
1636888289.466439	1.0	1.0	0.0	0.0	0.0	0.0	63.0	65.0	171.0	140.0	14.0	969.55	170.0	30.0	-25.0	-986.0	
1636888289.568163	1.0	1.0	0.0	0.0	0.0	0.0	63.0	65.0	171.0	140.0	14.0	969.52	170.0	13.0	-7.0	-1002.0	
1636888289.671959	1.0	1.0	0.0	0.0	0.0	0.0	63.0	65.0	171.0	140.0	13.0	969.53	171.0	19.0	-25.0	-994.0	
1636888289.770318	1.0	1.0	0.0	0.0	0.0	0.0	63.0	65.0	171.0	140.0	13.0	969.48	171.0	16.0	-12.0	-1006.0	
1636888289.875642	1.0	1.0	0.0	0.0	0.0	0.0	63.0	65.0	171.0	140.0	13.0	969.48	171.0	25.0	-21.0	-989.0	
1636888289.976904	1.0	1.0	0.0	0.0	0.0	0.0	63.0	65.0	170.0	140.0	13.0	969.49	171.0	23.0	-32.0	-991.0	
1636888290.079839	1.0	1.0	0.0	0.0	0.0	0.0	63.0	65.0	169.0	140.0	13.0	969.64	171.0	28.0	-24.0	-1005.0	
1636888290.181922	1.0	1.0	0.0	0.0	0.0	0.0	63.0	65.0	170.0	140.0	13.0	969.66	171.0	21.0	-30.0	-995.0	
1636888290.281524	1.0	1.0	0.0	0.0	0.0	0.0	63.0	65.0	171.0	140.0	13.0	969.61	171.0	22.0	-31.0	-998.0	
1636888290.384518	1.0	1.0	0.0	0.0	0.0	0.0	63.0	65.0	170.0	140.0	13.0	969.55	171.0	19.0	-26.0	-1011.0	
1636888290.484385	1.0	1.0	0.0	0.0	0.0	0.0	63.0	65.0	171.0	140.0	13.0	969.5	171.0	20.0	-11.0	-1009.0	
1636888290.586467	1.0	1.0	0.0	0.0	0.0	0.0	63.0	65.0	171.0	140.0	13.0	969.5	171.0	20.0	-11.0	-1009.0	
1636888290.586467	1.0	1.0	0.0	0.0	0.0	0.0	63.0	65.0	171.0	140.0	13.0	969.5	171.0	37.0	-16.0	-994.0	
1636888290.689072	1.0	1.0	0.0	0.0	0.0	0.0	63.0	65.0	171.0	140.0	13.0	969.62	172.0	21.0	-29.0	-1010.0	
1636888290.792613	1.0	1.0	0.0	0.0	0.0	0.0	63.0	65.0	173.0	140.0	13.0	969.61	172.0	22.0	-21.0	-991.0	
1636888290.894148	1.0	1.0	0.0	0.0	0.0	0.0	63.0	65.0	172.0	140.0	13.0	969.56	172.0	27.0	-32.0	-1007.0	
1636888290.997012	1.0	1.0	0.0	0.0	0.0	0.0	63.0	65.0	173.0	140.0	13.0	969.62	172.0	43.0	-37.0	-997.0	
1636888291.099579	1.0	2.0	0.0	0.0	0.0	0.0	63.0	65.0	173.0	140.0	13.0	969.65	172.0	21.0	0.0	-994.0	
1636888291.199458	1.0	2.0	0.0	0.0	0.0	0.0	63.0	65.0	174.0	140.0	13.0	969.59	172.0	23.0	-6.0	-963.0	
1636888291.300783	1.0	1.0	0.0	0.0	0.0	0.0	63.0	65.0	171.0	140.0	13.0	969.7	172.0	31.0	-14.0	-977.0	
1636888291.406138	1.0	1.0	0.0	0.0	0.0	0.0	63.0	65.0	173.0	140.0	13.0	969.69	172.0	37.0	-9.0	-1000.0	
1636888291.50573	2.0	0.0	0.0	0.0	0.0	0.0	63.0	65.0	172.0	140.0	13.0	969.78	172.0	18.0	-5.0	-974.0	
1636888291.609567	2.0	0.0	0.0	0.0	0.0	0.0	63.0	65.0	172.0	140.0	13.0	969.63	172.0	50.0	-26.0	-1024.0	
1636888291.711832	2.0	0.0	0.0	0.0	0.0	0.0	63.0	65.0	172.0	140.0	13.0	969.57	173.0	46.0	-17.0	-1013.0	
1636888291.812115	2.0	0.0	-1.0	0.0	0.0	0.0	63.0	65.0	171.0	140.0	13.0	969.6	173.0	29.0	-8.0	-1034.0	
1636888291.915493	1.0	1.0	-4.0	0.0	0.0	0.0	63.0	65.0	171.0	140.0	13.0	969.43	173.0	48.0	-15.0	-1028.0	
1636888292.017887	2.0	1.0	-8.0	0.0	0.0	0.0	63.0	65.0	173.0	140.0	13.0	969.62	173.0	30.0	-2.0	-998.0	
1636888292.118425	2.0	0.0	-10.0	0.0	0.0	0.0	63.0	65.0	171.0	140.0	13.0	969.5	173.0	38.0	0.0	-997.0	
1636888292.218292	2.0	0.0	-10.0	0.0	0.0	0.0	63.0	65.0	173.0	140.0	13.0	969.52	173.0	35.0	0.0	-1002.0	
1636888292.323509	2.0	-1.0	-7.0	0.0	0.0	0.0	63.0	65.0	174.0	140.0	13.0	969.52	173.0	62.0	0.0	-1001.0	
1636888292.375059	3.0	0.0	-1.0	0.0	0.0	0.0	63.0	65.0	175.0	140.0	13.0	969.47	173.0	46.0	-2.0	-995.0	
1636888292.527138	3.0	-1.0	2.0	0.0	0.0	0.0	62.0	65.0	173.0	140.0	13.0	969.53	173.0	62.0	-17.0	-1008.0	
1636888292.577177	2.0	0.0	2.0	0.0	0.0	0.0	62.0	65.0	173.0	140.0	13.0	969.56	173.0	14.0	29.0	-974.0	
1636888292.679832	2.0	0.0	2.0	0.0	0.0	0.0	62.0	65.0	172.0	140.0	13.0	969.58	174.0	26.0	-2.0	-1031.0	
1636888292.779695	1.0	0.0	2.0	0.0	0.0	0.0	62.0	65.0	171.0	140.0	13.0	969.63	174.0	37.0	-17.0	-1009.0	
1636888292.884436	1.0	0.0	1.0	0.0	0.0	0.0	62.0	65.0	171.0	140.0	13.0	969.57	174.0	40.0	-15.0	-1008.0	
1636888292.985087	1.0	0.0	1.0	0.0	0.0	0.0	62.0	65.0	171.0	140.0	13.0	969.58	174.0	26.0	0.0	-975.0	
1636888293.088045	1.0	0.0	1.0	0.0	0.0	0.0	62.0	65.0	173.0	140.0	13.0	969.54	174.0	44.0	-11.0	-983.0	
1636888293.189367	1.0	0.0	1.0	0.0	0.0	0.0	62.0	65.0	171.0	140.0	13.0	969.64	174.0	35.0	5.0	-989.0	
1636888293.292365	1.0	0.0	1.0	0.0	0.0	0.0	62.0	65.0	171.0	140.0	13.0	969.62	174.0	17.0	3.0	-997.0	
1636888293.394193	1.0	0.0	1.0	0.0	0.0	0.0	62.0	65.0	171.0	140.0	13.0	969.64	174.0	33.0	-13.0	-984.0	
1636888293.494449	1.0	0.0	1.0	0.0	0.0	0.0	62.0	64.0	172.0	140.0	13.0	969.54	174.0	46.0	-19.0	-978.0	
1636888293.596245	2.0	0.0	1.0	0.0	0.0	0.0	62.0	64.0	172.0	140.0	12.0	969.59	174.0	12.0	6.0	-995.0	
1636888293.700653	2.0	0.0	1.0	0.0	0.0	0.0	62.0	64.0	172.0	140.0	12.0	969.57	175.0	20.0	0.0	-1009.0	
1636888293.798858	2.0	0.0	1.0	0.0	0.0	0.0	62.0	64.0	172.0	140.0	12.0	969.68	175.0	24.0	-4.0	-1009.0	
1636888293.90501	1.0	0.0	1.0	0.0	0.0	0.0	62.0	64.0	171.0	140.0	12.0	969.54	175.0	45.0	-6.0	-1011.0	
1636888294.005099	1.0	0.0	1.0	0.0	0.0	0.0	62.0	64.0	171.0	140.0	12.0	969.54	175.0	28.0	9.0	-1002.0	
1636888294.106823	2.0	0.0	1.0	0.0	0.0	0.0	62.0	64.0	172.0	140.0	12.0	969.58	175.0	19.0	-7.0	-1012.0	
1636888294.207933	2.0	0.0	1.0	0.0	0.0	0.0	62.0	64.0	172.0	140.0	12.0	969.65	175.0	47.0	-14.0	-992.0	
1636888294.310972	1.0	0.0	1.0	0.0	0.0	0.0	62.0	64.0	172.0	140.0	12.0	969.55	175.0	35.0	-12.0	-1007.0	
1636888294.414779	2.0	1.0	1.0	0.0	0.0	0.0	62.0	64.0	172.0	140.0	12.0	969.55	175.0	38.0	-14.0	-1007.0	
1636888294.518381	2.0	0.0	1.0	0.0	0.0	0.0	63.0	65.0	174.0	140.0	12.0	969.62	175.0	31.0	-20.0	-997.0	
1636888294.615195	2.0	0.0	1.0	0.0	0.0	0.0	63.0	65.0	175.0	140.0	12.0	969.54	175.0	21.0	-4.0	-1007.0	
1636888294.720771	1.0	0.0	1.0	0.0	0.0	0.0	63.0	65.0	173.0	140.0	12.0	969.55	176.0	17.0	-15.0	-998.0	
1636888294.821183	1.0	0.0	1.0	0.0	0.0	0.0	63.0	65.0	173.0	140.0	12.0	969.55	176.0	34.0	-16.0	-1008.0	
1636888294.923016	1.0	0.0	1.0	0.0	0.0	0.0	63.0	65.0	172.0	140.0	12.0	969.57	176.0	9.0	-12.0	-990.0	
1636888295.023905	1.0	0.0	0.0	0.0	0.0	0.0	63.0	65.0	174.0	140.0	12.0	969.63	176.0	7.0	-17.0	-1014.0	
1636888295.127765	1.0	0.0	0.0	0.0	0.0	0.0	63.0	65.0	173.0	140.0	12.0	969.61	176.0	39.0	-17.0	-983.0	
1636888295.23027	1.0	1.0	0.0	0.0	0.0	0.0	63.0	65.0	175.0	140.0	12.0	969.59	176.0	25.0	-16.0	-980.0	
1636888295.330109	1.0	1.0	0.0	0.0	0.0	0.0	63.0	65.0	175.0	140.0	12.0	969.59	176.0	29.0	-13.0	-982.0	
1636888295.433526	2.0	1.0	0.0	0.0	0.0	0.0	63.0	65.0	174.0	140.0	12.0	969.66	176.0	26.0	-12.0	-981.0	
1636888295.533979	1.0	1.0	0.0	0.0	0.0	0.0	63.0	65.0	176.0	140.0	12.0	969.6	176.0	31.0	-26.0	-983.0	
1636888295.638492	1.0	1.0	0.0	0.0	0.0	0.0	63.0	65.0	173.0	140.0	11.0	969.62	176.0	30.0	-17.0	-1000.0	
1636888295.739179	1.0	1.0	0.0	0.0	0.0	0.0	63.0	65.0	173.0	140.0	11.0	969.63	177.0	16.0	-18.0	-982.0	
1636888295.84086	1.0	1.0	0.0	0.0	0.0	0.0	63.0	65.0	171.0	140.0	11.0	969.64	177.0	20.0	-4.0	-991.0	
1636888295.944134	1.0	1.0	0.0	0.0	0.0	0.0	63.0	65.0	173.0	140.0	11.0	969.64	177.0	-4.0	-13.0	-1008.0	
1636888296.043637	1.0	0.0	0.0	0.0	0.0	0.0	63.0	65.0	171.0	140.0	11.0	969.58	177.0	17.0	-2.0	-1030.0	
1636888296.148453	1.0	0.0	0.0	0.0	0.0	0.0	63.0	65.0	171.0	140.0	11.0	969.54	177.0	34.0	-16.0	-1027.0	
1636888296.249616	1.0	0.0	0.0	0.0	0.0	0.0	63.0	65.0	171.0	140.0	11.0	969.47	177.0	28.0	-29.0	-996.0	
1636888296.352019	0.0	0.0	0.0	0.0	0.0	0.0	63.0	65.0	171.0	140.0	11.0	969.69	177.0	26.0	-14.0	-1019.0	
1636888296.40336	1.0	0.0	0.0	0.0	0.0	0.0	63.0	65.0	171.0	140.0	11.0	969.6	177.0	29.0	-18.0	-1013.0	
1636888296.556293	1.0	0.0	0.0	0.0	0.0	0.0	62.0	65.0	172.0	140.0	11.0	969.49	177.0	21.0	-21.0	-1000.0	
1636888296.656155	1.0	0.0	0.0	0.0	0.0	0.0	62.0	65.0	174.0	140.0	11.0	969.44	177.0	42.0	-23.0	-975.0	
1636888296.760016	1.0	0.0	1.0	0.0	0.0	0.0	62.0	65.0	175.0	140.0	11.0	969.54	178.0	10.0	-37.0	-1003.0	
1636888296.860621	2.0	1.0	1.0	0.0	0.0	0.0	62.0	65.0	177.0	140.0	11.0	969.57	178.0	29.0	-55.0	-993.0	
1636888296.963654	1.0	1.0	1.0	0.0	0.0	0.0	62.0	65.0	177.0	140.0	11.0	969.59	178.0	10.0	-43.0	-970.0	
1636888297.015616	1.0	2.0	1.0	0.0	0.0	0.0	62.0	65.0	178.0	140.0	11.0	969.62	178.0	15.0	-47.0	-982.0	
1636888297.116247	0.0	2.0	1.0	0.0	0.0	0.0	62.0	65.0	178.0	140.0	11.0	969.57	178.0	21.0	-52.0	-967.0	
1636888297.217829	0.0	2.0	1.0	0.0	0.0	0.0	62.0	65.0	177.0	140.0	11.0	969.59	178.0	19.0	-52.0	-985.0	
1636888297.320677	0.0	2.0	0.0	0.0	0.0	0.0	62.0	65.0	181.0	140.0	11.0	969.56	178.0	4.0	-32.0	-985.0	
1636888297.42373	0.0	3.0	0.0	0.0	0.0	0.0	62.0	65.0	182.0	140.0	11.0	969.59	178.0	5.0	-51.0	-995.0	
1636888297.522216	0.0	3.0	0.0	0.0	0.0	0.0	62.0	65.0	179.0	140.0	11.0	969.6	178.0	-8.0	-42.0	-994.0	
1636888297.626074	0.0	3.0	0.0	0.0	0.0	0.0	62.0	65.0	178.0	140.0	11.0	969.51	178.0	5.0	-47.0	-994.0	
1636888297.677503	0.0	3.0	0.0	0.0	0.0	0.0	62.0	65.0	178.0	140.0	11.0	969.51	178.0	5.0	-47.0	-994.0	
1636888297.728494	0.0	3.0	0.0	0.0	0.0	0.0	62.0	65.0	178.0	140.0	11.0	969.58	179.0	6.0	-51.0	-1000.0	
1636888297.832728	0.0	2.0	0.0	0.0	0.0	0.0	62.0	65.0	177.0	140.0	11.0	969.67	179.0	-4.0	-40.0	-1001.0	
1636888297.932581	0.0	2.0	0.0	0.0	0.0	0.0	62.0	65.0	176.0	140.0	11.0	969.66	179.0	6.0	-40.0	-1010.0	
1636888298.035593	0.0	3.0	0.0	0.0	0.0	0.0	62.0	65.0	176.0	140.0	11.0	969.57	179.0	26.0	-61.0	-1002.0	
1636888298.134443	0.0	3.0	0.0	0.0	0.0	0.0	62.0	65.0	176.0	140.0	11.0	969.56	179.0	7.0	-61.0	-1009.0	
1636888298.236772	0.0	3.0	0.0	0.0	0.0	0.0	62.0	65.0	175.0	140.0	11.0	969.6	179.0	-12.0	-50.0	-1000.0	
1636888298.338462	0.0	3.0	0.0	0.0	0.0	0.0	62.0	65.0	176.0	140.0	11.0	969.62	179.0	11.0	-73.0	-1001.0	
1636888298.44232	0.0	2.0	0.0	0.0	0.0	0.0	62.0	65.0	175.0	140.0	11.0	969.66	179.0	-11.0	-54.0	-989.0	
1636888298.544216	0.0	2.0	1.0	0.0	0.0	0.0	63.0	64.0	178.0	140.0	11.0	969.69	179.0	-9.0	-69.0	-1019.0	
1636888298.644661	0.0	3.0	0.0	0.0	0.0	0.0	63.0	64.0	178.0	140.0	11.0	969.69	179.0	-17.0	-68.0	-1001.0	
1636888298.74772	0.0	4.0	0.0	0.0	0.0	0.0	63.0	64.0	177.0	140.0	11.0	969.68	180.0	-7.0	-61.0	-986.0	
1636888298.850435	-1.0	4.0	0.0	0.0	0.0	0.0	63.0	64.0	180.0	140.0	11.0	969.74	180.0	-7.0	-55.0	-996.0	
1636888298.951675	-1.0	3.0	0.0	0.0	0.0	0.0	63.0	64.0	177.0	140.0	11.0	969.57	180.0	-10.0	-73.0	-979.0	
1636888299.053625	0.0	3.0	0.0	0.0	0.0	0.0	63.0	64.0	178.0	140.0	11.0	969.68	180.0	-29.0	-62.0	-1007.0	
1636888299.154222	0.0	3.0	0.0	0.0	0.0	0.0	63.0	64.0	178.0	140.0	11.0	969.65	180.0	-35.0	-56.0	-985.0	
1636888299.258182	-1.0	3.0	0.0	0.0	0.0	0.0	63.0	64.0	176.0	140.0	11.0	969.63	180.0	-18.0	-66.0	-983.0	
1636888299.359081	-1.0	3.0	0.0	0.0	0.0	0.0	63.0	64.0	177.0	140.0	11.0	969.6	180.0	-23.0	-59.0	-1004.0	
1636888299.460727	-1.0	3.0	0.0	0.0	0.0	0.0	63.0	64.0	178.0	140.0	11.0	969.62	180.0	-30.0	-72.0	-1004.0	
1636888299.562802	-1.0	3.0	0.0	0.0	0.0	0.0	63.0	65.0	180.0	140.0	11.0	969.6	180.0	-34.0	-66.0	-987.0	
1636888299.664384	-2.0	3.0	0.0	0.0	0.0	0.0	63.0	65.0	177.0	140.0	11.0	969.68	181.0	-32.0	-64.0	-979.0	
1636888299.769974	-1.0	3.0	0.0	0.0	0.0	0.0	63.0	65.0	174.0	140.0	11.0	969.57	181.0	-37.0	-66.0	-1003.0	
1636888299.871207	-1.0	3.0	0.0	0.0	0.0	0.0	63.0	65.0	176.0	140.0	11.0	969.64	181.0	-32.0	-59.0	-988.0	
1636888299.972227	-1.0	3.0	0.0	0.0	0.0	0.0	63.0	65.0	178.0	140.0	11.0	969.64	181.0	-18.0	-58.0	-998.0	
1636888300.075331	-1.0	3.0	0.0	0.0	0.0	0.0	63.0	65.0	177.0	140.0	11.0	969.67	181.0	-7.0	-72.0	-989.0	
1636888300.173793	-1.0	3.0	0.0	0.0	0.0	0.0	63.0	65.0	175.0	140.0	11.0	969.64	181.0	-1.0	-87.0	-1004.0	
1636888300.27914	0.0	3.0	0.0	0.0	0.0	0.0	63.0	65.0	174.0	140.0	11.0	969.73	181.0	-10.0	-74.0	-1015.0	
1636888300.380206	0.0	4.0	0.0	0.0	0.0	0.0	63.0	65.0	175.0	140.0	11.0	969.7	181.0	15.0	-84.0	-986.0	
1636888300.480881	0.0	4.0	0.0	0.0	0.0	0.0	63.0	65.0	174.0	140.0	11.0	969.59	181.0	9.0	-88.0	-1005.0	
1636888300.585497	0.0	4.0	0.0	0.0	0.0	0.0	62.0	65.0	173.0	140.0	11.0	969.55	181.0	-11.0	-77.0	-1018.0	
1636888300.685287	0.0	3.0	0.0	0.0	0.0	0.0	62.0	65.0	174.0	140.0	11.0	969.63	182.0	-8.0	-80.0	-1006.0	
1636888300.789141	0.0	4.0	0.0	0.0	0.0	0.0	62.0	65.0	175.0	140.0	11.0	969.64	182.0	-1.0	-86.0	-999.0	
1636888300.891208	0.0	5.0	0.0	0.0	0.0	0.0	62.0	65.0	174.0	140.0	11.0	969.62	182.0	-16.0	-73.0	-985.0	
1636888300.992873	0.0	4.0	0.0	0.0	0.0	0.0	62.0	65.0	175.0	140.0	11.0	969.61	182.0	-8.0	-85.0	-996.0	
1636888301.040801	0.0	3.0	0.0	0.0	0.0	0.0	62.0	65.0	173.0	140.0	11.0	969.52	182.0	-18.0	-94.0	-1013.0	
1636888301.143846	0.0	4.0	0.0	0.0	0.0	0.0	62.0	65.0	173.0	140.0	11.0	969.58	182.0	-28.0	-77.0	-989.0	
1636888301.245348	-1.0	5.0	0.0	0.0	0.0	0.0	62.0	65.0	173.0	140.0	11.0	969.61	182.0	-19.0	-71.0	-1014.0	
1636888301.348155	-1.0	5.0	0.0	0.0	0.0	0.0	62.0	65.0	175.0	140.0	11.0	969.6	182.0	-25.0	-73.0	-1003.0	
1636888301.45187	-1.0	4.0	0.0	0.0	0.0	0.0	62.0	65.0	175.0	140.0	11.0	969.6	182.0	-23.0	-69.0	-997.0	
1636888301.550853	0.0	4.0	0.0	0.0	0.0	0.0	62.0	65.0	174.0	140.0	11.0	969.63	182.0	-46.0	-51.0	-997.0	
1636888301.656439	-1.0	3.0	0.0	0.0	0.0	0.0	62.0	65.0	173.0	140.0	11.0	969.55	183.0	-40.0	-65.0	-998.0	
1636888301.755545	-2.0	3.0	0.0	0.0	0.0	0.0	62.0	65.0	174.0	140.0	11.0	969.64	183.0	-16.0	-62.0	-977.0	
1636888301.859408	-2.0	3.0	0.0	0.0	0.0	0.0	62.0	65.0	175.0	140.0	11.0	969.59	183.0	-27.0	-83.0	-991.0	
1636888301.961385	-2.0	3.0	0.0	0.0	0.0	0.0	62.0	65.0	174.0	140.0	11.0	969.63	183.0	-32.0	-76.0	-990.0	
1636888302.064264	-1.0	4.0	0.0	0.0	0.0	0.0	62.0	65.0	176.0	140.0	11.0	969.54	183.0	-13.0	-82.0	-978.0	
1636888302.166021	-1.0	4.0	0.0	0.0	0.0	0.0	62.0	65.0	173.0	140.0	11.0	969.57	183.0	-20.0	-74.0	-994.0	
1636888302.265024	-1.0	4.0	0.0	0.0	0.0	0.0	62.0	65.0	176.0	140.0	11.0	969.55	183.0	4.0	-83.0	-992.0	
1636888302.369528	-1.0	4.0	0.0	0.0	0.0	0.0	62.0	65.0	175.0	140.0	11.0	969.6	183.0	-4.0	-80.0	-989.0	
1636888302.470738	0.0	4.0	0.0	0.0	0.0	0.0	62.0	65.0	174.0	140.0	11.0	969.61	183.0	-16.0	-87.0	-1000.0	
1636888302.574003	0.0	4.0	0.0	0.0	0.0	0.0	62.0	65.0	176.0	140.0	11.0	969.59	183.0	-19.0	-75.0	-999.0	
1636888302.672989	0.0	4.0	0.0	0.0	0.0	0.0	62.0	65.0	174.0	140.0	11.0	969.52	184.0	10.0	-97.0	-987.0	
1636888302.77817	0.0	4.0	0.0	0.0	0.0	0.0	62.0	65.0	175.0	140.0	11.0	969.59	184.0	-8.0	-81.0	-988.0	
1636888302.87808	0.0	4.0	0.0	0.0	0.0	0.0	62.0	65.0	176.0	140.0	11.0	969.5	184.0	-4.0	-80.0	-997.0	
1636888302.980977	0.0	4.0	0.0	0.0	0.0	0.0	62.0	65.0	173.0	140.0	11.0	969.59	184.0	-15.0	-72.0	-991.0	
1636888303.081721	0.0	4.0	0.0	0.0	0.0	0.0	62.0	65.0	175.0	140.0	11.0	969.55	184.0	5.0	-81.0	-995.0	
1636888303.185581	0.0	4.0	0.0	0.0	0.0	0.0	62.0	65.0	175.0	140.0	11.0	969.58	184.0	-1.0	-93.0	-1019.0	
1636888303.285518	0.0	4.0	0.0	0.0	0.0	0.0	62.0	65.0	174.0	140.0	11.0	969.52	184.0	0.0	-85.0	-991.0	
1636888303.389382	0.0	3.0	0.0	0.0	0.0	0.0	62.0	65.0	174.0	140.0	11.0	969.41	184.0	-13.0	-83.0	-1014.0	
1636888303.492327	0.0	4.0	0.0	0.0	0.0	0.0	62.0	65.0	174.0	140.0	11.0	969.51	184.0	-19.0	-78.0	-1002.0	
1636888303.591419	0.0	4.0	0.0	0.0	0.0	0.0	62.0	64.0	176.0	140.0	11.0	969.54	184.0	-41.0	-72.0	-986.0	
1636888303.696022	0.0	4.0	0.0	0.0	0.0	0.0	62.0	64.0	174.0	140.0	11.0	969.53	185.0	-41.0	-78.0	-978.0	
1636888303.797868	-1.0	4.0	0.0	0.0	0.0	0.0	62.0	64.0	175.0	140.0	11.0	969.59	185.0	-37.0	-78.0	-987.0	
1636888303.897683	-2.0	4.0	0.0	0.0	0.0	0.0	62.0	64.0	176.0	140.0	11.0	969.51	185.0	-45.0	-73.0	-1002.0	
1636888304.001724	-2.0	4.0	0.0	0.0	0.0	0.0	62.0	64.0	175.0	140.0	11.0	969.58	185.0	-29.0	-56.0	-981.0	
1636888304.102197	-2.0	3.0	0.0	0.0	0.0	0.0	62.0	64.0	173.0	140.0	11.0	969.6	185.0	-38.0	-58.0	-981.0	
1636888304.207948	-2.0	2.0	0.0	0.0	0.0	0.0	62.0	64.0	172.0	140.0	11.0	969.6	185.0	-22.0	-58.0	-996.0	
1636888304.307084	-2.0	2.0	0.0	0.0	0.0	0.0	62.0	64.0	170.0	140.0	11.0	969.5	185.0	-18.0	-61.0	-1010.0	
1636888304.408115	0.0	3.0	0.0	0.0	0.0	0.0	62.0	64.0	173.0	140.0	11.0	969.62	185.0	-11.0	-67.0	-1003.0	
1636888304.511267	0.0	3.0	0.0	0.0	0.0	0.0	62.0	64.0	171.0	140.0	11.0	969.53	185.0	-8.0	-64.0	-1003.0	
1636888304.614477	0.0	3.0	0.0	0.0	0.0	0.0	62.0	64.0	172.0	140.0	10.0	969.51	185.0	-20.0	-53.0	-1013.0	
1636888304.662502	0.0	3.0	0.0	0.0	0.0	0.0	62.0	64.0	172.0	140.0	10.0	969.51	185.0	-20.0	-53.0	-1013.0	
1636888304.71754	0.0	3.0	0.0	0.0	0.0	0.0	62.0	64.0	171.0	140.0	10.0	969.54	186.0	-29.0	-53.0	-1017.0	
1636888304.819272	0.0	3.0	0.0	0.0	0.0	0.0	62.0	64.0	171.0	140.0	10.0	969.52	186.0	-11.0	-74.0	-1009.0	
1636888304.920314	0.0	3.0	0.0	0.0	0.0	0.0	62.0	64.0	174.0	140.0	10.0	969.53	186.0	-18.0	-56.0	-991.0	
1636888305.019657	0.0	3.0	0.0	0.0	0.0	0.0	62.0	64.0	174.0	140.0	10.0	969.55	186.0	-19.0	-62.0	-995.0	
1636888305.125126	0.0	3.0	0.0	0.0	0.0	0.0	62.0	64.0	174.0	140.0	10.0	969.51	186.0	-13.0	-64.0	-994.0	
1636888305.227301	0.0	3.0	0.0	0.0	0.0	0.0	62.0	64.0	174.0	140.0	10.0	969.49	186.0	-19.0	-62.0	-989.0	
1636888305.275297	0.0	3.0	0.0	0.0	0.0	0.0	62.0	64.0	172.0	140.0	10.0	969.48	186.0	-19.0	-53.0	-1002.0	
1636888305.380484	0.0	3.0	0.0	0.0	0.0	0.0	62.0	64.0	172.0	140.0	10.0	969.52	186.0	-11.0	-63.0	-998.0	
1636888305.479803	0.0	3.0	0.0	0.0	0.0	0.0	62.0	64.0	172.0	140.0	10.0	969.58	186.0	-18.0	-42.0	-991.0	
1636888305.582441	0.0	3.0	0.0	0.0	0.0	0.0	62.0	65.0	172.0	140.0	10.0	969.52	186.0	-7.0	-57.0	-1013.0	
1636888305.686074	0.0	3.0	0.0	0.0	0.0	0.0	62.0	65.0	172.0	140.0	10.0	969.54	187.0	0.0	-53.0	-983.0	
1636888305.785172	0.0	3.0	0.0	0.0	0.0	0.0	62.0	65.0	170.0	140.0	10.0	969.55	187.0	-2.0	-56.0	-1002.0	
1636888305.890436	0.0	3.0	0.0	0.0	0.0	0.0	62.0	65.0	172.0	140.0	10.0	969.5	187.0	-2.0	-50.0	-985.0	
1636888305.988635	0.0	2.0	0.0	0.0	0.0	0.0	62.0	65.0	172.0	140.0	10.0	969.51	187.0	7.0	-67.0	-993.0	
1636888306.092501	0.0	3.0	0.0	0.0	0.0	0.0	62.0	65.0	170.0	140.0	10.0	969.54	187.0	-13.0	-41.0	-1009.0	
1636888306.194076	0.0	3.0	0.0	0.0	0.0	0.0	62.0	65.0	172.0	140.0	10.0	969.58	187.0	-13.0	-49.0	-1014.0	
1636888306.295863	0.0	2.0	0.0	0.0	0.0	0.0	62.0	65.0	171.0	140.0	10.0	969.5	187.0	-16.0	-49.0	-1008.0	
1636888306.401096	0.0	2.0	0.0	0.0	0.0	0.0	62.0	65.0	172.0	140.0	10.0	969.58	187.0	-20.0	-49.0	-1015.0	
1636888306.503331	0.0	3.0	0.0	0.0	0.0	0.0	62.0	65.0	172.0	140.0	10.0	969.55	187.0	-5.0	-68.0	-994.0	
1636888306.602488	0.0	3.0	0.0	0.0	0.0	0.0	62.0	65.0	173.0	140.0	10.0	969.56	187.0	-6.0	-72.0	-992.0	
1636888306.704046	0.0	3.0	0.0	0.0	0.0	0.0	62.0	65.0	173.0	140.0	10.0	969.56	188.0	4.0	-72.0	-982.0	
1636888306.805998	0.0	3.0	0.0	0.0	0.0	0.0	62.0	65.0	174.0	140.0	10.0	969.48	188.0	-1.0	-81.0	-990.0	
1636888306.907684	0.0	3.0	0.0	0.0	0.0	0.0	62.0	65.0	175.0	140.0	10.0	969.51	188.0	-9.0	-66.0	-980.0	
1636888307.012395	0.0	4.0	0.0	0.0	0.0	0.0	62.0	65.0	174.0	140.0	10.0	969.54	188.0	-1.0	-64.0	-981.0	
1636888307.113597	0.0	4.0	0.0	0.0	0.0	0.0	62.0	65.0	176.0	140.0	10.0	969.56	188.0	-8.0	-49.0	-997.0	
1636888307.21346	0.0	4.0	0.0	0.0	0.0	0.0	62.0	65.0	175.0	140.0	10.0	969.55	188.0	-3.0	-67.0	-1000.0	
1636888307.319258	0.0	3.0	0.0	0.0	0.0	0.0	62.0	65.0	176.0	140.0	10.0	969.54	188.0	-3.0	-63.0	-986.0	
1636888307.421385	0.0	3.0	0.0	0.0	0.0	0.0	62.0	65.0	173.0	140.0	10.0	969.53	188.0	-16.0	-66.0	-988.0	
1636888307.522492	0.0	3.0	0.0	0.0	0.0	0.0	62.0	65.0	174.0	140.0	10.0	969.56	188.0	-23.0	-61.0	-989.0	
1636888307.623968	0.0	4.0	0.0	0.0	0.0	0.0	62.0	65.0	176.0	140.0	10.0	969.58	188.0	-23.0	-69.0	-991.0	
1636888307.725097	0.0	4.0	0.0	0.0	0.0	0.0	62.0	65.0	176.0	140.0	10.0	969.59	189.0	-23.0	-75.0	-991.0	
1636888307.826638	-1.0	4.0	0.0	0.0	0.0	0.0	62.0	65.0	174.0	140.0	10.0	969.62	189.0	-26.0	-73.0	-997.0	
1636888307.931711	-1.0	4.0	0.0	0.0	0.0	0.0	62.0	65.0	177.0	140.0	10.0	969.49	189.0	-34.0	-70.0	-1001.0	
1636888308.032637	-1.0	4.0	0.0	0.0	0.0	0.0	62.0	65.0	176.0	140.0	10.0	969.55	189.0	-19.0	-78.0	-997.0	
1636888308.131853	-1.0	4.0	0.0	0.0	0.0	0.0	62.0	65.0	176.0	140.0	10.0	969.59	189.0	-14.0	-78.0	-994.0	
1636888308.235295	-1.0	4.0	0.0	0.0	0.0	0.0	62.0	65.0	176.0	140.0	10.0	969.55	189.0	-23.0	-85.0	-993.0	
1636888308.336922	0.0	4.0	0.0	0.0	0.0	0.0	62.0	65.0	177.0	140.0	10.0	969.54	189.0	-29.0	-82.0	-1006.0	
1636888308.441006	-1.0	5.0	0.0	0.0	0.0	0.0	62.0	65.0	177.0	140.0	10.0	969.5	189.0	-16.0	-83.0	-997.0	
1636888308.543001	-1.0	4.0	0.0	0.0	0.0	0.0	62.0	65.0	176.0	140.0	10.0	969.48	189.0	-14.0	-88.0	-999.0	
1636888308.642851	-1.0	4.0	0.0	0.0	0.0	0.0	62.0	65.0	177.0	140.0	10.0	969.51	189.0	-26.0	-76.0	-993.0	
1636888308.746714	-1.0	5.0	0.0	0.0	0.0	0.0	62.0	65.0	177.0	140.0	10.0	969.45	190.0	-36.0	-72.0	-992.0	
1636888308.848799	-1.0	4.0	0.0	0.0	0.0	0.0	62.0	65.0	177.0	140.0	10.0	969.51	190.0	-28.0	-83.0	-1002.0	
1636888308.95002	-1.0	4.0	0.0	0.0	0.0	0.0	62.0	65.0	177.0	140.0	10.0	969.51	190.0	-22.0	-88.0	-984.0	
1636888309.051412	-1.0	4.0	0.0	0.0	0.0	0.0	62.0	65.0	177.0	140.0	10.0	969.43	190.0	-21.0	-84.0	-1011.0	
1636888309.100945	-1.0	4.0	0.0	0.0	0.0	0.0	62.0	65.0	176.0	140.0	10.0	969.54	190.0	-30.0	-85.0	-982.0	
1636888309.20545	-1.0	4.0	0.0	0.0	0.0	0.0	62.0	65.0	176.0	140.0	10.0	969.51	190.0	-35.0	-65.0	-975.0	
