timestamp	pitch	roll	yaw	vgx	vgy	vgz	templ	temph	tof	h	bat	baro	time	agx	agy	agz	
1636893170.314254	
1636893170.418915	0.0	-1.0	-170.0	0.0	0.0	0.0	64.0	66.0	10.0	0.0	52.0	959.29	41.0	-4.0	30.0	-1001.0	
1636893170.521129	0.0	-1.0	-170.0	0.0	0.0	0.0	64.0	66.0	10.0	0.0	52.0	959.29	41.0	-5.0	31.0	-998.0	
1636893170.711323	0.0	-1.0	-170.0	0.0	0.0	0.0	64.0	66.0	10.0	0.0	52.0	959.25	41.0	-5.0	32.0	-1000.0	
1636893170.724753	0.0	-1.0	-170.0	0.0	0.0	0.0	64.0	66.0	10.0	0.0	52.0	959.29	41.0	-5.0	31.0	-998.0	
1636893170.82515	0.0	-1.0	-170.0	0.0	0.0	0.0	64.0	66.0	10.0	0.0	52.0	959.24	41.0	-4.0	32.0	-999.0	
1636893170.927664	0.0	-1.0	-170.0	0.0	0.0	0.0	64.0	66.0	10.0	0.0	52.0	959.29	41.0	-7.0	31.0	-998.0	
1636893171.03098	0.0	-1.0	-170.0	0.0	0.0	0.0	64.0	66.0	10.0	0.0	52.0	959.31	41.0	-5.0	32.0	-1001.0	
1636893171.132206	0.0	-1.0	-170.0	0.0	0.0	0.0	64.0	66.0	10.0	0.0	52.0	959.28	41.0	-5.0	33.0	-1000.0	
1636893171.235456	0.0	-1.0	-170.0	0.0	0.0	0.0	64.0	66.0	10.0	0.0	52.0	959.29	41.0	-5.0	31.0	-999.0	
1636893171.282341	0.0	-1.0	-170.0	0.0	0.0	0.0	65.0	65.0	10.0	0.0	52.0	959.41	41.0	-5.0	32.0	-1000.0	
1636893171.388215	0.0	-1.0	-170.0	0.0	0.0	0.0	65.0	65.0	10.0	0.0	52.0	959.4	41.0	-5.0	32.0	-999.0	
1636893171.489343	0.0	-1.0	-170.0	0.0	0.0	0.0	65.0	65.0	10.0	0.0	52.0	959.41	41.0	-5.0	31.0	-998.0	
1636893171.592042	0.0	-1.0	-170.0	0.0	0.0	0.0	65.0	65.0	10.0	0.0	52.0	959.43	41.0	-6.0	31.0	-998.0	
1636893171.691792	0.0	-1.0	-170.0	0.0	0.0	0.0	65.0	65.0	10.0	0.0	52.0	959.4	41.0	-7.0	32.0	-999.0	
1636893171.794505	0.0	-1.0	-170.0	0.0	0.0	0.0	65.0	65.0	10.0	0.0	52.0	959.44	41.0	-4.0	30.0	-999.0	
1636893171.895626	0.0	-1.0	-170.0	0.0	0.0	0.0	65.0	65.0	10.0	0.0	52.0	959.37	41.0	-6.0	31.0	-1000.0	
1636893171.999423	0.0	-1.0	-170.0	0.0	0.0	0.0	65.0	65.0	10.0	0.0	52.0	959.39	41.0	-6.0	33.0	-997.0	
1636893172.102161	0.0	-1.0	-170.0	0.0	0.0	0.0	65.0	65.0	10.0	0.0	52.0	959.38	41.0	-6.0	32.0	-999.0	
1636893172.20205	0.0	-1.0	-170.0	0.0	0.0	0.0	65.0	65.0	10.0	0.0	52.0	959.43	41.0	-5.0	30.0	-998.0	
1636893172.306483	0.0	-1.0	-170.0	0.0	0.0	0.0	64.0	67.0	10.0	0.0	52.0	959.37	41.0	-5.0	31.0	-999.0	
1636893172.405035	0.0	-1.0	-170.0	0.0	0.0	0.0	64.0	67.0	10.0	0.0	52.0	959.42	41.0	-4.0	33.0	-997.0	
1636893172.509764	0.0	-1.0	-170.0	0.0	0.0	0.0	64.0	67.0	10.0	0.0	52.0	959.41	41.0	-6.0	31.0	-999.0	
1636893172.609794	0.0	-1.0	-170.0	0.0	0.0	0.0	64.0	67.0	10.0	0.0	52.0	959.37	41.0	-5.0	32.0	-1001.0	
1636893172.713718	0.0	-1.0	-170.0	0.0	0.0	0.0	64.0	67.0	10.0	0.0	52.0	959.37	41.0	-4.0	32.0	-1001.0	
1636893172.813588	0.0	-1.0	-170.0	0.0	0.0	0.0	64.0	67.0	10.0	0.0	52.0	959.43	41.0	-4.0	31.0	-998.0	
1636893172.916734	0.0	-1.0	-170.0	0.0	0.0	0.0	64.0	67.0	10.0	0.0	52.0	959.37	41.0	-5.0	31.0	-1002.0	
1636893173.018706	0.0	-1.0	-170.0	0.0	0.0	0.0	64.0	67.0	10.0	0.0	52.0	959.34	41.0	-5.0	32.0	-1001.0	
1636893173.11873	0.0	-1.0	-170.0	0.0	0.0	0.0	64.0	67.0	10.0	0.0	52.0	959.38	41.0	-4.0	31.0	-999.0	
1636893173.22423	0.0	-1.0	-170.0	0.0	0.0	0.0	64.0	67.0	10.0	0.0	52.0	959.34	41.0	-6.0	31.0	-998.0	
1636893173.325311	0.0	-1.0	-170.0	0.0	0.0	0.0	63.0	66.0	10.0	0.0	52.0	959.38	41.0	-6.0	32.0	-1001.0	
1636893173.426663	0.0	-1.0	-170.0	0.0	0.0	0.0	63.0	66.0	10.0	0.0	52.0	959.37	41.0	-6.0	31.0	-998.0	
1636893173.528699	0.0	-1.0	-170.0	0.0	0.0	0.0	63.0	66.0	10.0	0.0	52.0	959.33	41.0	-5.0	31.0	-1001.0	
1636893173.628355	0.0	-1.0	-170.0	0.0	0.0	0.0	63.0	66.0	10.0	0.0	52.0	959.34	41.0	-5.0	32.0	-998.0	
1636893173.731259	0.0	-1.0	-170.0	0.0	0.0	0.0	63.0	66.0	10.0	0.0	52.0	959.38	41.0	-5.0	32.0	-1000.0	
1636893173.835268	0.0	-1.0	-170.0	0.0	0.0	0.0	63.0	66.0	10.0	0.0	52.0	959.34	41.0	-7.0	32.0	-999.0	
1636893173.888032	0.0	-1.0	-170.0	0.0	0.0	0.0	63.0	66.0	10.0	0.0	52.0	959.32	41.0	-7.0	31.0	-999.0	
1636893173.988366	0.0	-1.0	-170.0	0.0	0.0	0.0	63.0	66.0	10.0	0.0	52.0	959.41	41.0	-4.0	32.0	-997.0	
1636893174.091718	0.0	-1.0	-170.0	0.0	0.0	0.0	63.0	66.0	10.0	0.0	52.0	959.32	41.0	-6.0	31.0	-1000.0	
1636893174.196202	0.0	-1.0	-170.0	0.0	0.0	0.0	63.0	66.0	10.0	0.0	52.0	959.38	41.0	-4.0	32.0	-999.0	
1636893174.293613	0.0	-1.0	-170.0	0.0	0.0	0.0	64.0	66.0	10.0	0.0	52.0	959.42	41.0	-4.0	32.0	-997.0	
1636893174.397547	0.0	-1.0	-170.0	0.0	0.0	0.0	64.0	66.0	10.0	0.0	52.0	959.35	41.0	-7.0	31.0	-995.0	
1636893174.499368	0.0	-1.0	-170.0	0.0	0.0	0.0	64.0	66.0	10.0	0.0	52.0	959.39	41.0	-5.0	31.0	-1000.0	
1636893174.604444	0.0	-1.0	-170.0	0.0	0.0	0.0	64.0	66.0	10.0	0.0	52.0	959.36	41.0	-4.0	31.0	-998.0	
1636893174.702706	0.0	-1.0	-170.0	0.0	0.0	0.0	64.0	66.0	10.0	0.0	52.0	959.36	41.0	-5.0	32.0	-1000.0	
1636893174.804131	0.0	-1.0	-170.0	0.0	0.0	0.0	64.0	66.0	10.0	0.0	52.0	959.4	41.0	-5.0	32.0	-999.0	
1636893174.907328	0.0	-1.0	-170.0	0.0	0.0	0.0	64.0	66.0	10.0	0.0	52.0	959.39	41.0	-5.0	31.0	-999.0	
1636893175.006415	0.0	-1.0	-170.0	0.0	0.0	0.0	64.0	66.0	10.0	0.0	52.0	959.39	41.0	-7.0	30.0	-997.0	
1636893175.110703	0.0	-1.0	-170.0	0.0	0.0	0.0	64.0	66.0	10.0	0.0	52.0	959.39	41.0	-5.0	31.0	-997.0	
1636893175.211221	0.0	-1.0	-170.0	0.0	0.0	0.0	64.0	66.0	10.0	0.0	52.0	959.38	41.0	-4.0	31.0	-1001.0	
1636893175.314513	0.0	-1.0	-170.0	0.0	0.0	0.0	64.0	67.0	10.0	0.0	52.0	959.38	41.0	-6.0	32.0	-1001.0	
1636893175.416615	0.0	-1.0	-170.0	0.0	0.0	0.0	64.0	67.0	10.0	0.0	52.0	959.36	41.0	-6.0	30.0	-1000.0	
1636893175.518985	0.0	-1.0	-170.0	0.0	0.0	0.0	64.0	67.0	10.0	0.0	52.0	959.43	41.0	-5.0	32.0	-999.0	
1636893175.620924	0.0	-1.0	-170.0	0.0	0.0	0.0	64.0	67.0	10.0	0.0	52.0	959.44	41.0	-5.0	31.0	-1000.0	
1636893175.723088	0.0	-1.0	-170.0	0.0	0.0	0.0	64.0	67.0	10.0	0.0	52.0	959.42	41.0	-6.0	32.0	-1000.0	
1636893175.823079	0.0	-1.0	-170.0	0.0	0.0	0.0	64.0	67.0	10.0	0.0	52.0	959.31	41.0	-4.0	33.0	-999.0	
1636893175.926917	0.0	-1.0	-170.0	0.0	0.0	0.0	64.0	67.0	10.0	0.0	51.0	959.3	41.0	-4.0	31.0	-999.0	
1636893176.025075	0.0	-1.0	-170.0	0.0	0.0	0.0	64.0	67.0	10.0	0.0	51.0	959.38	41.0	-6.0	31.0	-999.0	
1636893176.128967	0.0	-1.0	-170.0	0.0	0.0	0.0	64.0	67.0	10.0	0.0	51.0	959.35	41.0	-5.0	32.0	-997.0	
1636893176.230631	0.0	-1.0	-170.0	0.0	0.0	0.0	64.0	67.0	10.0	0.0	51.0	959.42	41.0	-6.0	30.0	-1002.0	
1636893176.334487	0.0	-1.0	-170.0	0.0	0.0	0.0	65.0	67.0	10.0	0.0	51.0	959.42	41.0	-5.0	31.0	-999.0	
1636893176.385753	0.0	-1.0	-170.0	0.0	0.0	0.0	65.0	67.0	10.0	0.0	51.0	959.42	41.0	-4.0	31.0	-997.0	
1636893176.485137	0.0	-1.0	-170.0	0.0	0.0	0.0	65.0	67.0	10.0	0.0	51.0	959.36	41.0	-4.0	32.0	-1000.0	
1636893176.586451	0.0	-1.0	-170.0	0.0	0.0	0.0	65.0	67.0	10.0	0.0	51.0	959.42	41.0	-6.0	32.0	-997.0	
1636893176.690268	0.0	-1.0	-170.0	0.0	0.0	0.0	65.0	67.0	10.0	0.0	51.0	959.38	41.0	-3.0	32.0	-1001.0	
1636893176.793498	0.0	-1.0	-170.0	0.0	0.0	0.0	65.0	67.0	10.0	0.0	51.0	959.35	41.0	-7.0	31.0	-999.0	
1636893176.893919	0.0	-1.0	-170.0	0.0	0.0	0.0	65.0	67.0	10.0	0.0	51.0	959.41	41.0	-6.0	31.0	-999.0	
1636893176.994422	0.0	-1.0	-170.0	0.0	0.0	0.0	65.0	67.0	10.0	0.0	51.0	959.36	41.0	-4.0	32.0	-999.0	
1636893177.099504	0.0	-1.0	-170.0	0.0	0.0	0.0	65.0	67.0	10.0	0.0	51.0	959.33	41.0	-5.0	31.0	-1000.0	
1636893177.201691	0.0	-1.0	-170.0	0.0	0.0	0.0	65.0	67.0	10.0	0.0	51.0	959.36	41.0	-3.0	31.0	-999.0	
1636893177.302349	0.0	-1.0	-170.0	0.0	0.0	0.0	65.0	66.0	10.0	0.0	51.0	959.34	41.0	-5.0	32.0	-999.0	
1636893177.404169	0.0	-1.0	-170.0	0.0	0.0	0.0	65.0	66.0	10.0	0.0	51.0	959.34	41.0	-6.0	32.0	-998.0	
1636893177.504046	0.0	-1.0	-170.0	0.0	0.0	0.0	65.0	66.0	10.0	0.0	51.0	959.35	41.0	-6.0	32.0	-999.0	
1636893177.606315	0.0	-1.0	-170.0	0.0	0.0	0.0	65.0	66.0	10.0	0.0	51.0	959.33	41.0	-6.0	29.0	-1001.0	
1636893177.708082	0.0	-1.0	-170.0	0.0	0.0	0.0	65.0	66.0	10.0	0.0	51.0	959.4	41.0	-5.0	31.0	-1000.0	
1636893177.813544	0.0	-1.0	-170.0	0.0	0.0	0.0	65.0	66.0	10.0	0.0	51.0	959.37	41.0	-4.0	31.0	-1001.0	
1636893177.913691	0.0	-1.0	-170.0	0.0	0.0	0.0	65.0	66.0	10.0	0.0	51.0	959.32	41.0	-5.0	31.0	-998.0	
1636893178.014178	0.0	-1.0	-170.0	0.0	0.0	0.0	65.0	66.0	10.0	0.0	51.0	959.37	41.0	-4.0	31.0	-1002.0	
1636893178.118078	0.0	-1.0	-170.0	0.0	0.0	0.0	65.0	66.0	10.0	0.0	51.0	959.36	41.0	-6.0	32.0	-998.0	
1636893178.219882	0.0	-1.0	-170.0	0.0	0.0	0.0	65.0	66.0	10.0	0.0	51.0	959.38	41.0	-5.0	33.0	-1001.0	
1636893178.32233	0.0	-1.0	-170.0	0.0	0.0	0.0	64.0	67.0	10.0	0.0	51.0	959.38	41.0	-6.0	31.0	-991.0	
1636893178.425619	0.0	-1.0	-170.0	0.0	0.0	0.0	64.0	67.0	10.0	0.0	51.0	959.38	41.0	-5.0	32.0	-998.0	
1636893178.527605	0.0	-1.0	-170.0	0.0	0.0	0.0	64.0	67.0	10.0	0.0	51.0	959.38	41.0	-11.0	27.0	-990.0	
1636893178.629323	0.0	-1.0	-170.0	0.0	0.0	0.0	64.0	67.0	10.0	0.0	51.0	959.38	41.0	-4.0	15.0	-983.0	
1636893178.731769	0.0	-1.0	-170.0	0.0	0.0	0.0	64.0	67.0	10.0	0.0	51.0	959.38	41.0	-17.0	9.0	-990.0	
1636893178.831125	0.0	-1.0	-170.0	0.0	0.0	0.0	64.0	67.0	10.0	0.0	51.0	959.38	42.0	8.0	-27.0	-1039.0	
1636893178.932888	-1.0	0.0	-170.0	0.0	0.0	0.0	64.0	67.0	10.0	0.0	51.0	959.38	42.0	-19.0	3.0	-1179.0	
1636893178.986456	-1.0	1.0	-171.0	0.0	0.0	-1.0	64.0	67.0	11.0	0.0	51.0	959.38	42.0	21.0	-18.0	-1301.0	
1636893179.087854	0.0	1.0	-171.0	-1.0	0.0	-4.0	64.0	67.0	11.0	0.0	51.0	959.38	42.0	-36.0	0.0	-1211.0	
1636893179.187911	2.0	0.0	-171.0	0.0	0.0	-7.0	64.0	67.0	19.0	10.0	51.0	959.66	42.0	-12.0	-5.0	-1119.0	
1636893179.292099	0.0	0.0	-170.0	0.0	0.0	-8.0	65.0	67.0	28.0	20.0	51.0	959.71	42.0	-8.0	0.0	-1045.0	
1636893179.39475	0.0	0.0	-171.0	0.0	0.0	-8.0	65.0	67.0	37.0	30.0	51.0	959.78	42.0	-15.0	7.0	-980.0	
1636893179.495612	0.0	0.0	-171.0	0.0	0.0	-8.0	65.0	67.0	42.0	40.0	51.0	959.84	42.0	-5.0	-3.0	-926.0	
1636893179.595745	0.0	0.0	-171.0	0.0	0.0	-7.0	65.0	67.0	50.0	40.0	51.0	959.99	42.0	-3.0	-3.0	-900.0	
1636893179.698386	0.0	0.0	-171.0	0.0	0.0	-5.0	65.0	67.0	58.0	50.0	51.0	959.99	43.0	-14.0	6.0	-870.0	
1636893179.803559	0.0	0.0	-171.0	0.0	0.0	-4.0	65.0	67.0	65.0	50.0	51.0	960.13	43.0	-16.0	1.0	-863.0	
1636893179.904092	-2.0	0.0	-171.0	0.0	0.0	-3.0	65.0	67.0	71.0	60.0	51.0	960.18	43.0	-5.0	-11.0	-873.0	
1636893180.006367	-1.0	0.0	-171.0	0.0	0.0	-2.0	65.0	67.0	76.0	60.0	51.0	960.18	43.0	0.0	-12.0	-874.0	
1636893180.105166	-1.0	0.0	-171.0	0.0	0.0	-1.0	65.0	67.0	78.0	60.0	51.0	960.16	43.0	-21.0	-2.0	-892.0	
1636893180.209416	-1.0	0.0	-171.0	0.0	0.0	0.0	65.0	67.0	80.0	70.0	51.0	960.2	43.0	-14.0	-21.0	-934.0	
1636893180.312614	-1.0	1.0	-171.0	0.0	0.0	0.0	64.0	67.0	80.0	70.0	51.0	960.23	43.0	-24.0	-15.0	-967.0	
1636893180.41206	-1.0	1.0	-171.0	0.0	0.0	0.0	64.0	67.0	81.0	70.0	51.0	960.24	43.0	-21.0	-12.0	-987.0	
1636893180.516527	-1.0	1.0	-171.0	0.0	0.0	0.0	64.0	67.0	81.0	70.0	51.0	960.17	43.0	-31.0	9.0	-986.0	
1636893180.618226	0.0	0.0	-171.0	0.0	0.0	0.0	64.0	67.0	81.0	70.0	51.0	960.21	43.0	-17.0	-17.0	-978.0	
1636893180.717408	0.0	0.0	-171.0	0.0	0.0	0.0	64.0	67.0	80.0	70.0	51.0	960.18	44.0	-12.0	-31.0	-997.0	
1636893180.819679	-1.0	1.0	-171.0	0.0	0.0	0.0	64.0	67.0	81.0	70.0	51.0	960.19	44.0	-23.0	-22.0	-1014.0	
1636893180.924768	-1.0	1.0	-171.0	0.0	0.0	0.0	64.0	67.0	81.0	70.0	51.0	960.14	44.0	-6.0	-45.0	-1089.0	
1636893181.026129	-1.0	2.0	-171.0	0.0	0.0	-2.0	64.0	67.0	82.0	70.0	51.0	960.22	44.0	-31.0	-24.0	-1197.0	
1636893181.131163	0.0	2.0	-170.0	0.0	0.0	-4.0	64.0	67.0	86.0	70.0	51.0	960.24	44.0	-37.0	-29.0	-1136.0	
1636893181.227236	-1.0	2.0	-170.0	0.0	0.0	-4.0	64.0	67.0	89.0	80.0	51.0	960.23	44.0	-31.0	-30.0	-990.0	
1636893181.332986	-1.0	2.0	-170.0	0.0	0.0	-3.0	64.0	66.0	94.0	80.0	51.0	960.26	44.0	-24.0	-38.0	-956.0	
1636893181.43628	-1.0	2.0	-170.0	0.0	0.0	-3.0	64.0	66.0	98.0	90.0	51.0	960.36	44.0	-20.0	-37.0	-915.0	
1636893181.533511	-1.0	2.0	-170.0	0.0	0.0	-2.0	64.0	66.0	102.0	90.0	51.0	960.33	44.0	-36.0	-26.0	-966.0	
1636893181.634946	-2.0	2.0	-170.0	0.0	0.0	-3.0	64.0	66.0	104.0	90.0	51.0	960.44	44.0	-33.0	-23.0	-1098.0	
1636893181.740156	-2.0	1.0	-170.0	0.0	0.0	-4.0	64.0	66.0	109.0	100.0	51.0	960.52	45.0	-29.0	-25.0	-1146.0	
1636893181.841023	-1.0	0.0	-170.0	0.0	0.0	-6.0	64.0	66.0	114.0	100.0	51.0	960.51	45.0	-34.0	-27.0	-1147.0	
1636893181.944826	-1.0	0.0	-170.0	0.0	0.0	-7.0	64.0	66.0	120.0	110.0	51.0	960.61	45.0	-39.0	-20.0	-1117.0	
1636893182.046765	-1.0	0.0	-170.0	0.0	0.0	-8.0	64.0	66.0	129.0	120.0	51.0	960.68	45.0	-41.0	-15.0	-1088.0	
1636893182.145702	-1.0	0.0	-170.0	0.0	0.0	-7.0	64.0	66.0	137.0	120.0	51.0	960.78	45.0	-43.0	-10.0	-890.0	
1636893182.249552	-1.0	0.0	-170.0	0.0	0.0	-6.0	64.0	66.0	145.0	130.0	51.0	960.77	45.0	0.0	-29.0	-837.0	
1636893182.350687	-1.0	0.0	-170.0	0.0	0.0	-4.0	64.0	66.0	155.0	140.0	51.0	960.8	45.0	-46.0	13.0	-863.0	
1636893182.451788	-2.0	0.0	-170.0	0.0	0.0	-3.0	64.0	66.0	157.0	140.0	51.0	960.85	45.0	-40.0	-14.0	-875.0	
1636893182.553441	-2.0	0.0	-171.0	0.0	0.0	-2.0	64.0	66.0	160.0	140.0	51.0	960.9	45.0	-36.0	-31.0	-886.0	
1636893182.657507	-2.0	0.0	-171.0	0.0	0.0	-1.0	64.0	66.0	162.0	150.0	51.0	960.83	45.0	-37.0	-6.0	-902.0	
1636893182.760062	-2.0	0.0	-171.0	0.0	0.0	0.0	64.0	66.0	162.0	150.0	51.0	960.82	46.0	-64.0	14.0	-930.0	
1636893182.859551	-3.0	0.0	-171.0	0.0	0.0	0.0	64.0	66.0	162.0	150.0	51.0	960.84	46.0	-42.0	-5.0	-958.0	
1636893182.965079	-2.0	0.0	-171.0	0.0	0.0	0.0	64.0	66.0	162.0	150.0	51.0	960.87	46.0	-70.0	11.0	-1007.0	
1636893183.066748	-2.0	0.0	-171.0	0.0	0.0	0.0	64.0	66.0	161.0	150.0	51.0	960.93	46.0	-45.0	-4.0	-992.0	
1636893183.165118	-3.0	0.0	-171.0	0.0	0.0	0.0	64.0	66.0	163.0	150.0	51.0	960.91	46.0	-54.0	-1.0	-991.0	
1636893183.217231	-4.0	0.0	-171.0	0.0	0.0	0.0	64.0	66.0	164.0	150.0	51.0	960.88	46.0	-65.0	5.0	-1027.0	
1636893183.371187	-11.0	0.0	-171.0	0.0	0.0	0.0	64.0	66.0	167.0	150.0	51.0	960.77	46.0	-60.0	-1.0	-1005.0	
1636893183.47406	-17.0	0.0	-171.0	-1.0	0.0	0.0	64.0	66.0	169.0	150.0	51.0	960.77	46.0	-49.0	-4.0	-994.0	
1636893183.52475	-11.0	0.0	-170.0	-4.0	0.0	0.0	64.0	66.0	167.0	150.0	51.0	960.78	46.0	-85.0	0.0	-1029.0	
1636893183.623778	-5.0	0.0	-171.0	-5.0	0.0	0.0	64.0	66.0	160.0	150.0	51.0	960.62	46.0	-86.0	-14.0	-1014.0	
1636893183.726804	-3.0	0.0	-171.0	-5.0	0.0	0.0	64.0	66.0	155.0	150.0	51.0	960.74	47.0	-73.0	-16.0	-974.0	
1636893183.83063	-1.0	0.0	-171.0	-5.0	0.0	0.0	64.0	66.0	156.0	150.0	51.0	960.61	47.0	-72.0	-9.0	-994.0	
1636893183.931408	0.0	0.0	-171.0	-4.0	0.0	0.0	64.0	66.0	157.0	150.0	51.0	960.77	47.0	-87.0	6.0	-1002.0	
1636893184.033658	0.0	0.0	-170.0	-3.0	0.0	0.0	64.0	66.0	158.0	150.0	51.0	960.81	47.0	-69.0	-9.0	-999.0	
1636893184.137006	-1.0	0.0	-170.0	-3.0	0.0	0.0	64.0	66.0	160.0	150.0	51.0	960.83	47.0	-73.0	-3.0	-999.0	
1636893184.238513	-4.0	0.0	-170.0	-3.0	0.0	0.0	64.0	66.0	159.0	150.0	51.0	960.73	47.0	-71.0	7.0	-1012.0	
1636893184.338311	-11.0	0.0	-170.0	-3.0	0.0	0.0	64.0	66.0	162.0	150.0	51.0	960.82	47.0	-64.0	5.0	-976.0	
1636893184.441515	-8.0	0.0	-170.0	-4.0	0.0	0.0	64.0	66.0	161.0	150.0	51.0	960.7	47.0	-80.0	3.0	-1018.0	
1636893184.544363	-4.0	0.0	-170.0	-5.0	-1.0	0.0	64.0	66.0	167.0	150.0	51.0	960.77	47.0	-92.0	0.0	-993.0	
1636893184.644299	-2.0	0.0	-170.0	-5.0	-1.0	0.0	64.0	66.0	168.0	150.0	51.0	960.67	47.0	-90.0	-9.0	-993.0	
1636893184.749309	-1.0	0.0	-171.0	-4.0	0.0	0.0	64.0	66.0	167.0	150.0	51.0	960.63	48.0	-76.0	-16.0	-978.0	
1636893184.848072	-1.0	0.0	-170.0	-4.0	0.0	0.0	64.0	66.0	169.0	150.0	51.0	960.66	48.0	-82.0	-11.0	-989.0	
1636893184.949852	-1.0	0.0	-170.0	-3.0	0.0	0.0	64.0	66.0	168.0	150.0	51.0	960.67	48.0	-88.0	-7.0	-987.0	
1636893185.05469	-1.0	0.0	-170.0	-3.0	0.0	0.0	64.0	66.0	167.0	150.0	51.0	960.72	48.0	-82.0	-7.0	-1009.0	
1636893185.157064	-5.0	0.0	-170.0	-2.0	0.0	0.0	64.0	66.0	170.0	150.0	51.0	960.74	48.0	-63.0	-12.0	-990.0	
1636893185.258331	-13.0	0.0	-171.0	-3.0	0.0	0.0	64.0	66.0	174.0	150.0	51.0	960.67	48.0	-67.0	-14.0	-977.0	
1636893185.3582	-17.0	0.0	-171.0	-5.0	0.0	0.0	64.0	65.0	175.0	150.0	51.0	960.71	48.0	-76.0	-22.0	-1001.0	
1636893185.461433	-12.0	1.0	-171.0	-7.0	-1.0	0.0	64.0	65.0	172.0	150.0	51.0	960.67	48.0	-104.0	-14.0	-1042.0	
1636893185.564011	-5.0	1.0	-170.0	-8.0	-1.0	0.0	64.0	65.0	167.0	150.0	51.0	960.62	48.0	-101.0	-12.0	-1027.0	
1636893185.665249	-1.0	0.0	-170.0	-8.0	-1.0	0.0	64.0	65.0	169.0	150.0	51.0	960.66	48.0	-96.0	2.0	-992.0	
1636893185.766495	-1.0	0.0	-170.0	-7.0	-1.0	0.0	64.0	65.0	168.0	150.0	51.0	960.69	49.0	-92.0	-5.0	-980.0	
1636893185.868434	0.0	0.0	-170.0	-6.0	-1.0	0.0	64.0	65.0	167.0	150.0	51.0	960.73	49.0	-83.0	-20.0	-977.0	
1636893185.973416	0.0	0.0	-171.0	-6.0	-1.0	0.0	64.0	65.0	170.0	150.0	51.0	960.67	49.0	-84.0	-14.0	-968.0	
1636893186.074519	0.0	0.0	-170.0	-5.0	0.0	0.0	64.0	65.0	167.0	150.0	51.0	960.7	49.0	-87.0	3.0	-997.0	
1636893186.174093	-3.0	0.0	-170.0	-4.0	0.0	0.0	64.0	65.0	167.0	150.0	51.0	960.72	49.0	-79.0	-19.0	-1001.0	
1636893186.278775	-10.0	0.0	-170.0	-5.0	0.0	0.0	64.0	65.0	172.0	150.0	51.0	960.61	49.0	-82.0	-9.0	-980.0	
1636893186.378564	-17.0	0.0	-170.0	-6.0	-1.0	0.0	64.0	66.0	176.0	150.0	51.0	960.65	49.0	-91.0	0.0	-1001.0	
1636893186.482624	-18.0	0.0	-171.0	-8.0	-1.0	0.0	64.0	66.0	177.0	150.0	51.0	960.47	49.0	-97.0	0.0	-979.0	
1636893186.582135	-9.0	0.0	-170.0	-10.0	-1.0	0.0	64.0	66.0	169.0	150.0	51.0	960.58	49.0	-136.0	-7.0	-1013.0	
1636893186.687659	-2.0	0.0	-170.0	-9.0	-1.0	0.0	64.0	66.0	169.0	150.0	51.0	960.53	49.0	-137.0	-1.0	-1019.0	
1636893186.786782	-1.0	0.0	-170.0	-9.0	-1.0	0.0	64.0	66.0	168.0	150.0	51.0	960.61	50.0	-121.0	-3.0	-1006.0	
1636893186.890554	-1.0	0.0	-170.0	-8.0	-1.0	0.0	64.0	66.0	169.0	150.0	51.0	960.38	50.0	-121.0	6.0	-963.0	
1636893186.993023	-1.0	0.0	-170.0	-7.0	-1.0	0.0	64.0	66.0	170.0	150.0	51.0	960.59	50.0	-119.0	4.0	-991.0	
1636893187.047233	-1.0	0.0	-171.0	-6.0	-1.0	0.0	64.0	66.0	170.0	150.0	51.0	960.53	50.0	-121.0	4.0	-976.0	
1636893187.147672	-2.0	0.0	-170.0	-5.0	-1.0	0.0	64.0	66.0	171.0	150.0	51.0	960.69	50.0	-114.0	8.0	-985.0	
1636893187.248967	-3.0	0.0	-171.0	-5.0	-1.0	0.0	64.0	66.0	168.0	150.0	51.0	960.63	50.0	-117.0	10.0	-1000.0	
1636893187.404856	-6.0	0.0	-171.0	-5.0	-1.0	0.0	63.0	66.0	170.0	150.0	51.0	960.64	50.0	-105.0	4.0	-987.0	
1636893187.503845	-8.0	0.0	-171.0	-5.0	-1.0	0.0	63.0	66.0	171.0	150.0	51.0	960.65	50.0	-89.0	0.0	-987.0	
1636893187.555371	-8.0	0.0	-171.0	-5.0	-1.0	0.0	63.0	66.0	168.0	150.0	51.0	960.61	50.0	-94.0	-1.0	-987.0	
1636893187.655991	-8.0	0.0	-171.0	-6.0	-1.0	0.0	63.0	66.0	172.0	150.0	51.0	960.61	50.0	-86.0	-3.0	-978.0	
1636893187.759202	-7.0	0.0	-171.0	-6.0	-1.0	0.0	63.0	66.0	171.0	150.0	51.0	960.63	51.0	-98.0	0.0	-987.0	
1636893187.861337	-7.0	0.0	-170.0	-7.0	-1.0	0.0	63.0	66.0	169.0	150.0	51.0	960.59	51.0	-113.0	-2.0	-987.0	
1636893187.963605	-7.0	0.0	-170.0	-7.0	-1.0	0.0	63.0	66.0	170.0	150.0	51.0	960.47	51.0	-109.0	7.0	-1002.0	
1636893188.064368	-7.0	0.0	-170.0	-7.0	-1.0	0.0	63.0	66.0	170.0	150.0	51.0	960.44	51.0	-114.0	1.0	-987.0	
1636893188.166554	-7.0	0.0	-171.0	-7.0	-1.0	0.0	63.0	66.0	171.0	150.0	51.0	960.38	51.0	-118.0	-7.0	-982.0	
1636893188.265437	-7.0	0.0	-171.0	-7.0	-1.0	0.0	63.0	66.0	169.0	150.0	51.0	960.47	51.0	-112.0	3.0	-969.0	
1636893188.367733	-7.0	0.0	-170.0	-8.0	-1.0	0.0	63.0	66.0	168.0	150.0	51.0	960.54	51.0	-113.0	-2.0	-982.0	
1636893188.471954	-7.0	0.0	-170.0	-8.0	-1.0	0.0	63.0	66.0	166.0	150.0	51.0	960.44	51.0	-126.0	12.0	-988.0	
1636893188.573515	-8.0	0.0	-170.0	-8.0	-1.0	0.0	63.0	66.0	167.0	150.0	51.0	960.47	51.0	-107.0	-8.0	-1012.0	
1636893188.676512	-7.0	0.0	-170.0	-8.0	-1.0	0.0	63.0	66.0	165.0	150.0	51.0	960.45	51.0	-112.0	-4.0	-972.0	
1636893188.777261	-3.0	0.0	-170.0	-8.0	-1.0	0.0	63.0	66.0	165.0	150.0	51.0	960.42	52.0	-122.0	5.0	-1021.0	
1636893188.87905	-1.0	0.0	-170.0	-8.0	-1.0	0.0	63.0	66.0	165.0	150.0	51.0	960.49	52.0	-113.0	5.0	-1015.0	
1636893188.979604	-1.0	0.0	-170.0	-7.0	-1.0	0.0	63.0	66.0	165.0	150.0	51.0	960.4	52.0	-101.0	-3.0	-980.0	
1636893189.082644	-1.0	-1.0	-171.0	-6.0	-1.0	0.0	63.0	66.0	166.0	150.0	51.0	960.39	52.0	-114.0	-3.0	-1019.0	
1636893189.18684	-1.0	0.0	-171.0	-5.0	0.0	0.0	63.0	66.0	165.0	150.0	51.0	960.43	52.0	-120.0	1.0	-996.0	
1636893189.289098	-1.0	0.0	-170.0	-5.0	0.0	0.0	63.0	66.0	163.0	150.0	51.0	960.45	52.0	-111.0	8.0	-996.0	
1636893189.391245	-2.0	0.0	-171.0	-4.0	0.0	0.0	62.0	65.0	166.0	150.0	51.0	960.49	52.0	-97.0	-2.0	-995.0	
1636893189.490418	-2.0	0.0	-170.0	-4.0	0.0	0.0	62.0	65.0	165.0	150.0	51.0	960.46	52.0	-95.0	6.0	-1002.0	
1636893189.591367	-2.0	0.0	-171.0	-3.0	0.0	0.0	62.0	65.0	165.0	150.0	51.0	960.61	52.0	-91.0	-4.0	-985.0	
1636893189.695793	-2.0	0.0	-171.0	-3.0	0.0	0.0	62.0	65.0	163.0	150.0	51.0	960.54	52.0	-78.0	-4.0	-993.0	
1636893189.79906	-2.0	0.0	-171.0	-2.0	0.0	0.0	62.0	65.0	164.0	150.0	51.0	960.5	53.0	-92.0	-2.0	-997.0	
1636893189.900822	-2.0	0.0	-170.0	-2.0	0.0	0.0	62.0	65.0	165.0	150.0	51.0	960.55	53.0	-92.0	-5.0	-984.0	
1636893190.000331	-2.0	0.0	-171.0	-2.0	0.0	0.0	62.0	65.0	164.0	150.0	51.0	960.58	53.0	-81.0	-5.0	-997.0	
1636893190.102193	-2.0	0.0	-171.0	-1.0	0.0	0.0	62.0	65.0	165.0	150.0	51.0	960.61	53.0	-82.0	-10.0	-974.0	
1636893190.20507	-3.0	0.0	-170.0	-1.0	0.0	0.0	62.0	65.0	164.0	150.0	51.0	960.53	53.0	-91.0	2.0	-993.0	
1636893190.308976	-3.0	0.0	-171.0	-1.0	0.0	0.0	62.0	65.0	164.0	150.0	51.0	960.66	53.0	-78.0	8.0	-973.0	
1636893190.41119	0.0	0.0	-171.0	-1.0	0.0	0.0	63.0	65.0	165.0	150.0	51.0	960.67	53.0	-81.0	-1.0	-992.0	
1636893190.512367	0.0	0.0	-171.0	0.0	0.0	0.0	63.0	65.0	166.0	150.0	51.0	960.71	53.0	-62.0	-5.0	-986.0	
1636893190.61414	2.0	0.0	-170.0	0.0	0.0	0.0	63.0	65.0	167.0	150.0	51.0	960.8	53.0	-66.0	0.0	-1001.0	
1636893190.717043	5.0	0.0	-170.0	1.0	0.0	0.0	63.0	65.0	166.0	150.0	51.0	960.76	53.0	-56.0	8.0	-1015.0	
1636893190.817076	5.0	0.0	-171.0	3.0	0.0	0.0	63.0	65.0	166.0	150.0	51.0	960.81	54.0	-39.0	8.0	-992.0	
1636893190.920596	6.0	0.0	-171.0	4.0	0.0	0.0	63.0	65.0	165.0	150.0	51.0	960.86	54.0	-28.0	-3.0	-1004.0	
1636893191.01965	7.0	0.0	-170.0	6.0	0.0	0.0	63.0	65.0	166.0	150.0	51.0	960.89	54.0	-23.0	2.0	-1005.0	
1636893191.121423	7.0	0.0	-170.0	7.0	0.0	0.0	63.0	65.0	165.0	150.0	51.0	960.9	54.0	-19.0	12.0	-1011.0	
1636893191.227059	7.0	0.0	-170.0	9.0	1.0	0.0	63.0	65.0	166.0	150.0	51.0	960.86	54.0	0.0	-3.0	-1000.0	
1636893191.325611	7.0	0.0	-170.0	10.0	1.0	0.0	63.0	65.0	165.0	150.0	51.0	960.97	54.0	-4.0	2.0	-1034.0	
1636893191.427524	3.0	-1.0	-170.0	11.0	1.0	0.0	63.0	65.0	164.0	150.0	51.0	960.89	54.0	20.0	3.0	-988.0	
1636893191.532998	-2.0	-1.0	-170.0	12.0	1.0	0.0	63.0	65.0	164.0	150.0	51.0	960.93	54.0	16.0	8.0	-984.0	
1636893191.632775	-4.0	0.0	-170.0	11.0	1.0	0.0	63.0	65.0	164.0	150.0	51.0	960.93	54.0	8.0	5.0	-1002.0	
1636893191.683191	-5.0	0.0	-170.0	10.0	1.0	0.0	63.0	65.0	162.0	150.0	51.0	960.99	54.0	6.0	1.0	-1006.0	
1636893191.788564	-6.0	0.0	-170.0	9.0	1.0	0.0	63.0	65.0	164.0	150.0	51.0	960.94	55.0	-2.0	3.0	-1008.0	
1636893191.889236	-6.0	0.0	-170.0	8.0	1.0	0.0	63.0	65.0	164.0	150.0	51.0	960.97	55.0	-11.0	0.0	-991.0	
1636893191.991351	-6.0	0.0	-170.0	7.0	0.0	0.0	63.0	65.0	163.0	150.0	51.0	960.9	55.0	-24.0	6.0	-1019.0	
1636893192.091375	-5.0	0.0	-171.0	6.0	0.0	0.0	63.0	65.0	164.0	150.0	51.0	960.96	55.0	-25.0	12.0	-1001.0	
1636893192.197053	-5.0	0.0	-171.0	6.0	0.0	0.0	63.0	65.0	164.0	150.0	51.0	960.96	55.0	-25.0	4.0	-1001.0	
1636893192.295207	-5.0	0.0	-171.0	5.0	0.0	0.0	63.0	65.0	163.0	150.0	51.0	960.83	55.0	-29.0	9.0	-998.0	
1636893192.399755	2.0	-1.0	-171.0	4.0	0.0	0.0	62.0	65.0	163.0	150.0	51.0	960.93	55.0	-48.0	18.0	-1016.0	
1636893192.501295	7.0	-1.0	-171.0	5.0	0.0	0.0	62.0	65.0	162.0	150.0	51.0	960.9	55.0	-42.0	-10.0	-1034.0	
1636893192.60333	3.0	-1.0	-171.0	7.0	1.0	0.0	62.0	65.0	162.0	150.0	51.0	960.97	55.0	-17.0	-17.0	-1042.0	
1636893192.703261	-2.0	0.0	-171.0	7.0	1.0	0.0	62.0	65.0	161.0	150.0	51.0	960.96	56.0	-15.0	0.0	-1021.0	
1636893192.806544	-4.0	0.0	-171.0	7.0	1.0	0.0	62.0	65.0	163.0	150.0	51.0	960.88	56.0	-19.0	24.0	-1012.0	
1636893192.907104	-4.0	0.0	-171.0	6.0	0.0	0.0	62.0	65.0	162.0	150.0	51.0	960.83	56.0	-23.0	17.0	-991.0	
1636893193.009565	-4.0	-1.0	-171.0	5.0	0.0	0.0	62.0	65.0	165.0	150.0	51.0	960.91	56.0	-14.0	-2.0	-999.0	
1636893193.114435	-4.0	0.0	-171.0	5.0	0.0	0.0	62.0	65.0	162.0	150.0	51.0	960.81	56.0	-34.0	1.0	-988.0	
1636893193.215848	-4.0	0.0	-171.0	4.0	0.0	0.0	62.0	65.0	163.0	150.0	51.0	960.9	56.0	-21.0	-5.0	-1005.0	
1636893193.31833	-2.0	0.0	-171.0	4.0	0.0	0.0	62.0	65.0	162.0	150.0	51.0	960.9	56.0	-18.0	-4.0	-993.0	
1636893193.417738	4.0	0.0	-171.0	4.0	0.0	0.0	62.0	65.0	164.0	150.0	51.0	960.89	56.0	-21.0	-4.0	-1009.0	
1636893193.520976	8.0	0.0	-171.0	5.0	0.0	0.0	62.0	65.0	166.0	150.0	51.0	960.86	56.0	-53.0	23.0	-1061.0	
1636893193.622114	7.0	0.0	-171.0	7.0	1.0	0.0	62.0	65.0	167.0	150.0	51.0	960.98	56.0	-27.0	11.0	-1020.0	
1636893193.725545	7.0	0.0	-171.0	8.0	1.0	0.0	62.0	65.0	167.0	150.0	51.0	960.97	57.0	-16.0	13.0	-1024.0	
1636893193.827421	4.0	0.0	-170.0	10.0	1.0	0.0	62.0	65.0	167.0	150.0	51.0	961.0	57.0	-28.0	17.0	-1059.0	
1636893193.92841	-1.0	0.0	-170.0	10.0	1.0	0.0	62.0	65.0	168.0	150.0	51.0	961.03	57.0	13.0	12.0	-985.0	
1636893194.031227	-4.0	0.0	-170.0	10.0	1.0	0.0	62.0	65.0	168.0	150.0	51.0	960.94	57.0	17.0	2.0	-977.0	
1636893194.130469	-5.0	0.0	-170.0	9.0	1.0	0.0	62.0	65.0	169.0	150.0	51.0	961.03	57.0	8.0	5.0	-993.0	
1636893194.233756	-5.0	0.0	-170.0	8.0	1.0	0.0	62.0	65.0	171.0	150.0	51.0	961.0	57.0	0.0	14.0	-988.0	
1636893194.340123	-5.0	0.0	-170.0	7.0	1.0	0.0	62.0	65.0	171.0	150.0	51.0	961.07	57.0	-5.0	10.0	-996.0	
1636893194.439138	-5.0	0.0	-170.0	6.0	1.0	0.0	62.0	63.0	171.0	150.0	51.0	961.01	57.0	-3.0	-1.0	-991.0	
1636893194.53877	-5.0	0.0	-170.0	6.0	0.0	0.0	62.0	63.0	172.0	160.0	51.0	961.05	57.0	-16.0	5.0	-991.0	
1636893194.644277	-4.0	0.0	-170.0	5.0	0.0	0.0	62.0	63.0	171.0	160.0	51.0	960.98	57.0	-4.0	-3.0	-992.0	
1636893194.746451	1.0	0.0	-170.0	5.0	0.0	0.0	62.0	63.0	172.0	160.0	51.0	961.1	58.0	-9.0	-4.0	-959.0	
1636893194.848288	8.0	0.0	-170.0	5.0	0.0	0.0	62.0	63.0	172.0	160.0	51.0	960.97	58.0	-29.0	6.0	-1008.0	
1636893194.948994	5.0	0.0	-170.0	7.0	1.0	0.0	62.0	63.0	173.0	160.0	51.0	961.02	58.0	-28.0	0.0	-1048.0	
1636893195.05072	0.0	0.0	-170.0	8.0	1.0	0.0	62.0	63.0	171.0	160.0	51.0	961.0	58.0	-1.0	-1.0	-1003.0	
1636893195.152632	-3.0	0.0	-170.0	7.0	1.0	0.0	62.0	63.0	169.0	160.0	51.0	961.04	58.0	9.0	0.0	-976.0	
1636893195.203659	-4.0	0.0	-170.0	7.0	1.0	0.0	62.0	63.0	168.0	160.0	51.0	961.04	58.0	-7.0	0.0	-991.0	
1636893195.306576	-4.0	0.0	-170.0	6.0	0.0	0.0	62.0	63.0	169.0	160.0	51.0	961.06	58.0	-12.0	16.0	-993.0	
1636893195.459487	-4.0	0.0	-170.0	6.0	0.0	0.0	63.0	64.0	169.0	150.0	51.0	961.01	58.0	-19.0	12.0	-984.0	
1636893195.57025	-4.0	0.0	-170.0	5.0	0.0	0.0	63.0	64.0	166.0	150.0	51.0	961.04	58.0	-10.0	7.0	-1004.0	
1636893195.671133	-4.0	0.0	-170.0	4.0	0.0	0.0	63.0	64.0	166.0	150.0	51.0	960.95	58.0	-22.0	6.0	-1011.0	
1636893195.773173	-4.0	-1.0	-170.0	4.0	0.0	0.0	63.0	64.0	163.0	150.0	51.0	960.99	59.0	-29.0	4.0	-1014.0	
1636893195.87763	-4.0	-1.0	-171.0	3.0	0.0	1.0	63.0	64.0	162.0	150.0	51.0	960.95	59.0	-34.0	8.0	-1009.0	
1636893195.929348	0.0	-1.0	-171.0	3.0	0.0	0.0	63.0	64.0	163.0	150.0	51.0	960.91	59.0	-7.0	-9.0	-972.0	
1636893196.029069	7.0	0.0	-171.0	4.0	0.0	0.0	63.0	64.0	165.0	150.0	51.0	960.92	59.0	-39.0	9.0	-998.0	
1636893196.122896	7.0	0.0	-171.0	5.0	0.0	0.0	63.0	64.0	164.0	150.0	51.0	960.91	59.0	-36.0	6.0	-1029.0	
1636893196.228281	7.0	0.0	-171.0	7.0	1.0	0.0	63.0	64.0	163.0	150.0	51.0	960.93	59.0	0.0	-9.0	-1031.0	
1636893196.366297	6.0	0.0	-171.0	8.0	1.0	0.0	63.0	64.0	161.0	150.0	51.0	960.94	59.0	-5.0	-2.0	-1052.0	
1636893196.427624	1.0	0.0	-171.0	9.0	1.0	0.0	62.0	64.0	163.0	150.0	51.0	961.02	59.0	5.0	-21.0	-1000.0	
1636893196.537247	-2.0	0.0	-171.0	9.0	1.0	0.0	62.0	64.0	161.0	150.0	51.0	961.01	59.0	-30.0	9.0	-1046.0	
1636893196.671966	-4.0	0.0	-171.0	8.0	1.0	0.0	62.0	64.0	163.0	150.0	51.0	961.02	59.0	4.0	-7.0	-1003.0	
1636893196.743003	-4.0	0.0	-171.0	8.0	1.0	0.0	62.0	64.0	162.0	150.0	51.0	960.97	60.0	-5.0	10.0	-983.0	
1636893196.83735	-5.0	0.0	-171.0	7.0	1.0	0.0	62.0	64.0	165.0	150.0	51.0	961.06	60.0	0.0	-1.0	-1012.0	
1636893196.978916	-5.0	0.0	-170.0	6.0	0.0	0.0	62.0	64.0	164.0	150.0	51.0	961.01	60.0	2.0	-5.0	-1017.0	
1636893197.046681	-5.0	0.0	-170.0	6.0	0.0	0.0	62.0	64.0	165.0	150.0	51.0	960.98	60.0	-6.0	-5.0	-995.0	
1636893197.141801	-5.0	0.0	-171.0	5.0	0.0	0.0	62.0	64.0	166.0	150.0	51.0	960.99	60.0	-23.0	4.0	-1010.0	
1636893197.241872	-5.0	0.0	-171.0	5.0	0.0	0.0	62.0	64.0	165.0	150.0	51.0	960.98	60.0	-23.0	5.0	-996.0	
1636893197.357718	-5.0	0.0	-171.0	4.0	0.0	0.0	62.0	64.0	166.0	150.0	51.0	960.88	60.0	-19.0	1.0	-992.0	
1636893197.457768	-4.0	0.0	-171.0	3.0	0.0	0.0	61.0	64.0	167.0	150.0	51.0	960.88	60.0	-15.0	-17.0	-985.0	
1636893197.552179	-4.0	0.0	-171.0	3.0	0.0	0.0	61.0	64.0	167.0	150.0	51.0	960.82	60.0	-50.0	-3.0	-989.0	
1636893197.665446	-4.0	0.0	-171.0	3.0	0.0	0.0	61.0	64.0	166.0	150.0	51.0	961.0	60.0	-27.0	-32.0	-998.0	
1636893197.753407	-7.0	0.0	-170.0	2.0	0.0	0.0	61.0	64.0	168.0	150.0	51.0	960.87	61.0	-32.0	-4.0	-984.0	
1636893197.857207	-7.0	0.0	-170.0	1.0	0.0	0.0	61.0	64.0	168.0	150.0	51.0	960.93	61.0	-51.0	-3.0	-993.0	
1636893197.969585	-7.0	0.0	-170.0	0.0	0.0	0.0	61.0	64.0	167.0	150.0	51.0	960.92	61.0	-60.0	-2.0	-1001.0	
1636893198.058102	-7.0	0.0	-170.0	0.0	0.0	0.0	61.0	64.0	167.0	150.0	51.0	960.89	61.0	-58.0	-2.0	-1003.0	
1636893198.159288	-7.0	0.0	-170.0	0.0	0.0	0.0	61.0	64.0	167.0	150.0	51.0	960.92	61.0	-62.0	-4.0	-1003.0	
1636893198.280705	-7.0	0.0	-170.0	-1.0	0.0	0.0	61.0	64.0	167.0	150.0	51.0	960.88	61.0	-65.0	-7.0	-1001.0	
1636893198.380692	-7.0	0.0	-170.0	-1.0	0.0	0.0	61.0	64.0	167.0	150.0	51.0	960.9	61.0	-65.0	-8.0	-987.0	
1636893198.467723	-7.0	0.0	-170.0	-2.0	0.0	0.0	62.0	64.0	171.0	150.0	51.0	960.84	61.0	-71.0	-7.0	-985.0	
1636893198.58754	-7.0	0.0	-170.0	-3.0	0.0	0.0	62.0	64.0	171.0	150.0	51.0	960.83	61.0	-80.0	-8.0	-991.0	
1636893198.669669	-7.0	0.0	-170.0	-3.0	0.0	0.0	62.0	64.0	170.0	150.0	51.0	960.73	61.0	-91.0	-3.0	-981.0	
1636893198.77175	-7.0	0.0	-170.0	-4.0	0.0	0.0	62.0	64.0	170.0	150.0	51.0	960.7	62.0	-87.0	-4.0	-1001.0	
1636893198.891005	-7.0	0.0	-170.0	-4.0	-1.0	0.0	62.0	64.0	170.0	150.0	51.0	960.71	62.0	-101.0	7.0	-982.0	
1636893198.978556	-7.0	0.0	-170.0	-5.0	-1.0	0.0	62.0	64.0	168.0	150.0	51.0	960.69	62.0	-96.0	-5.0	-976.0	
1636893199.07783	-7.0	0.0	-170.0	-5.0	-1.0	0.0	62.0	64.0	169.0	150.0	51.0	960.82	62.0	-116.0	10.0	-1006.0	
1636893199.20259	-7.0	-1.0	-171.0	-6.0	-1.0	0.0	62.0	64.0	171.0	150.0	51.0	960.67	62.0	-101.0	-4.0	-951.0	
1636893199.301993	-4.0	0.0	-171.0	-6.0	-1.0	0.0	62.0	64.0	168.0	150.0	51.0	960.66	62.0	-110.0	-2.0	-986.0	
1636893199.369896	-3.0	0.0	-171.0	-5.0	0.0	0.0	62.0	64.0	168.0	150.0	51.0	960.58	62.0	-105.0	-9.0	-964.0	
1636893199.507684	-2.0	0.0	-171.0	-5.0	0.0	0.0	61.0	64.0	164.0	150.0	51.0	960.67	62.0	-111.0	2.0	-995.0	
1636893199.574917	-2.0	0.0	-171.0	-4.0	0.0	0.0	61.0	64.0	165.0	150.0	51.0	960.66	62.0	-97.0	-2.0	-1012.0	
1636893199.644283	-4.0	0.0	-171.0	-4.0	0.0	0.0	61.0	64.0	164.0	150.0	51.0	960.71	62.0	-115.0	-1.0	-1029.0	
1636893199.745457	-8.0	0.0	-171.0	-4.0	0.0	0.0	61.0	64.0	164.0	150.0	51.0	960.61	63.0	-85.0	-6.0	-986.0	
1636893199.882719	-7.0	0.0	-171.0	-5.0	0.0	0.0	61.0	64.0	164.0	150.0	51.0	960.56	63.0	-95.0	-26.0	-1000.0	
1636893199.947337	-7.0	0.0	-171.0	-5.0	0.0	0.0	61.0	64.0	162.0	150.0	51.0	960.45	63.0	-96.0	-45.0	-1004.0	
1636893200.048013	-6.0	0.0	-171.0	-5.0	0.0	0.0	61.0	64.0	162.0	150.0	51.0	960.41	63.0	-84.0	-27.0	-982.0	
1636893200.150244	-3.0	0.0	-171.0	-5.0	0.0	0.0	61.0	64.0	161.0	150.0	51.0	960.52	63.0	-105.0	-16.0	-1011.0	
1636893200.254432	-2.0	1.0	-170.0	-5.0	0.0	0.0	61.0	64.0	160.0	150.0	51.0	960.55	63.0	-95.0	-19.0	-1028.0	
1636893200.35666	-2.0	1.0	-170.0	-4.0	0.0	0.0	61.0	64.0	161.0	150.0	51.0	960.52	63.0	-100.0	-4.0	-1017.0	
1636893200.458506	-2.0	0.0	-170.0	-4.0	0.0	0.0	62.0	64.0	160.0	150.0	51.0	960.59	63.0	-100.0	0.0	-994.0	
1636893200.556312	-2.0	0.0	-170.0	-3.0	0.0	0.0	62.0	64.0	160.0	150.0	51.0	960.66	63.0	-89.0	0.0	-978.0	
1636893200.661046	-2.0	0.0	-170.0	-3.0	0.0	0.0	62.0	64.0	160.0	150.0	51.0	960.5	63.0	-100.0	-1.0	-992.0	
1636893200.760922	-5.0	0.0	-170.0	-3.0	0.0	0.0	62.0	64.0	161.0	150.0	51.0	960.56	64.0	-95.0	-2.0	-1011.0	
1636893200.865862	-8.0	0.0	-171.0	-3.0	0.0	0.0	62.0	64.0	161.0	150.0	51.0	960.57	64.0	-69.0	-29.0	-989.0	
1636893200.96674	-7.0	0.0	-171.0	-4.0	0.0	0.0	62.0	64.0	161.0	150.0	51.0	960.44	64.0	-97.0	-16.0	-998.0	
1636893201.066279	-8.0	0.0	-171.0	-4.0	0.0	0.0	62.0	64.0	159.0	150.0	51.0	960.63	64.0	-91.0	-25.0	-1006.0	
1636893201.172232	-7.0	0.0	-171.0	-5.0	0.0	0.0	62.0	64.0	160.0	150.0	51.0	960.57	64.0	-82.0	-20.0	-997.0	
1636893201.270312	-7.0	0.0	-170.0	-5.0	0.0	0.0	62.0	64.0	160.0	150.0	51.0	960.48	64.0	-83.0	-16.0	-968.0	
1636893201.373358	-7.0	0.0	-170.0	-6.0	0.0	0.0	62.0	64.0	159.0	150.0	51.0	960.51	64.0	-96.0	-28.0	-1006.0	
1636893201.476544	-7.0	0.0	-170.0	-6.0	0.0	0.0	62.0	64.0	157.0	150.0	51.0	960.42	64.0	-97.0	-17.0	-1016.0	
1636893201.577769	-7.0	0.0	-170.0	-7.0	0.0	0.0	62.0	64.0	159.0	150.0	51.0	960.27	64.0	-106.0	-10.0	-998.0	
1636893201.680205	-7.0	0.0	-170.0	-7.0	0.0	0.0	62.0	64.0	160.0	150.0	51.0	960.56	64.0	-108.0	-18.0	-1004.0	
1636893201.780082	-7.0	0.0	-170.0	-7.0	0.0	0.0	62.0	64.0	160.0	150.0	51.0	960.45	65.0	-118.0	-4.0	-1002.0	
1636893201.886176	-7.0	0.0	-170.0	-7.0	0.0	0.0	62.0	64.0	160.0	150.0	50.0	960.41	65.0	-113.0	3.0	-1004.0	
1636893201.985197	-7.0	0.0	-170.0	-7.0	0.0	0.0	62.0	64.0	161.0	150.0	50.0	960.48	65.0	-110.0	7.0	-992.0	
1636893202.087587	-7.0	0.0	-171.0	-8.0	0.0	0.0	62.0	64.0	160.0	150.0	50.0	960.34	65.0	-125.0	5.0	-993.0	
1636893202.191832	-7.0	0.0	-170.0	-8.0	0.0	0.0	62.0	64.0	162.0	150.0	50.0	960.3	65.0	-134.0	10.0	-1001.0	
1636893202.291312	-7.0	0.0	-170.0	-8.0	0.0	0.0	62.0	64.0	163.0	150.0	50.0	960.31	65.0	-139.0	7.0	-970.0	
1636893202.392736	-7.0	0.0	-170.0	-7.0	0.0	0.0	62.0	64.0	162.0	150.0	50.0	960.39	65.0	-133.0	-2.0	-993.0	
1636893202.495372	-7.0	0.0	-170.0	-8.0	0.0	0.0	61.0	64.0	163.0	150.0	50.0	960.46	65.0	-120.0	0.0	-1007.0	
1636893202.598013	-7.0	0.0	-170.0	-8.0	-1.0	0.0	61.0	64.0	162.0	150.0	50.0	960.48	65.0	-134.0	-4.0	-1001.0	
1636893202.698048	-7.0	0.0	-170.0	-8.0	0.0	0.0	61.0	64.0	164.0	150.0	50.0	960.42	65.0	-133.0	-9.0	-979.0	
1636893202.803249	-7.0	0.0	-170.0	-8.0	0.0	0.0	61.0	64.0	162.0	150.0	50.0	960.38	66.0	-127.0	-16.0	-1007.0	
1636893202.903648	-7.0	0.0	-170.0	-8.0	0.0	0.0	61.0	64.0	161.0	150.0	50.0	960.29	66.0	-147.0	-9.0	-979.0	
1636893203.006594	-7.0	0.0	-170.0	-8.0	0.0	0.0	61.0	64.0	161.0	150.0	50.0	960.24	66.0	-153.0	0.0	-982.0	
1636893203.10802	-7.0	0.0	-170.0	-8.0	0.0	0.0	61.0	64.0	162.0	150.0	50.0	960.33	66.0	-141.0	-8.0	-995.0	
1636893203.160831	-7.0	0.0	-170.0	-8.0	0.0	0.0	61.0	64.0	162.0	150.0	50.0	960.35	66.0	-132.0	-14.0	-1001.0	
1636893203.261944	-7.0	0.0	-170.0	-8.0	0.0	0.0	61.0	64.0	162.0	150.0	50.0	960.36	66.0	-118.0	-26.0	-1010.0	
1636893203.360732	-7.0	1.0	-171.0	-8.0	-1.0	0.0	61.0	64.0	162.0	150.0	50.0	960.33	66.0	-139.0	8.0	-988.0	
1636893203.466532	-7.0	0.0	-171.0	-8.0	-1.0	0.0	61.0	64.0	163.0	150.0	50.0	960.4	66.0	-140.0	7.0	-978.0	
1636893203.566715	-7.0	0.0	-171.0	-8.0	-1.0	0.0	61.0	64.0	164.0	150.0	50.0	960.32	66.0	-119.0	-8.0	-983.0	
1636893203.669003	-5.0	0.0	-171.0	-8.0	-1.0	0.0	61.0	64.0	163.0	150.0	50.0	960.32	66.0	-121.0	-8.0	-998.0	
1636893203.770716	-3.0	0.0	-170.0	-8.0	-1.0	0.0	61.0	64.0	162.0	150.0	50.0	960.46	67.0	-120.0	-18.0	-1010.0	
1636893203.875413	-2.0	0.0	-170.0	-7.0	-1.0	0.0	61.0	64.0	162.0	150.0	49.0	960.34	67.0	-104.0	-22.0	-1008.0	
1636893203.977784	-4.0	0.0	-171.0	-7.0	0.0	0.0	61.0	64.0	162.0	150.0	49.0	960.48	67.0	-110.0	-24.0	-1012.0	
1636893204.081361	-7.0	0.0	-170.0	-7.0	0.0	0.0	61.0	64.0	162.0	150.0	49.0	960.36	67.0	-90.0	-24.0	-991.0	
1636893204.178224	-4.0	0.0	-170.0	-7.0	0.0	0.0	61.0	64.0	162.0	150.0	49.0	960.27	67.0	-126.0	3.0	-985.0	
1636893204.280861	-2.0	1.0	-170.0	-6.0	0.0	0.0	61.0	64.0	160.0	150.0	49.0	960.37	67.0	-114.0	6.0	-984.0	
1636893204.384944	-2.0	0.0	-171.0	-6.0	-1.0	0.0	61.0	64.0	162.0	150.0	49.0	960.38	67.0	-113.0	18.0	-1021.0	
1636893204.486627	-2.0	0.0	-171.0	-5.0	-1.0	0.0	61.0	63.0	160.0	150.0	49.0	960.25	67.0	-102.0	-8.0	-984.0	
1636893204.588871	-2.0	-1.0	-171.0	-4.0	0.0	0.0	61.0	63.0	159.0	150.0	49.0	960.39	67.0	-107.0	-25.0	-1016.0	
1636893204.691478	-3.0	-1.0	-171.0	-4.0	0.0	0.0	61.0	63.0	162.0	150.0	49.0	960.4	67.0	-110.0	-2.0	-986.0	
1636893204.793364	-3.0	0.0	-170.0	-3.0	0.0	0.0	61.0	63.0	160.0	150.0	49.0	960.47	68.0	-103.0	-1.0	-1011.0	
1636893204.896197	-3.0	1.0	-170.0	-3.0	0.0	0.0	61.0	63.0	158.0	150.0	49.0	960.44	68.0	-101.0	3.0	-1011.0	
1636893204.99765	-3.0	0.0	-171.0	-2.0	0.0	0.0	61.0	63.0	160.0	150.0	49.0	960.45	68.0	-93.0	-3.0	-995.0	
1636893205.096997	-3.0	0.0	-171.0	-2.0	0.0	0.0	61.0	63.0	159.0	150.0	49.0	960.49	68.0	-86.0	-13.0	-1027.0	
1636893205.19885	-5.0	0.0	-171.0	-1.0	0.0	0.0	61.0	63.0	161.0	150.0	49.0	960.64	68.0	-75.0	-15.0	-1000.0	
1636893205.30272	-8.0	0.0	-170.0	-2.0	0.0	0.0	61.0	63.0	161.0	150.0	49.0	960.54	68.0	-75.0	-21.0	-1005.0	
1636893205.405772	-7.0	0.0	-170.0	-2.0	0.0	0.0	61.0	63.0	162.0	150.0	49.0	960.44	68.0	-85.0	-12.0	-996.0	
1636893205.505418	-7.0	0.0	-170.0	-3.0	0.0	0.0	61.0	64.0	162.0	150.0	49.0	960.39	68.0	-95.0	-7.0	-1010.0	
1636893205.608799	-7.0	0.0	-171.0	-4.0	0.0	0.0	61.0	64.0	163.0	150.0	49.0	960.48	68.0	-89.0	0.0	-998.0	
1636893205.707929	-7.0	0.0	-171.0	-4.0	0.0	0.0	61.0	64.0	160.0	150.0	49.0	960.52	69.0	-96.0	1.0	-989.0	
1636893205.810614	-8.0	0.0	-171.0	-4.0	0.0	0.0	61.0	64.0	162.0	150.0	49.0	960.46	69.0	-76.0	-11.0	-983.0	
1636893205.911997	-8.0	0.0	-170.0	-5.0	0.0	0.0	61.0	64.0	164.0	150.0	49.0	960.55	69.0	-96.0	-8.0	-997.0	
1636893206.015294	-5.0	0.0	-170.0	-5.0	0.0	0.0	61.0	64.0	164.0	150.0	49.0	960.48	69.0	-90.0	-10.0	-1005.0	
1636893206.11769	-2.0	0.0	-170.0	-5.0	0.0	0.0	61.0	64.0	165.0	150.0	49.0	960.34	69.0	-105.0	2.0	-1016.0	
1636893206.218492	-2.0	0.0	-171.0	-4.0	0.0	0.0	61.0	64.0	163.0	150.0	49.0	960.54	69.0	-111.0	-8.0	-1013.0	
1636893206.320221	-2.0	0.0	-171.0	-4.0	0.0	0.0	61.0	64.0	162.0	150.0	49.0	960.35	69.0	-106.0	-20.0	-980.0	
1636893206.425501	-4.0	0.0	-171.0	-4.0	0.0	0.0	61.0	64.0	165.0	150.0	49.0	960.41	69.0	-84.0	-24.0	-976.0	
1636893206.527109	-8.0	0.0	-171.0	-4.0	0.0	0.0	61.0	63.0	166.0	150.0	49.0	960.54	69.0	-85.0	-6.0	-948.0	
1636893206.626189	-8.0	0.0	-171.0	-4.0	0.0	0.0	61.0	63.0	168.0	150.0	49.0	960.44	69.0	-91.0	-22.0	-970.0	
1636893206.728844	-7.0	0.0	-170.0	-5.0	0.0	0.0	61.0	63.0	170.0	150.0	49.0	960.43	70.0	-81.0	-25.0	-955.0	
1636893206.8315	-7.0	0.0	-171.0	-5.0	0.0	0.0	61.0	63.0	167.0	150.0	49.0	960.46	70.0	-76.0	-31.0	-975.0	
1636893206.935866	-8.0	0.0	-170.0	-6.0	0.0	0.0	61.0	63.0	168.0	150.0	49.0	960.55	70.0	-85.0	-20.0	-998.0	
1636893207.039464	-7.0	0.0	-170.0	-6.0	0.0	0.0	61.0	63.0	166.0	150.0	49.0	960.49	70.0	-95.0	-18.0	-993.0	
1636893207.138157	-6.0	1.0	-170.0	-7.0	0.0	0.0	61.0	63.0	167.0	150.0	49.0	960.42	70.0	-77.0	-44.0	-949.0	
1636893207.239944	-3.0	2.0	-170.0	-7.0	0.0	0.0	61.0	63.0	164.0	150.0	49.0	960.45	70.0	-109.0	-13.0	-965.0	
1636893207.341645	-1.0	1.0	-170.0	-6.0	0.0	0.0	61.0	63.0	163.0	150.0	49.0	960.42	70.0	-106.0	-10.0	-1003.0	
1636893207.394418	-2.0	1.0	-171.0	-5.0	0.0	0.0	61.0	63.0	162.0	150.0	49.0	960.29	70.0	-125.0	0.0	-1043.0	
1636893207.548828	-7.0	0.0	-171.0	-5.0	0.0	0.0	61.0	63.0	162.0	150.0	49.0	960.19	70.0	-127.0	12.0	-1026.0	
1636893207.647208	-7.0	0.0	-171.0	-5.0	0.0	0.0	61.0	63.0	163.0	150.0	49.0	960.3	70.0	-108.0	-9.0	-998.0	
1636893207.696803	-7.0	0.0	-171.0	-5.0	0.0	0.0	61.0	63.0	162.0	150.0	49.0	960.32	71.0	-125.0	-7.0	-990.0	
1636893207.801241	-5.0	0.0	-171.0	-5.0	0.0	0.0	61.0	63.0	161.0	150.0	49.0	960.18	71.0	-130.0	10.0	-996.0	
1636893207.904465	-4.0	0.0	-170.0	-5.0	0.0	0.0	61.0	63.0	160.0	150.0	48.0	960.41	71.0	-122.0	-15.0	-993.0	
1636893208.005845	-4.0	0.0	-171.0	-4.0	0.0	0.0	61.0	63.0	160.0	150.0	48.0	960.44	71.0	-119.0	-5.0	-983.0	
1636893208.108311	-3.0	0.0	-171.0	-4.0	0.0	0.0	61.0	63.0	159.0	150.0	48.0	960.37	71.0	-125.0	0.0	-1002.0	
1636893208.210351	-3.0	0.0	-171.0	-3.0	0.0	0.0	61.0	63.0	159.0	150.0	48.0	960.36	71.0	-124.0	19.0	-1003.0	
1636893208.312757	-3.0	0.0	-170.0	-3.0	0.0	0.0	61.0	63.0	158.0	150.0	48.0	960.49	71.0	-108.0	-5.0	-1009.0	
1636893208.413881	-3.0	0.0	-170.0	-3.0	0.0	0.0	61.0	63.0	160.0	150.0	48.0	960.48	71.0	-105.0	2.0	-1003.0	
1636893208.516155	-3.0	0.0	-170.0	-2.0	0.0	0.0	61.0	63.0	159.0	150.0	48.0	960.41	71.0	-102.0	11.0	-1000.0	
1636893208.617033	-3.0	0.0	-171.0	-2.0	0.0	0.0	61.0	63.0	160.0	150.0	48.0	960.43	71.0	-102.0	0.0	-986.0	
1636893208.719164	-3.0	0.0	-171.0	-2.0	0.0	0.0	61.0	63.0	160.0	150.0	48.0	960.56	72.0	-89.0	-4.0	-1001.0	
1636893208.822176	-3.0	0.0	-171.0	-2.0	0.0	0.0	61.0	63.0	160.0	150.0	48.0	960.47	72.0	-93.0	0.0	-1012.0	
1636893208.921442	-3.0	0.0	-170.0	-1.0	0.0	0.0	61.0	63.0	159.0	150.0	48.0	960.48	72.0	-86.0	-8.0	-999.0	
1636893209.024469	-3.0	0.0	-170.0	-1.0	0.0	0.0	61.0	63.0	158.0	150.0	48.0	960.5	72.0	-91.0	5.0	-1016.0	
1636893209.125408	0.0	0.0	-170.0	-1.0	0.0	0.0	61.0	63.0	158.0	150.0	48.0	960.57	72.0	-84.0	11.0	-978.0	
1636893209.229591	-1.0	-1.0	-170.0	0.0	0.0	0.0	61.0	63.0	159.0	150.0	48.0	960.52	72.0	-86.0	-1.0	-1015.0	
1636893209.332457	-3.0	0.0	-170.0	0.0	0.0	0.0	61.0	63.0	160.0	150.0	48.0	960.54	72.0	-76.0	1.0	-997.0	
1636893209.432265	-4.0	0.0	-170.0	0.0	0.0	0.0	61.0	63.0	159.0	150.0	48.0	960.54	72.0	-75.0	6.0	-988.0	
1636893209.534369	-4.0	0.0	-170.0	0.0	0.0	0.0	61.0	63.0	158.0	150.0	48.0	960.56	72.0	-73.0	9.0	-988.0	
1636893209.641601	0.0	0.0	-170.0	0.0	0.0	0.0	61.0	63.0	160.0	150.0	48.0	960.53	72.0	-75.0	2.0	-1002.0	
1636893209.73977	7.0	0.0	-170.0	1.0	0.0	0.0	61.0	63.0	161.0	150.0	48.0	960.65	73.0	-62.0	-4.0	-982.0	
1636893209.8405	6.0	0.0	-171.0	3.0	0.0	0.0	61.0	63.0	162.0	150.0	48.0	960.76	73.0	-66.0	-1.0	-975.0	
1636893209.942739	0.0	0.0	-171.0	5.0	0.0	0.0	61.0	63.0	157.0	150.0	48.0	960.72	73.0	-36.0	0.0	-1019.0	
1636893210.042611	-3.0	0.0	-171.0	5.0	0.0	0.0	61.0	63.0	160.0	150.0	48.0	960.69	73.0	-24.0	1.0	-994.0	
1636893210.145724	-5.0	0.0	-170.0	5.0	1.0	0.0	61.0	63.0	160.0	150.0	48.0	960.76	73.0	-30.0	0.0	-1008.0	
1636893210.249594	-5.0	0.0	-170.0	4.0	1.0	0.0	61.0	63.0	162.0	150.0	48.0	960.71	73.0	-40.0	10.0	-1001.0	
1636893210.349234	-5.0	0.0	-170.0	4.0	1.0	0.0	61.0	63.0	159.0	150.0	48.0	960.8	73.0	-36.0	9.0	-1001.0	
1636893210.453049	-5.0	0.0	-170.0	3.0	0.0	0.0	61.0	63.0	160.0	150.0	48.0	960.8	73.0	-34.0	3.0	-990.0	
1636893210.553539	-3.0	0.0	-171.0	3.0	0.0	0.0	60.0	63.0	160.0	150.0	48.0	960.79	73.0	-40.0	7.0	-998.0	
1636893210.657858	3.0	0.0	-171.0	4.0	0.0	0.0	60.0	63.0	161.0	150.0	48.0	960.79	73.0	-43.0	14.0	-1004.0	
1636893210.759621	5.0	0.0	-171.0	5.0	0.0	0.0	60.0	63.0	163.0	150.0	48.0	960.78	74.0	-38.0	11.0	-976.0	
1636893210.858341	0.0	0.0	-171.0	6.0	1.0	0.0	60.0	63.0	159.0	150.0	48.0	960.82	74.0	-44.0	3.0	-998.0	
1636893210.964227	-4.0	0.0	-171.0	6.0	0.0	0.0	60.0	63.0	160.0	150.0	47.0	960.69	74.0	-38.0	11.0	-1028.0	
1636893211.065602	-4.0	0.0	-171.0	6.0	0.0	0.0	60.0	63.0	160.0	150.0	47.0	960.8	74.0	-9.0	-7.0	-986.0	
1636893211.166477	-5.0	0.0	-171.0	5.0	0.0	0.0	60.0	63.0	160.0	150.0	47.0	960.81	74.0	-27.0	-1.0	-993.0	
1636893211.269661	-5.0	0.0	-171.0	4.0	0.0	0.0	60.0	63.0	159.0	150.0	47.0	960.75	74.0	-20.0	0.0	-982.0	
1636893211.370253	-4.0	0.0	-171.0	4.0	0.0	0.0	60.0	63.0	158.0	150.0	47.0	960.79	74.0	-39.0	13.0	-1009.0	
1636893211.419632	-4.0	0.0	-170.0	3.0	0.0	0.0	60.0	63.0	159.0	150.0	47.0	960.88	74.0	-20.0	-5.0	-986.0	
1636893211.577159	-4.0	0.0	-170.0	3.0	0.0	0.0	60.0	62.0	157.0	150.0	47.0	960.91	74.0	-40.0	-2.0	-998.0	
1636893211.678262	-4.0	0.0	-171.0	3.0	0.0	0.0	60.0	62.0	156.0	150.0	47.0	960.77	74.0	-1.0	-23.0	-994.0	
1636893211.780271	0.0	0.0	-171.0	2.0	0.0	0.0	60.0	62.0	159.0	150.0	47.0	960.86	75.0	-11.0	-8.0	-998.0	
1636893211.881457	7.0	0.0	-171.0	3.0	0.0	0.0	60.0	62.0	161.0	150.0	47.0	960.79	75.0	-22.0	-3.0	-1028.0	
1636893211.983868	7.0	0.0	-171.0	5.0	0.0	0.0	60.0	62.0	158.0	150.0	47.0	960.79	75.0	-8.0	-7.0	-1029.0	
1636893212.031818	7.0	0.0	-171.0	6.0	1.0	0.0	60.0	62.0	158.0	150.0	47.0	960.72	75.0	19.0	-8.0	-1012.0	
1636893212.134317	3.0	0.0	-171.0	7.0	1.0	0.0	60.0	62.0	156.0	150.0	47.0	960.9	75.0	11.0	-1.0	-992.0	
1636893212.238039	-1.0	0.0	-171.0	7.0	1.0	0.0	60.0	62.0	155.0	150.0	47.0	960.9	75.0	27.0	-4.0	-996.0	
1636893212.339492	-3.0	0.0	-171.0	7.0	1.0	0.0	60.0	62.0	154.0	150.0	47.0	960.91	75.0	31.0	-12.0	-989.0	
1636893212.440264	-3.0	0.0	-170.0	6.0	1.0	0.0	60.0	62.0	156.0	150.0	47.0	960.86	75.0	14.0	0.0	-1005.0	
1636893212.542092	-4.0	0.0	-170.0	6.0	1.0	0.0	61.0	62.0	155.0	150.0	47.0	960.95	75.0	1.0	3.0	-1023.0	
1636893212.644967	-4.0	0.0	-170.0	5.0	1.0	0.0	61.0	62.0	155.0	150.0	47.0	960.91	75.0	3.0	-1.0	-1012.0	
1636893212.747834	-4.0	0.0	-170.0	4.0	0.0	0.0	61.0	62.0	156.0	150.0	47.0	960.96	76.0	-4.0	4.0	-1008.0	
1636893212.851083	-4.0	0.0	-170.0	4.0	0.0	0.0	61.0	62.0	155.0	150.0	47.0	960.86	76.0	-13.0	2.0	-1009.0	
1636893212.950081	-2.0	0.0	-170.0	3.0	0.0	0.0	61.0	62.0	155.0	150.0	47.0	960.89	76.0	-18.0	9.0	-996.0	
1636893213.05229	4.0	0.0	-171.0	4.0	0.0	0.0	61.0	62.0	156.0	150.0	47.0	960.95	76.0	-10.0	-17.0	-1015.0	
1636893213.157511	8.0	0.0	-171.0	5.0	0.0	0.0	61.0	62.0	157.0	150.0	47.0	960.92	76.0	-3.0	-9.0	-1005.0	
1636893213.259259	7.0	0.0	-171.0	6.0	0.0	0.0	61.0	62.0	157.0	150.0	47.0	960.9	76.0	-9.0	6.0	-996.0	
1636893213.359466	7.0	0.0	-171.0	8.0	1.0	0.0	61.0	62.0	158.0	150.0	47.0	960.92	76.0	-2.0	7.0	-1020.0	
1636893213.460715	7.0	0.0	-171.0	9.0	1.0	0.0	61.0	62.0	155.0	150.0	47.0	960.91	76.0	4.0	9.0	-1015.0	
1636893213.5625	7.0	0.0	-170.0	10.0	1.0	0.0	61.0	63.0	156.0	150.0	47.0	960.92	76.0	25.0	-4.0	-1007.0	
1636893213.66575	7.0	0.0	-170.0	11.0	2.0	0.0	61.0	63.0	157.0	150.0	47.0	960.89	76.0	50.0	-26.0	-1001.0	
1636893213.766493	7.0	0.0	-170.0	12.0	2.0	0.0	61.0	63.0	158.0	150.0	47.0	960.96	77.0	43.0	-30.0	-993.0	
1636893213.870944	7.0	0.0	-170.0	13.0	2.0	0.0	61.0	63.0	156.0	150.0	46.0	960.95	77.0	38.0	-2.0	-998.0	
1636893213.970757	7.0	0.0	-170.0	14.0	2.0	0.0	61.0	63.0	159.0	150.0	46.0	960.99	77.0	34.0	-6.0	-1011.0	
1636893214.071478	7.0	0.0	-170.0	15.0	3.0	0.0	61.0	63.0	158.0	150.0	46.0	961.01	77.0	51.0	-8.0	-1012.0	
1636893214.173729	7.0	0.0	-171.0	16.0	3.0	0.0	61.0	63.0	158.0	150.0	46.0	960.98	77.0	32.0	7.0	-1001.0	
1636893214.278422	7.0	1.0	-171.0	17.0	3.0	0.0	61.0	63.0	159.0	150.0	46.0	960.99	77.0	48.0	12.0	-997.0	
1636893214.381598	4.0	1.0	-171.0	18.0	2.0	0.0	61.0	63.0	159.0	150.0	46.0	960.97	77.0	42.0	2.0	-1001.0	
1636893214.48024	-3.0	0.0	-171.0	18.0	2.0	0.0	61.0	63.0	159.0	150.0	46.0	960.96	77.0	51.0	16.0	-971.0	
1636893214.583444	-6.0	0.0	-171.0	17.0	2.0	0.0	61.0	63.0	160.0	150.0	46.0	961.0	77.0	36.0	33.0	-991.0	
1636893214.683858	-7.0	-1.0	-170.0	15.0	1.0	0.0	61.0	63.0	158.0	150.0	46.0	961.12	77.0	62.0	1.0	-1005.0	
1636893214.786202	-6.0	-1.0	-170.0	14.0	1.0	0.0	61.0	63.0	158.0	150.0	46.0	961.01	78.0	23.0	16.0	-1029.0	
1636893214.888493	-7.0	-1.0	-170.0	13.0	1.0	0.0	61.0	63.0	159.0	150.0	46.0	961.02	78.0	27.0	-4.0	-1003.0	
1636893214.990109	-7.0	-1.0	-170.0	11.0	1.0	0.0	61.0	63.0	159.0	150.0	46.0	961.0	78.0	14.0	13.0	-1015.0	
1636893215.091704	-7.0	0.0	-170.0	10.0	1.0	0.0	61.0	63.0	161.0	150.0	46.0	960.92	78.0	7.0	7.0	-1006.0	
1636893215.195662	-7.0	0.0	-170.0	9.0	1.0	0.0	61.0	63.0	160.0	150.0	46.0	960.94	78.0	0.0	-1.0	-1011.0	
1636893215.295523	-6.0	0.0	-170.0	8.0	1.0	0.0	61.0	63.0	161.0	150.0	46.0	960.99	78.0	-21.0	16.0	-1005.0	
1636893215.401182	-6.0	0.0	-170.0	7.0	1.0	0.0	61.0	63.0	160.0	150.0	46.0	961.0	78.0	-14.0	1.0	-1018.0	
1636893215.501311	-6.0	0.0	-170.0	6.0	0.0	0.0	61.0	63.0	162.0	150.0	46.0	960.94	78.0	-19.0	9.0	-1012.0	
1636893215.603154	-5.0	0.0	-170.0	5.0	0.0	0.0	60.0	63.0	163.0	150.0	46.0	960.95	78.0	-16.0	1.0	-995.0	
1636893215.704708	-5.0	0.0	-170.0	5.0	0.0	0.0	60.0	63.0	164.0	150.0	46.0	960.97	78.0	-36.0	16.0	-1004.0	
1636893215.755811	-5.0	0.0	-170.0	4.0	0.0	0.0	60.0	63.0	165.0	150.0	46.0	960.98	79.0	-26.0	-6.0	-978.0	
1636893215.859681	-5.0	0.0	-170.0	4.0	0.0	0.0	60.0	63.0	164.0	150.0	46.0	961.02	79.0	-39.0	8.0	-989.0	
1636893215.959509	-4.0	0.0	-170.0	3.0	0.0	0.0	60.0	63.0	165.0	150.0	46.0	960.92	79.0	-35.0	-2.0	-989.0	
1636893216.0621	-4.0	0.0	-170.0	3.0	0.0	0.0	60.0	63.0	166.0	150.0	46.0	961.01	79.0	-45.0	-2.0	-985.0	
1636893216.164237	-4.0	0.0	-170.0	3.0	0.0	0.0	60.0	63.0	165.0	150.0	46.0	960.98	79.0	-44.0	4.0	-981.0	
1636893216.267923	-4.0	0.0	-170.0	2.0	0.0	0.0	60.0	63.0	166.0	150.0	46.0	960.99	79.0	-44.0	0.0	-991.0	
1636893216.368696	-4.0	0.0	-170.0	2.0	0.0	0.0	60.0	63.0	167.0	150.0	46.0	960.97	79.0	-64.0	15.0	-997.0	
1636893216.470391	-4.0	0.0	-170.0	2.0	0.0	0.0	60.0	63.0	166.0	150.0	46.0	961.0	79.0	-50.0	5.0	-998.0	
1636893216.575296	-5.0	0.0	-171.0	2.0	0.0	0.0	60.0	62.0	165.0	150.0	46.0	960.92	79.0	-56.0	7.0	-1006.0	
1636893216.679444	-8.0	0.0	-171.0	1.0	0.0	0.0	60.0	62.0	167.0	150.0	46.0	960.9	79.0	-32.0	-6.0	-984.0	
1636893216.778966	-8.0	0.0	-171.0	0.0	0.0	0.0	60.0	62.0	166.0	150.0	46.0	960.92	80.0	-55.0	-1.0	-988.0	
1636893216.88077	-8.0	0.0	-171.0	0.0	0.0	0.0	60.0	62.0	164.0	150.0	45.0	960.77	80.0	-65.0	-10.0	-1003.0	
1636893216.982293	-7.0	0.0	-171.0	0.0	0.0	0.0	60.0	62.0	164.0	150.0	45.0	960.87	80.0	-85.0	14.0	-999.0	
1636893217.085151	-7.0	0.0	-171.0	-1.0	0.0	0.0	60.0	62.0	163.0	150.0	45.0	960.84	80.0	-74.0	-10.0	-991.0	
1636893217.186743	-7.0	-1.0	-171.0	-1.0	0.0	0.0	60.0	62.0	161.0	150.0	45.0	960.68	80.0	-69.0	-17.0	-1023.0	
1636893217.286229	-7.0	0.0	-171.0	-2.0	0.0	0.0	60.0	62.0	162.0	150.0	45.0	960.81	80.0	-68.0	-38.0	-1009.0	
1636893217.388491	-7.0	0.0	-171.0	-3.0	0.0	0.0	60.0	62.0	162.0	150.0	45.0	960.73	80.0	-74.0	-19.0	-1008.0	
1636893217.490779	-7.0	1.0	-171.0	-3.0	0.0	0.0	60.0	62.0	161.0	150.0	45.0	960.66	80.0	-96.0	-15.0	-1021.0	
1636893217.594654	-7.0	1.0	-171.0	-4.0	0.0	0.0	60.0	62.0	163.0	150.0	45.0	960.66	80.0	-87.0	-16.0	-1007.0	
1636893217.694044	-7.0	0.0	-170.0	-4.0	0.0	0.0	60.0	62.0	162.0	150.0	45.0	960.53	80.0	-99.0	-1.0	-1014.0	
1636893217.797368	-7.0	0.0	-170.0	-4.0	0.0	0.0	60.0	62.0	163.0	150.0	45.0	960.45	81.0	-95.0	0.0	-997.0	
1636893217.900045	-7.0	0.0	-170.0	-4.0	0.0	0.0	60.0	62.0	161.0	150.0	45.0	960.68	81.0	-109.0	6.0	-990.0	
1636893218.003999	-7.0	0.0	-170.0	-5.0	0.0	0.0	60.0	62.0	164.0	150.0	45.0	960.68	81.0	-104.0	-8.0	-999.0	
1636893218.102467	-7.0	0.0	-170.0	-5.0	0.0	0.0	60.0	62.0	163.0	150.0	45.0	960.48	81.0	-118.0	15.0	-1000.0	
1636893218.211621	-7.0	0.0	-170.0	-5.0	0.0	0.0	60.0	62.0	164.0	150.0	45.0	960.59	81.0	-124.0	6.0	-984.0	
1636893218.309887	-7.0	0.0	-170.0	-5.0	0.0	0.0	60.0	62.0	163.0	150.0	45.0	960.61	81.0	-121.0	4.0	-981.0	
1636893218.408413	-7.0	0.0	-170.0	-5.0	0.0	0.0	60.0	62.0	163.0	150.0	45.0	960.71	81.0	-116.0	1.0	-985.0	
1636893218.513817	-7.0	0.0	-170.0	-5.0	0.0	0.0	60.0	62.0	165.0	150.0	45.0	960.45	81.0	-118.0	5.0	-989.0	
1636893218.612122	-7.0	0.0	-171.0	-5.0	0.0	0.0	61.0	62.0	165.0	150.0	45.0	960.56	81.0	-106.0	0.0	-969.0	
1636893218.715012	-8.0	0.0	-171.0	-6.0	0.0	0.0	61.0	62.0	163.0	150.0	45.0	960.42	82.0	-114.0	1.0	-982.0	
1636893218.816777	-7.0	0.0	-171.0	-6.0	0.0	0.0	61.0	62.0	162.0	150.0	45.0	960.51	82.0	-111.0	-9.0	-1006.0	
1636893218.922139	-7.0	0.0	-170.0	-6.0	0.0	0.0	61.0	62.0	163.0	150.0	45.0	960.4	82.0	-129.0	3.0	-1008.0	
1636893219.023502	-7.0	0.0	-170.0	-6.0	0.0	0.0	61.0	62.0	164.0	150.0	45.0	960.49	82.0	-112.0	-1.0	-976.0	
1636893219.125178	-7.0	0.0	-170.0	-7.0	0.0	0.0	61.0	62.0	163.0	150.0	45.0	960.38	82.0	-116.0	9.0	-1004.0	
1636893219.228026	-7.0	0.0	-170.0	-7.0	0.0	0.0	61.0	62.0	163.0	150.0	45.0	960.48	82.0	-127.0	10.0	-1016.0	
1636893219.32621	-7.0	0.0	-170.0	-7.0	-1.0	0.0	61.0	62.0	163.0	150.0	45.0	960.34	82.0	-134.0	-1.0	-994.0	
1636893219.429277	-7.0	0.0	-170.0	-7.0	-1.0	0.0	61.0	62.0	164.0	150.0	45.0	960.36	82.0	-123.0	7.0	-997.0	
1636893219.533173	-7.0	0.0	-170.0	-7.0	-1.0	0.0	61.0	62.0	163.0	150.0	45.0	960.46	82.0	-134.0	14.0	-1002.0	
1636893219.632248	-7.0	0.0	-170.0	-7.0	-1.0	0.0	60.0	63.0	163.0	150.0	45.0	960.46	82.0	-126.0	21.0	-992.0	
1636893219.737624	-7.0	0.0	-170.0	-7.0	-1.0	0.0	60.0	63.0	164.0	150.0	45.0	960.49	83.0	-131.0	19.0	-1000.0	
1636893219.837804	-7.0	-1.0	-170.0	-7.0	-1.0	0.0	60.0	63.0	164.0	150.0	45.0	960.54	83.0	-134.0	20.0	-1006.0	
1636893219.939984	-7.0	-1.0	-170.0	-7.0	0.0	0.0	60.0	63.0	162.0	150.0	45.0	960.57	83.0	-117.0	2.0	-973.0	
1636893220.041895	-8.0	0.0	-171.0	-7.0	-1.0	0.0	60.0	63.0	163.0	150.0	45.0	960.53	83.0	-119.0	17.0	-968.0	
1636893220.092413	-7.0	-1.0	-171.0	-8.0	0.0	0.0	60.0	63.0	164.0	150.0	45.0	960.43	83.0	-123.0	-8.0	-995.0	
1636893220.1954	-7.0	-2.0	-170.0	-8.0	0.0	0.0	60.0	63.0	163.0	150.0	45.0	960.39	83.0	-120.0	-19.0	-999.0	
1636893220.295264	-7.0	-1.0	-170.0	-8.0	0.0	0.0	60.0	63.0	164.0	150.0	45.0	960.41	83.0	-120.0	-12.0	-1007.0	
1636893220.399853	-7.0	-1.0	-170.0	-8.0	0.0	0.0	60.0	63.0	163.0	150.0	45.0	960.36	83.0	-117.0	-18.0	-986.0	
1636893220.501428	-7.0	0.0	-170.0	-9.0	0.0	0.0	60.0	63.0	163.0	150.0	45.0	960.47	83.0	-130.0	-8.0	-1012.0	
1636893220.605139	-7.0	0.0	-170.0	-9.0	0.0	0.0	60.0	63.0	162.0	150.0	45.0	960.42	83.0	-129.0	10.0	-1013.0	
1636893220.706587	-7.0	0.0	-170.0	-9.0	0.0	0.0	60.0	63.0	161.0	150.0	45.0	960.4	84.0	-138.0	23.0	-998.0	
1636893220.807558	-7.0	0.0	-170.0	-9.0	0.0	0.0	60.0	63.0	160.0	150.0	45.0	960.45	84.0	-145.0	39.0	-992.0	
1636893220.907805	-7.0	-1.0	-170.0	-8.0	0.0	0.0	60.0	63.0	162.0	150.0	45.0	960.57	84.0	-142.0	26.0	-994.0	
1636893221.011984	-7.0	-1.0	-170.0	-8.0	0.0	0.0	60.0	63.0	162.0	150.0	45.0	960.41	84.0	-139.0	22.0	-981.0	
1636893221.112713	-7.0	-1.0	-170.0	-8.0	0.0	0.0	60.0	63.0	161.0	150.0	45.0	960.4	84.0	-147.0	21.0	-988.0	
1636893221.214987	-7.0	-1.0	-170.0	-8.0	0.0	0.0	60.0	63.0	162.0	150.0	45.0	960.46	84.0	-151.0	32.0	-991.0	
1636893221.31585	-7.0	-1.0	-170.0	-8.0	0.0	0.0	60.0	63.0	163.0	150.0	45.0	960.53	84.0	-147.0	33.0	-993.0	
1636893221.419174	-5.0	0.0	-170.0	-8.0	0.0	0.0	60.0	63.0	161.0	150.0	45.0	960.53	84.0	-142.0	17.0	-989.0	
1636893221.523006	-3.0	0.0	-170.0	-8.0	0.0	0.0	60.0	63.0	161.0	150.0	45.0	960.54	84.0	-135.0	8.0	-998.0	
1636893221.623462	-2.0	0.0	-171.0	-7.0	0.0	0.0	60.0	62.0	161.0	150.0	45.0	960.39	84.0	-148.0	25.0	-995.0	
1636893221.726611	-6.0	0.0	-171.0	-7.0	0.0	0.0	60.0	62.0	161.0	150.0	45.0	960.47	85.0	-136.0	27.0	-993.0	
1636893221.827889	-8.0	0.0	-171.0	-7.0	0.0	0.0	60.0	62.0	160.0	150.0	45.0	960.46	85.0	-128.0	17.0	-984.0	
1636893221.928895	-8.0	0.0	-171.0	-7.0	0.0	0.0	60.0	62.0	161.0	150.0	45.0	960.49	85.0	-137.0	29.0	-997.0	
1636893222.033551	-7.0	0.0	-171.0	-7.0	0.0	0.0	60.0	62.0	160.0	150.0	45.0	960.35	85.0	-133.0	8.0	-1007.0	
1636893222.134885	-7.0	0.0	-171.0	-7.0	0.0	0.0	60.0	62.0	160.0	150.0	45.0	960.35	85.0	-143.0	26.0	-1014.0	
1636893222.23567	-7.0	0.0	-170.0	-7.0	0.0	0.0	60.0	62.0	160.0	150.0	45.0	960.21	85.0	-138.0	9.0	-995.0	
1636893222.336447	-7.0	0.0	-171.0	-7.0	-1.0	0.0	60.0	62.0	160.0	150.0	45.0	960.44	85.0	-137.0	12.0	-993.0	
1636893222.44081	-7.0	0.0	-170.0	-7.0	-1.0	0.0	60.0	62.0	161.0	150.0	45.0	960.29	85.0	-142.0	10.0	-999.0	
1636893222.542415	-7.0	0.0	-170.0	-7.0	-1.0	0.0	60.0	62.0	162.0	150.0	45.0	960.37	85.0	-136.0	20.0	-984.0	
1636893222.641899	-7.0	0.0	-170.0	-7.0	-1.0	0.0	60.0	62.0	161.0	150.0	45.0	960.29	85.0	-134.0	3.0	-988.0	
1636893222.744789	-6.0	0.0	-170.0	-7.0	-1.0	0.0	60.0	62.0	162.0	150.0	45.0	960.39	86.0	-134.0	16.0	-992.0	
1636893222.846306	-4.0	0.0	-170.0	-7.0	-1.0	0.0	60.0	62.0	159.0	150.0	45.0	960.47	86.0	-136.0	17.0	-993.0	
1636893222.951167	-7.0	0.0	-170.0	-6.0	-1.0	0.0	60.0	62.0	163.0	150.0	44.0	960.43	86.0	-138.0	16.0	-965.0	
1636893223.052884	-8.0	0.0	-170.0	-6.0	-1.0	0.0	60.0	62.0	163.0	150.0	44.0	960.51	86.0	-143.0	15.0	-996.0	
1636893223.151197	-7.0	0.0	-170.0	-6.0	-1.0	0.0	60.0	62.0	164.0	150.0	44.0	960.42	86.0	-141.0	25.0	-997.0	
1636893223.257602	-7.0	0.0	-170.0	-6.0	-1.0	0.0	60.0	62.0	164.0	150.0	44.0	960.52	86.0	-137.0	17.0	-986.0	
1636893223.356661	-7.0	0.0	-170.0	-6.0	-1.0	0.0	60.0	62.0	162.0	150.0	44.0	960.43	86.0	-130.0	12.0	-990.0	
1636893223.461632	-7.0	0.0	-170.0	-7.0	-1.0	0.0	60.0	62.0	164.0	150.0	44.0	960.36	86.0	-123.0	16.0	-975.0	
1636893223.560186	-7.0	0.0	-170.0	-7.0	-1.0	0.0	60.0	62.0	164.0	150.0	44.0	960.23	86.0	-137.0	22.0	-996.0	
1636893223.663085	-7.0	0.0	-170.0	-7.0	-2.0	0.0	59.0	62.0	164.0	150.0	44.0	960.26	86.0	-136.0	19.0	-1009.0	
1636893223.765795	-7.0	0.0	-170.0	-7.0	-2.0	0.0	59.0	62.0	165.0	150.0	44.0	960.23	87.0	-141.0	15.0	-1000.0	
1636893223.868937	-7.0	0.0	-170.0	-6.0	-2.0	0.0	59.0	62.0	164.0	150.0	44.0	960.24	87.0	-138.0	15.0	-1001.0	
1636893223.96831	-7.0	0.0	-170.0	-6.0	-1.0	0.0	59.0	62.0	164.0	150.0	44.0	960.18	87.0	-139.0	19.0	-1001.0	
1636893224.07113	-7.0	0.0	-170.0	-6.0	-1.0	0.0	59.0	62.0	165.0	150.0	44.0	960.34	87.0	-135.0	-1.0	-1011.0	
1636893224.12217	-8.0	0.0	-170.0	-6.0	-1.0	0.0	59.0	62.0	165.0	150.0	44.0	960.2	87.0	-148.0	5.0	-976.0	
1636893224.226027	-7.0	0.0	-170.0	-6.0	-1.0	0.0	59.0	62.0	164.0	150.0	44.0	960.26	87.0	-153.0	13.0	-998.0	
1636893224.326465	-7.0	-1.0	-170.0	-6.0	-1.0	0.0	59.0	62.0	164.0	150.0	44.0	960.21	87.0	-148.0	-1.0	-979.0	
1636893224.42727	-7.0	0.0	-170.0	-6.0	-1.0	0.0	59.0	62.0	165.0	150.0	44.0	960.47	87.0	-154.0	5.0	-999.0	
1636893224.531134	-7.0	0.0	-170.0	-6.0	-1.0	0.0	59.0	62.0	165.0	150.0	44.0	960.28	87.0	-151.0	-7.0	-994.0	
1636893224.684986	-7.0	-1.0	-170.0	-6.0	-1.0	0.0	60.0	63.0	165.0	150.0	44.0	960.12	87.0	-139.0	6.0	-981.0	
1636893224.785105	-6.0	-1.0	-170.0	-6.0	-1.0	0.0	60.0	63.0	165.0	150.0	44.0	960.31	88.0	-161.0	13.0	-1028.0	
1636893224.838725	-8.0	0.0	-170.0	-6.0	-1.0	0.0	60.0	63.0	165.0	150.0	44.0	960.29	88.0	-131.0	11.0	-966.0	
1636893224.941532	-7.0	0.0	-171.0	-6.0	-1.0	0.0	60.0	63.0	164.0	150.0	44.0	960.23	88.0	-140.0	19.0	-1007.0	
1636893225.043167	-7.0	0.0	-170.0	-6.0	-1.0	0.0	60.0	63.0	163.0	150.0	44.0	960.18	88.0	-137.0	-6.0	-985.0	
1636893225.145173	-7.0	-1.0	-170.0	-6.0	-1.0	0.0	60.0	63.0	163.0	150.0	44.0	960.38	88.0	-141.0	-8.0	-1002.0	
1636893225.244054	-7.0	0.0	-170.0	-6.0	0.0	0.0	60.0	63.0	165.0	150.0	44.0	960.39	88.0	-143.0	-1.0	-984.0	
1636893225.348677	-7.0	0.0	-170.0	-6.0	0.0	0.0	60.0	63.0	164.0	150.0	44.0	960.38	88.0	-131.0	20.0	-969.0	
1636893225.449624	-5.0	0.0	-171.0	-6.0	-1.0	0.0	60.0	63.0	164.0	150.0	44.0	960.25	88.0	-142.0	13.0	-987.0	
1636893225.551892	-4.0	-1.0	-170.0	-5.0	0.0	0.0	60.0	63.0	164.0	150.0	44.0	960.34	88.0	-126.0	-11.0	-994.0	
1636893225.653073	-3.0	0.0	-170.0	-5.0	0.0	0.0	60.0	62.0	164.0	150.0	44.0	960.3	88.0	-122.0	-7.0	-981.0	
1636893225.756681	-3.0	0.0	-171.0	-4.0	0.0	0.0	60.0	62.0	163.0	150.0	44.0	960.39	89.0	-132.0	3.0	-991.0	
1636893225.857974	-3.0	0.0	-171.0	-4.0	0.0	0.0	60.0	62.0	163.0	150.0	44.0	960.25	89.0	-124.0	2.0	-997.0	
1636893225.961093	-3.0	0.0	-171.0	-3.0	0.0	0.0	60.0	62.0	163.0	150.0	44.0	960.4	89.0	-127.0	15.0	-1013.0	
1636893226.062794	-4.0	0.0	-171.0	-3.0	0.0	0.0	60.0	62.0	164.0	150.0	44.0	960.43	89.0	-116.0	3.0	-986.0	
1636893226.16219	-4.0	0.0	-171.0	-2.0	0.0	0.0	60.0	62.0	163.0	150.0	44.0	960.47	89.0	-116.0	10.0	-1009.0	
1636893226.266052	-4.0	0.0	-171.0	-2.0	0.0	0.0	60.0	62.0	162.0	150.0	44.0	960.44	89.0	-107.0	12.0	-997.0	
1636893226.365833	-4.0	0.0	-171.0	-2.0	0.0	0.0	60.0	62.0	163.0	150.0	44.0	960.43	89.0	-126.0	0.0	-1005.0	
1636893226.468073	-4.0	0.0	-171.0	-1.0	0.0	0.0	60.0	62.0	161.0	150.0	44.0	960.43	89.0	-111.0	9.0	-983.0	
1636893226.569469	-4.0	0.0	-170.0	-1.0	0.0	0.0	60.0	62.0	161.0	150.0	44.0	960.39	89.0	-112.0	14.0	-986.0	
1636893226.67237	-1.0	0.0	-170.0	-1.0	0.0	0.0	60.0	62.0	160.0	150.0	44.0	960.52	89.0	-111.0	17.0	-996.0	
1636893226.775237	6.0	0.0	-171.0	0.0	0.0	0.0	60.0	62.0	161.0	150.0	44.0	960.52	90.0	-124.0	12.0	-1036.0	
1636893226.878271	7.0	0.0	-171.0	2.0	0.0	0.0	60.0	62.0	162.0	150.0	44.0	960.55	90.0	-89.0	1.0	-1005.0	
1636893226.977888	6.0	0.0	-171.0	4.0	0.0	0.0	60.0	62.0	161.0	150.0	44.0	960.62	90.0	-68.0	0.0	-1000.0	
1636893227.084434	6.0	0.0	-171.0	5.0	0.0	0.0	60.0	62.0	159.0	150.0	44.0	960.64	90.0	-58.0	1.0	-1014.0	
1636893227.185982	5.0	-1.0	-171.0	7.0	1.0	0.0	60.0	62.0	159.0	150.0	44.0	960.72	90.0	-60.0	0.0	-1054.0	
1636893227.2862	-1.0	0.0	-171.0	8.0	1.0	0.0	60.0	62.0	158.0	150.0	44.0	960.88	90.0	-38.0	4.0	-987.0	
1636893227.387768	-5.0	0.0	-171.0	8.0	1.0	0.0	60.0	62.0	159.0	150.0	44.0	960.72	90.0	-51.0	12.0	-1004.0	
1636893227.488579	-6.0	0.0	-171.0	8.0	1.0	0.0	60.0	62.0	159.0	150.0	44.0	960.66	90.0	-46.0	17.0	-1018.0	
1636893227.591699	-7.0	0.0	-171.0	7.0	1.0	0.0	60.0	62.0	160.0	150.0	44.0	960.72	90.0	-39.0	-2.0	-990.0	
