timestamp	pitch	roll	yaw	vgx	vgy	vgz	templ	temph	tof	h	bat	baro	time	agx	agy	agz	
1636887760.725599	
1636887760.828206	2.0	0.0	0.0	0.0	0.0	0.0	59.0	62.0	190.0	170.0	46.0	969.33	14.0	14.0	8.0	-993.0	
1636887760.932588	2.0	0.0	0.0	0.0	0.0	0.0	59.0	62.0	189.0	170.0	46.0	969.36	14.0	25.0	-10.0	-983.0	
1636887761.030454	1.0	0.0	0.0	0.0	0.0	0.0	59.0	62.0	188.0	170.0	46.0	969.37	14.0	7.0	-1.0	-996.0	
1636887761.13617	1.0	0.0	0.0	0.0	0.0	0.0	59.0	62.0	186.0	170.0	46.0	969.26	14.0	18.0	-4.0	-998.0	
1636887761.23542	1.0	0.0	0.0	0.0	0.0	0.0	59.0	62.0	187.0	170.0	46.0	969.31	14.0	11.0	-4.0	-1006.0	
1636887761.336915	0.0	0.0	0.0	0.0	0.0	0.0	59.0	62.0	186.0	170.0	46.0	969.2	15.0	25.0	-8.0	-997.0	
1636887761.438599	1.0	0.0	0.0	0.0	0.0	0.0	59.0	62.0	186.0	170.0	46.0	969.23	15.0	34.0	-10.0	-988.0	
1636887761.543594	1.0	0.0	0.0	0.0	0.0	0.0	59.0	62.0	187.0	170.0	46.0	969.29	15.0	29.0	8.0	-1008.0	
1636887761.642544	1.0	0.0	0.0	0.0	0.0	0.0	58.0	62.0	188.0	170.0	46.0	969.32	15.0	47.0	1.0	-1004.0	
1636887761.745142	2.0	0.0	0.0	0.0	0.0	0.0	58.0	62.0	189.0	170.0	46.0	969.36	15.0	49.0	-1.0	-998.0	
1636887761.849544	2.0	0.0	0.0	0.0	0.0	0.0	58.0	62.0	189.0	170.0	46.0	969.32	15.0	38.0	3.0	-1005.0	
1636887761.949486	2.0	0.0	0.0	0.0	0.0	0.0	58.0	62.0	190.0	170.0	46.0	969.41	15.0	36.0	0.0	-1007.0	
1636887762.053471	3.0	0.0	0.0	0.0	0.0	0.0	58.0	62.0	190.0	170.0	46.0	969.39	15.0	46.0	0.0	-1001.0	
1636887762.152919	3.0	0.0	0.0	0.0	0.0	0.0	58.0	62.0	190.0	170.0	46.0	969.36	15.0	43.0	-4.0	-996.0	
1636887762.256023	3.0	0.0	0.0	0.0	0.0	0.0	58.0	62.0	193.0	170.0	46.0	969.45	15.0	52.0	5.0	-984.0	
1636887762.308821	3.0	0.0	0.0	0.0	0.0	0.0	58.0	62.0	191.0	170.0	46.0	969.35	16.0	42.0	11.0	-990.0	
1636887762.407406	3.0	-1.0	0.0	0.0	0.0	0.0	58.0	62.0	192.0	170.0	46.0	969.34	16.0	53.0	20.0	-985.0	
1636887762.511143	3.0	-1.0	0.0	0.0	0.0	0.0	58.0	62.0	193.0	170.0	46.0	969.37	16.0	62.0	9.0	-984.0	
1636887762.611767	3.0	-1.0	0.0	0.0	0.0	0.0	59.0	61.0	192.0	170.0	46.0	969.36	16.0	52.0	15.0	-994.0	
1636887762.713606	3.0	-1.0	0.0	0.0	0.0	0.0	59.0	61.0	194.0	170.0	46.0	969.43	16.0	46.0	22.0	-1001.0	
1636887762.818169	2.0	-1.0	0.0	0.0	0.0	0.0	59.0	61.0	191.0	170.0	46.0	969.31	16.0	35.0	24.0	-994.0	
1636887762.921265	2.0	-1.0	0.0	0.0	0.0	0.0	59.0	61.0	194.0	170.0	46.0	969.33	16.0	42.0	13.0	-1012.0	
1636887763.022029	2.0	-1.0	0.0	0.0	0.0	0.0	59.0	61.0	192.0	170.0	46.0	969.33	16.0	36.0	18.0	-1013.0	
1636887763.121846	2.0	-1.0	0.0	0.0	0.0	0.0	59.0	61.0	194.0	170.0	46.0	969.33	16.0	51.0	6.0	-994.0	
1636887763.226642	2.0	-1.0	0.0	0.0	0.0	0.0	59.0	61.0	192.0	170.0	46.0	969.38	16.0	35.0	25.0	-1004.0	
1636887763.33091	2.0	-1.0	0.0	0.0	0.0	0.0	59.0	61.0	192.0	170.0	46.0	969.4	17.0	27.0	24.0	-1006.0	
1636887763.431841	2.0	-1.0	0.0	0.0	0.0	0.0	59.0	61.0	192.0	170.0	46.0	969.29	17.0	45.0	0.0	-990.0	
1636887763.532218	2.0	0.0	0.0	0.0	0.0	0.0	59.0	61.0	189.0	170.0	46.0	969.26	17.0	40.0	12.0	-1002.0	
1636887763.634168	2.0	0.0	0.0	0.0	0.0	0.0	58.0	62.0	189.0	170.0	46.0	969.34	17.0	47.0	0.0	-1002.0	
1636887763.736454	2.0	0.0	0.0	0.0	0.0	0.0	58.0	62.0	191.0	170.0	46.0	969.35	17.0	34.0	9.0	-998.0	
1636887763.838875	2.0	0.0	0.0	0.0	0.0	0.0	58.0	62.0	190.0	170.0	46.0	969.37	17.0	36.0	8.0	-996.0	
1636887763.939882	2.0	0.0	0.0	0.0	0.0	0.0	58.0	62.0	190.0	170.0	46.0	969.28	17.0	28.0	10.0	-992.0	
1636887764.041889	3.0	0.0	0.0	0.0	0.0	0.0	58.0	62.0	191.0	170.0	46.0	969.3	17.0	45.0	0.0	-1009.0	
1636887764.142747	3.0	0.0	0.0	0.0	0.0	0.0	58.0	62.0	191.0	170.0	46.0	969.3	17.0	44.0	-4.0	-997.0	
1636887764.246561	3.0	0.0	0.0	0.0	0.0	0.0	58.0	62.0	191.0	170.0	46.0	969.34	17.0	36.0	0.0	-1002.0	
1636887764.346426	2.0	0.0	0.0	0.0	0.0	0.0	58.0	62.0	188.0	170.0	46.0	969.38	18.0	33.0	7.0	-1009.0	
1636887764.449261	3.0	0.0	0.0	0.0	0.0	0.0	58.0	62.0	193.0	170.0	46.0	969.35	18.0	42.0	-3.0	-981.0	
1636887764.555035	3.0	0.0	0.0	0.0	0.0	0.0	58.0	62.0	192.0	170.0	46.0	969.33	18.0	38.0	5.0	-991.0	
1636887764.65284	3.0	0.0	0.0	0.0	0.0	0.0	59.0	61.0	190.0	170.0	46.0	969.31	18.0	31.0	10.0	-997.0	
1636887764.754591	3.0	0.0	0.0	0.0	0.0	0.0	59.0	61.0	192.0	170.0	46.0	969.37	18.0	44.0	-6.0	-998.0	
1636887764.808762	2.0	0.0	0.0	0.0	0.0	0.0	59.0	61.0	191.0	170.0	46.0	969.31	18.0	36.0	9.0	-993.0	
1636887764.910057	2.0	0.0	0.0	0.0	0.0	0.0	59.0	61.0	191.0	170.0	46.0	969.35	18.0	30.0	18.0	-1006.0	
1636887765.012506	2.0	0.0	0.0	0.0	0.0	0.0	59.0	61.0	191.0	170.0	46.0	969.34	18.0	29.0	17.0	-1006.0	
1636887765.11407	2.0	0.0	0.0	0.0	0.0	0.0	59.0	61.0	189.0	170.0	46.0	969.31	18.0	48.0	-2.0	-1007.0	
1636887765.217158	2.0	0.0	0.0	0.0	0.0	0.0	59.0	61.0	190.0	170.0	46.0	969.27	18.0	35.0	2.0	-1010.0	
1636887765.318667	2.0	0.0	0.0	0.0	0.0	0.0	59.0	61.0	190.0	170.0	46.0	969.34	19.0	39.0	-4.0	-1000.0	
1636887765.419551	2.0	0.0	0.0	0.0	0.0	0.0	59.0	61.0	189.0	170.0	46.0	969.38	19.0	27.0	-7.0	-988.0	
1636887765.521628	2.0	0.0	0.0	0.0	0.0	0.0	59.0	61.0	191.0	170.0	46.0	969.29	19.0	26.0	-2.0	-991.0	
1636887765.621968	2.0	0.0	0.0	0.0	0.0	0.0	59.0	61.0	188.0	170.0	46.0	969.36	19.0	18.0	3.0	-997.0	
1636887765.726216	2.0	0.0	0.0	0.0	0.0	0.0	59.0	61.0	191.0	170.0	46.0	969.34	19.0	27.0	-11.0	-1002.0	
1636887765.826676	1.0	0.0	0.0	0.0	0.0	0.0	59.0	61.0	189.0	170.0	46.0	969.37	19.0	36.0	-14.0	-1000.0	
1636887765.930303	2.0	0.0	0.0	0.0	0.0	0.0	59.0	61.0	189.0	170.0	46.0	969.3	19.0	30.0	-6.0	-1005.0	
1636887766.029516	2.0	0.0	0.0	0.0	0.0	0.0	59.0	61.0	190.0	170.0	46.0	969.31	19.0	32.0	-15.0	-1005.0	
1636887766.133879	1.0	1.0	0.0	0.0	0.0	0.0	59.0	61.0	192.0	170.0	46.0	969.4	19.0	26.0	-6.0	-985.0	
1636887766.237186	1.0	0.0	0.0	0.0	0.0	0.0	59.0	61.0	191.0	170.0	46.0	969.32	19.0	29.0	-4.0	-991.0	
1636887766.336188	1.0	0.0	0.0	0.0	0.0	0.0	59.0	61.0	190.0	170.0	46.0	969.36	20.0	31.0	-13.0	-982.0	
1636887766.43756	1.0	0.0	0.0	0.0	0.0	0.0	59.0	61.0	190.0	170.0	46.0	969.36	20.0	18.0	-4.0	-992.0	
1636887766.540704	1.0	0.0	0.0	0.0	0.0	0.0	59.0	61.0	188.0	170.0	46.0	969.26	20.0	13.0	-6.0	-1015.0	
1636887766.642674	1.0	0.0	0.0	0.0	0.0	0.0	59.0	61.0	189.0	170.0	46.0	969.36	20.0	18.0	-12.0	-1007.0	
1636887766.744232	1.0	0.0	0.0	0.0	0.0	0.0	59.0	61.0	190.0	170.0	46.0	969.31	20.0	15.0	-19.0	-990.0	
1636887766.847789	1.0	1.0	0.0	0.0	0.0	0.0	59.0	61.0	190.0	170.0	46.0	969.34	20.0	6.0	-9.0	-989.0	
1636887766.947664	1.0	1.0	0.0	0.0	0.0	0.0	59.0	61.0	192.0	170.0	46.0	969.39	20.0	16.0	-19.0	-984.0	
1636887767.050354	1.0	1.0	0.0	0.0	0.0	0.0	59.0	61.0	191.0	170.0	46.0	969.32	20.0	10.0	-7.0	-990.0	
1636887767.151921	1.0	1.0	0.0	0.0	0.0	0.0	59.0	61.0	189.0	170.0	46.0	969.38	20.0	21.0	-12.0	-996.0	
1636887767.257029	1.0	0.0	0.0	0.0	0.0	0.0	59.0	61.0	188.0	170.0	46.0	969.34	20.0	18.0	2.0	-998.0	
1636887767.306828	1.0	0.0	0.0	0.0	0.0	0.0	59.0	61.0	189.0	170.0	46.0	969.42	21.0	22.0	7.0	-997.0	
1636887767.408236	1.0	0.0	0.0	0.0	0.0	0.0	59.0	61.0	190.0	170.0	46.0	969.41	21.0	20.0	-1.0	-990.0	
1636887767.510294	1.0	0.0	0.0	0.0	0.0	0.0	59.0	61.0	190.0	170.0	46.0	969.4	21.0	23.0	2.0	-1004.0	
1636887767.611867	1.0	0.0	0.0	0.0	0.0	0.0	59.0	61.0	187.0	170.0	46.0	969.41	21.0	30.0	-6.0	-994.0	
1636887767.714264	1.0	0.0	0.0	0.0	0.0	0.0	59.0	61.0	188.0	170.0	46.0	969.41	21.0	23.0	0.0	-1002.0	
1636887767.816084	1.0	0.0	0.0	0.0	0.0	0.0	59.0	61.0	190.0	170.0	46.0	969.49	21.0	30.0	-6.0	-1003.0	
1636887767.919996	1.0	0.0	0.0	0.0	0.0	0.0	59.0	61.0	189.0	170.0	46.0	969.41	21.0	20.0	0.0	-992.0	
1636887768.021875	1.0	0.0	0.0	0.0	0.0	0.0	59.0	61.0	191.0	170.0	46.0	969.42	21.0	25.0	1.0	-1001.0	
1636887768.125067	1.0	0.0	0.0	0.0	0.0	0.0	59.0	61.0	190.0	170.0	46.0	969.39	21.0	29.0	-7.0	-994.0	
1636887768.225887	1.0	0.0	0.0	0.0	0.0	0.0	59.0	61.0	191.0	170.0	46.0	969.33	21.0	46.0	-10.0	-1000.0	
1636887768.324406	2.0	0.0	0.0	0.0	0.0	0.0	59.0	61.0	193.0	170.0	46.0	969.41	22.0	28.0	0.0	-1015.0	
1636887768.427287	2.0	0.0	0.0	0.0	0.0	0.0	59.0	61.0	193.0	170.0	46.0	969.33	22.0	22.0	6.0	-995.0	
1636887768.531986	2.0	0.0	0.0	0.0	0.0	0.0	59.0	61.0	192.0	170.0	46.0	969.33	22.0	20.0	3.0	-990.0	
1636887768.630966	2.0	0.0	0.0	0.0	0.0	0.0	59.0	61.0	193.0	170.0	46.0	969.4	22.0	29.0	4.0	-997.0	
1636887768.73252	2.0	0.0	0.0	0.0	0.0	0.0	59.0	61.0	193.0	170.0	46.0	969.4	22.0	36.0	5.0	-994.0	
1636887768.835439	2.0	0.0	0.0	0.0	0.0	0.0	59.0	61.0	193.0	170.0	46.0	969.39	22.0	46.0	0.0	-985.0	
1636887768.938161	2.0	0.0	0.0	0.0	0.0	0.0	59.0	61.0	191.0	170.0	46.0	969.4	22.0	41.0	-8.0	-981.0	
1636887769.038766	2.0	0.0	0.0	0.0	0.0	0.0	59.0	61.0	194.0	170.0	46.0	969.38	22.0	35.0	-4.0	-996.0	
1636887769.142947	2.0	0.0	0.0	0.0	0.0	0.0	59.0	61.0	194.0	170.0	46.0	969.35	22.0	35.0	-5.0	-993.0	
1636887769.24315	2.0	0.0	0.0	0.0	0.0	0.0	59.0	61.0	191.0	170.0	46.0	969.37	22.0	27.0	5.0	-1016.0	
1636887769.344594	2.0	0.0	0.0	0.0	0.0	0.0	59.0	61.0	191.0	170.0	46.0	969.37	23.0	34.0	1.0	-1008.0	
1636887769.447433	2.0	0.0	0.0	0.0	0.0	0.0	59.0	61.0	192.0	170.0	46.0	969.47	23.0	35.0	-7.0	-997.0	
1636887769.549572	2.0	0.0	0.0	0.0	0.0	0.0	59.0	61.0	191.0	170.0	46.0	969.47	23.0	41.0	-4.0	-992.0	
1636887769.65372	2.0	0.0	0.0	0.0	0.0	0.0	59.0	62.0	189.0	170.0	46.0	969.37	23.0	43.0	-7.0	-1004.0	
1636887769.752076	2.0	0.0	0.0	0.0	0.0	0.0	59.0	62.0	190.0	170.0	46.0	969.41	23.0	38.0	2.0	-1004.0	
1636887769.857648	2.0	0.0	0.0	0.0	0.0	0.0	59.0	62.0	190.0	170.0	46.0	969.32	23.0	42.0	-11.0	-998.0	
1636887769.907482	2.0	0.0	0.0	0.0	0.0	0.0	59.0	62.0	192.0	170.0	46.0	969.34	23.0	35.0	-2.0	-990.0	
1636887770.008882	2.0	0.0	0.0	0.0	0.0	0.0	59.0	62.0	191.0	170.0	46.0	969.37	23.0	42.0	-9.0	-996.0	
1636887770.111812	2.0	0.0	0.0	0.0	0.0	0.0	59.0	62.0	190.0	170.0	46.0	969.37	23.0	36.0	-3.0	-989.0	
1636887770.213392	2.0	0.0	0.0	0.0	0.0	0.0	59.0	62.0	191.0	170.0	46.0	969.37	23.0	34.0	-3.0	-1004.0	
1636887770.317222	2.0	0.0	0.0	0.0	0.0	0.0	59.0	62.0	188.0	170.0	46.0	969.34	24.0	30.0	-8.0	-1007.0	
1636887770.418555	2.0	0.0	0.0	0.0	0.0	0.0	59.0	62.0	189.0	170.0	46.0	969.44	24.0	25.0	0.0	-1016.0	
1636887770.519038	2.0	0.0	0.0	0.0	0.0	0.0	59.0	62.0	192.0	170.0	46.0	969.4	24.0	34.0	-6.0	-991.0	
1636887770.620581	2.0	0.0	0.0	0.0	0.0	0.0	58.0	61.0	193.0	170.0	46.0	969.39	24.0	22.0	2.0	-1000.0	
1636887770.723698	2.0	0.0	0.0	0.0	0.0	0.0	58.0	61.0	192.0	170.0	46.0	969.38	24.0	26.0	9.0	-1002.0	
1636887770.82488	2.0	0.0	0.0	0.0	0.0	0.0	58.0	61.0	192.0	170.0	46.0	969.45	24.0	21.0	3.0	-1000.0	
1636887770.928798	2.0	0.0	0.0	0.0	0.0	0.0	58.0	61.0	193.0	170.0	46.0	969.42	24.0	31.0	-10.0	-984.0	
1636887771.031045	2.0	0.0	0.0	0.0	0.0	0.0	58.0	61.0	192.0	170.0	46.0	969.39	24.0	19.0	1.0	-998.0	
1636887771.129839	2.0	0.0	0.0	0.0	0.0	0.0	58.0	61.0	195.0	170.0	46.0	969.37	24.0	32.0	-11.0	-994.0	
1636887771.274784	1.0	0.0	0.0	0.0	0.0	0.0	58.0	61.0	192.0	170.0	46.0	969.33	24.0	22.0	0.0	-982.0	
1636887771.337171	1.0	0.0	0.0	0.0	0.0	0.0	58.0	61.0	191.0	170.0	46.0	969.4	25.0	24.0	-7.0	-990.0	
1636887771.438698	1.0	0.0	0.0	0.0	0.0	0.0	58.0	61.0	192.0	170.0	46.0	969.33	25.0	27.0	1.0	-1000.0	
1636887771.538755	1.0	0.0	0.0	0.0	0.0	0.0	58.0	61.0	192.0	170.0	46.0	969.38	25.0	26.0	5.0	-1005.0	
1636887771.640297	2.0	0.0	0.0	0.0	0.0	0.0	58.0	61.0	191.0	170.0	46.0	969.36	25.0	38.0	-2.0	-1000.0	
1636887771.741895	2.0	0.0	0.0	0.0	0.0	0.0	58.0	61.0	192.0	170.0	46.0	969.43	25.0	43.0	-7.0	-1000.0	
1636887771.84383	2.0	0.0	0.0	0.0	0.0	0.0	58.0	61.0	193.0	170.0	46.0	969.36	25.0	31.0	3.0	-1012.0	
1636887771.945489	2.0	0.0	0.0	0.0	0.0	0.0	58.0	61.0	194.0	170.0	46.0	969.42	25.0	33.0	2.0	-983.0	
1636887772.048	2.0	0.0	0.0	0.0	0.0	0.0	58.0	61.0	193.0	170.0	46.0	969.41	25.0	39.0	-1.0	-1008.0	
1636887772.152879	2.0	0.0	0.0	0.0	0.0	0.0	58.0	61.0	190.0	170.0	46.0	969.36	25.0	35.0	5.0	-1014.0	
1636887772.254718	2.0	0.0	0.0	0.0	0.0	0.0	58.0	61.0	191.0	170.0	46.0	969.38	25.0	54.0	-15.0	-997.0	
1636887772.354594	2.0	0.0	0.0	0.0	0.0	0.0	58.0	61.0	192.0	170.0	46.0	969.34	26.0	32.0	15.0	-1006.0	
1636887772.404243	2.0	0.0	0.0	0.0	0.0	0.0	58.0	61.0	189.0	170.0	46.0	969.37	26.0	44.0	-6.0	-991.0	
1636887772.507625	2.0	0.0	0.0	0.0	0.0	0.0	58.0	61.0	192.0	170.0	46.0	969.4	26.0	44.0	-1.0	-998.0	
1636887772.608902	2.0	0.0	0.0	0.0	0.0	0.0	58.0	61.0	193.0	170.0	45.0	969.39	26.0	40.0	-5.0	-983.0	
1636887772.71279	2.0	0.0	0.0	0.0	0.0	0.0	58.0	61.0	192.0	170.0	45.0	969.4	26.0	42.0	-1.0	-988.0	
1636887772.813583	2.0	0.0	0.0	0.0	0.0	0.0	58.0	61.0	191.0	170.0	45.0	969.4	26.0	41.0	-2.0	-994.0	
1636887772.915077	2.0	0.0	0.0	0.0	0.0	0.0	58.0	61.0	191.0	170.0	45.0	969.45	26.0	34.0	-5.0	-1006.0	
1636887773.019594	2.0	0.0	0.0	0.0	0.0	0.0	58.0	61.0	192.0	170.0	45.0	969.2	26.0	40.0	1.0	-1012.0	
1636887773.11949	2.0	0.0	0.0	0.0	0.0	0.0	58.0	61.0	192.0	170.0	45.0	969.33	26.0	51.0	6.0	-1002.0	
1636887773.223605	2.0	0.0	0.0	0.0	0.0	0.0	58.0	61.0	191.0	170.0	45.0	969.4	26.0	35.0	6.0	-1014.0	
1636887773.325848	2.0	0.0	0.0	0.0	0.0	0.0	58.0	61.0	191.0	170.0	45.0	969.37	27.0	35.0	3.0	-990.0	
1636887773.427582	2.0	0.0	0.0	0.0	0.0	0.0	58.0	61.0	190.0	170.0	45.0	969.43	27.0	22.0	11.0	-1002.0	
1636887773.53087	2.0	0.0	0.0	0.0	0.0	0.0	58.0	61.0	191.0	170.0	45.0	969.5	27.0	40.0	4.0	-973.0	
1636887773.631458	2.0	0.0	0.0	0.0	0.0	0.0	58.0	61.0	194.0	170.0	45.0	969.39	27.0	36.0	10.0	-987.0	
1636887773.733117	2.0	0.0	0.0	0.0	0.0	0.0	58.0	61.0	193.0	170.0	45.0	969.43	27.0	31.0	12.0	-995.0	
1636887773.834649	2.0	0.0	0.0	0.0	0.0	0.0	58.0	61.0	194.0	170.0	45.0	969.4	27.0	34.0	8.0	-985.0	
1636887773.940561	2.0	0.0	0.0	0.0	0.0	0.0	58.0	61.0	191.0	170.0	45.0	969.39	27.0	29.0	10.0	-993.0	
1636887774.040413	2.0	0.0	0.0	0.0	0.0	0.0	58.0	61.0	191.0	170.0	45.0	969.38	27.0	27.0	6.0	-992.0	
1636887774.141943	2.0	0.0	0.0	0.0	0.0	0.0	58.0	61.0	192.0	170.0	45.0	969.35	27.0	29.0	6.0	-996.0	
1636887774.243435	2.0	0.0	0.0	0.0	0.0	0.0	58.0	61.0	190.0	170.0	45.0	969.36	27.0	35.0	8.0	-1000.0	
1636887774.345545	2.0	0.0	0.0	0.0	0.0	0.0	58.0	61.0	191.0	170.0	45.0	969.41	28.0	26.0	14.0	-1000.0	
1636887774.447237	2.0	0.0	0.0	0.0	0.0	0.0	58.0	61.0	192.0	170.0	45.0	969.44	28.0	28.0	10.0	-1015.0	
1636887774.546917	2.0	0.0	0.0	0.0	0.0	0.0	58.0	61.0	192.0	170.0	45.0	969.4	28.0	13.0	13.0	-997.0	
1636887774.648567	2.0	0.0	0.0	0.0	0.0	0.0	59.0	61.0	190.0	170.0	44.0	969.35	28.0	28.0	10.0	-1000.0	
1636887774.752428	2.0	0.0	0.0	0.0	0.0	0.0	59.0	61.0	191.0	170.0	44.0	969.43	28.0	35.0	7.0	-986.0	
1636887774.854358	2.0	0.0	0.0	0.0	0.0	0.0	59.0	61.0	189.0	170.0	44.0	969.36	28.0	35.0	11.0	-1003.0	
1636887774.955674	1.0	0.0	0.0	0.0	0.0	0.0	59.0	61.0	189.0	170.0	44.0	969.38	28.0	50.0	5.0	-1011.0	
1636887775.056991	2.0	0.0	0.0	0.0	0.0	0.0	59.0	61.0	193.0	170.0	44.0	969.38	28.0	38.0	10.0	-986.0	
1636887775.159145	2.0	0.0	0.0	0.0	0.0	0.0	59.0	61.0	191.0	170.0	44.0	969.38	28.0	43.0	5.0	-1001.0	
1636887775.263507	2.0	0.0	0.0	0.0	0.0	0.0	59.0	61.0	191.0	170.0	44.0	969.39	28.0	32.0	14.0	-1000.0	
1636887775.365389	2.0	0.0	0.0	0.0	0.0	0.0	59.0	61.0	192.0	170.0	44.0	969.46	29.0	40.0	9.0	-991.0	
1636887775.465415	2.0	0.0	0.0	0.0	0.0	0.0	59.0	61.0	192.0	170.0	44.0	969.44	29.0	16.0	20.0	-988.0	
1636887775.56797	2.0	0.0	0.0	0.0	0.0	0.0	59.0	61.0	193.0	170.0	44.0	969.34	29.0	30.0	6.0	-996.0	
1636887775.669316	2.0	0.0	0.0	0.0	0.0	0.0	58.0	61.0	192.0	170.0	44.0	969.34	29.0	27.0	10.0	-976.0	
1636887775.772359	2.0	0.0	0.0	0.0	0.0	0.0	58.0	61.0	193.0	170.0	44.0	969.44	29.0	24.0	4.0	-987.0	
1636887775.874792	1.0	0.0	0.0	0.0	0.0	0.0	58.0	61.0	188.0	170.0	44.0	969.36	29.0	26.0	5.0	-1004.0	
1636887775.975232	1.0	0.0	0.0	0.0	0.0	0.0	58.0	61.0	190.0	170.0	44.0	969.35	29.0	21.0	5.0	-1019.0	
1636887776.078011	1.0	0.0	0.0	0.0	0.0	0.0	58.0	61.0	190.0	170.0	44.0	969.39	29.0	26.0	4.0	-1011.0	
1636887776.178979	1.0	0.0	0.0	0.0	0.0	0.0	58.0	61.0	190.0	170.0	44.0	969.35	29.0	20.0	8.0	-1001.0	
1636887776.282837	1.0	0.0	0.0	0.0	0.0	0.0	58.0	61.0	191.0	170.0	44.0	969.27	29.0	19.0	5.0	-992.0	
1636887776.382226	1.0	0.0	0.0	0.0	0.0	0.0	58.0	61.0	189.0	170.0	44.0	969.28	30.0	28.0	0.0	-992.0	
1636887776.484635	1.0	0.0	0.0	0.0	0.0	0.0	58.0	61.0	190.0	170.0	44.0	969.35	30.0	13.0	8.0	-999.0	
1636887776.537987	1.0	0.0	0.0	0.0	0.0	0.0	58.0	61.0	187.0	170.0	44.0	969.42	30.0	29.0	-10.0	-983.0	
1636887776.639515	1.0	0.0	0.0	0.0	0.0	0.0	58.0	61.0	188.0	170.0	44.0	969.47	30.0	28.0	5.0	-1004.0	
1636887776.739695	1.0	0.0	0.0	0.0	0.0	0.0	58.0	61.0	188.0	170.0	44.0	969.4	30.0	24.0	12.0	-1017.0	
1636887776.844045	1.0	0.0	0.0	0.0	0.0	0.0	58.0	61.0	188.0	170.0	44.0	969.48	30.0	14.0	16.0	-1005.0	
1636887776.9445	1.0	0.0	0.0	0.0	0.0	0.0	58.0	61.0	189.0	170.0	44.0	969.36	30.0	26.0	17.0	-999.0	
1636887777.04612	1.0	0.0	0.0	0.0	0.0	0.0	58.0	61.0	189.0	170.0	44.0	969.43	30.0	16.0	10.0	-1009.0	
1636887777.14772	1.0	0.0	0.0	0.0	0.0	0.0	58.0	61.0	190.0	170.0	44.0	969.39	30.0	33.0	1.0	-993.0	
1636887777.251681	1.0	0.0	0.0	0.0	0.0	0.0	58.0	61.0	191.0	170.0	44.0	969.43	30.0	28.0	9.0	-996.0	
1636887777.353367	1.0	0.0	0.0	0.0	0.0	0.0	58.0	61.0	189.0	170.0	44.0	969.41	31.0	30.0	2.0	-1006.0	
1636887777.453241	1.0	0.0	0.0	0.0	0.0	0.0	58.0	61.0	189.0	170.0	44.0	969.38	31.0	32.0	-4.0	-994.0	
1636887777.557028	1.0	0.0	0.0	0.0	0.0	0.0	58.0	61.0	190.0	170.0	44.0	969.36	31.0	34.0	-7.0	-985.0	
1636887777.658285	1.0	0.0	0.0	0.0	0.0	0.0	58.0	61.0	191.0	170.0	43.0	969.5	31.0	22.0	-3.0	-1006.0	
1636887777.762579	1.0	0.0	0.0	0.0	0.0	0.0	58.0	61.0	189.0	170.0	43.0	969.44	31.0	24.0	-2.0	-983.0	
1636887777.864534	1.0	0.0	0.0	0.0	0.0	0.0	58.0	61.0	191.0	170.0	43.0	969.44	31.0	36.0	-3.0	-1014.0	
1636887777.965964	1.0	0.0	0.0	0.0	0.0	0.0	58.0	61.0	190.0	170.0	43.0	969.39	31.0	39.0	-7.0	-994.0	
1636887778.064903	1.0	0.0	0.0	0.0	0.0	0.0	58.0	61.0	192.0	170.0	43.0	969.41	31.0	38.0	-10.0	-1007.0	
1636887778.167087	2.0	0.0	0.0	0.0	0.0	0.0	58.0	61.0	194.0	170.0	43.0	969.46	31.0	38.0	-10.0	-984.0	
1636887778.271766	2.0	0.0	0.0	0.0	0.0	0.0	58.0	61.0	194.0	170.0	43.0	969.45	31.0	23.0	9.0	-990.0	
1636887778.373272	2.0	1.0	0.0	0.0	0.0	0.0	58.0	61.0	191.0	170.0	43.0	969.41	32.0	35.0	-2.0	-982.0	
1636887778.47663	2.0	0.0	0.0	0.0	0.0	0.0	58.0	61.0	191.0	170.0	43.0	969.48	32.0	47.0	-10.0	-1009.0	
1636887778.577122	2.0	0.0	0.0	0.0	0.0	0.0	58.0	61.0	191.0	170.0	43.0	969.48	32.0	44.0	-12.0	-1006.0	
1636887778.678603	2.0	0.0	0.0	0.0	0.0	0.0	58.0	60.0	193.0	170.0	43.0	969.37	32.0	34.0	-13.0	-1002.0	
1636887778.779116	2.0	1.0	0.0	0.0	0.0	0.0	58.0	60.0	195.0	170.0	43.0	969.44	32.0	34.0	-25.0	-1013.0	
1636887778.883752	2.0	1.0	0.0	0.0	0.0	0.0	58.0	60.0	193.0	170.0	43.0	969.37	32.0	38.0	-18.0	-986.0	
1636887778.986401	2.0	1.0	0.0	0.0	0.0	0.0	58.0	60.0	194.0	170.0	43.0	969.45	32.0	35.0	-21.0	-994.0	
1636887779.087047	2.0	1.0	0.0	0.0	0.0	0.0	58.0	60.0	193.0	170.0	43.0	969.39	32.0	34.0	-11.0	-1006.0	
1636887779.189552	2.0	1.0	0.0	0.0	0.0	0.0	58.0	60.0	192.0	170.0	43.0	969.44	32.0	29.0	-18.0	-989.0	
1636887779.29048	2.0	1.0	0.0	0.0	0.0	0.0	58.0	60.0	192.0	170.0	43.0	969.39	33.0	41.0	-15.0	-991.0	
1636887779.39109	2.0	1.0	0.0	0.0	0.0	0.0	58.0	60.0	192.0	170.0	43.0	969.44	33.0	36.0	-23.0	-989.0	
1636887779.496532	2.0	1.0	0.0	0.0	0.0	0.0	58.0	60.0	192.0	170.0	43.0	969.46	33.0	16.0	-7.0	-994.0	
1636887779.597735	2.0	1.0	0.0	0.0	0.0	0.0	58.0	60.0	191.0	170.0	43.0	969.41	33.0	19.0	-24.0	-998.0	
1636887779.700678	1.0	1.0	0.0	0.0	0.0	0.0	58.0	60.0	190.0	170.0	42.0	969.35	33.0	23.0	-7.0	-997.0	
1636887779.80172	1.0	1.0	0.0	0.0	0.0	0.0	58.0	60.0	190.0	170.0	42.0	969.44	33.0	28.0	-20.0	-1001.0	
1636887779.902085	1.0	1.0	0.0	0.0	0.0	0.0	58.0	60.0	190.0	170.0	42.0	969.3	33.0	34.0	-24.0	-1012.0	
1636887780.005117	1.0	1.0	0.0	0.0	0.0	0.0	58.0	60.0	188.0	170.0	42.0	969.34	33.0	17.0	-13.0	-992.0	
1636887780.105173	1.0	0.0	0.0	0.0	0.0	0.0	58.0	60.0	188.0	170.0	42.0	969.46	33.0	31.0	-25.0	-998.0	
1636887780.209667	1.0	0.0	0.0	0.0	0.0	0.0	58.0	60.0	189.0	170.0	42.0	969.34	33.0	34.0	-24.0	-995.0	
1636887780.30953	1.0	0.0	0.0	0.0	0.0	0.0	58.0	60.0	187.0	170.0	42.0	969.42	34.0	35.0	-26.0	-995.0	
1636887780.361306	1.0	1.0	0.0	0.0	0.0	0.0	58.0	60.0	187.0	170.0	42.0	969.43	34.0	27.0	-24.0	-994.0	
1636887780.462753	1.0	1.0	0.0	0.0	0.0	0.0	58.0	60.0	190.0	170.0	42.0	969.4	34.0	26.0	-25.0	-1011.0	
1636887780.566874	1.0	1.0	0.0	0.0	0.0	0.0	58.0	60.0	189.0	170.0	42.0	969.43	34.0	33.0	-28.0	-996.0	
1636887780.665647	1.0	1.0	0.0	0.0	0.0	0.0	59.0	61.0	190.0	170.0	42.0	969.37	34.0	21.0	-16.0	-1005.0	
1636887780.770092	1.0	1.0	0.0	0.0	0.0	0.0	59.0	61.0	189.0	170.0	42.0	969.32	34.0	47.0	-33.0	-999.0	
1636887780.871725	1.0	1.0	0.0	0.0	0.0	0.0	59.0	61.0	188.0	170.0	42.0	969.32	34.0	35.0	-13.0	-986.0	
1636887780.975293	1.0	1.0	0.0	0.0	0.0	0.0	59.0	61.0	188.0	170.0	42.0	969.37	34.0	45.0	-15.0	-1000.0	
1636887781.077462	1.0	0.0	0.0	0.0	0.0	0.0	59.0	61.0	187.0	170.0	42.0	969.4	34.0	28.0	-1.0	-1001.0	
1636887781.178587	1.0	0.0	0.0	0.0	0.0	0.0	59.0	61.0	185.0	170.0	42.0	969.38	34.0	48.0	-24.0	-991.0	
1636887781.279895	1.0	0.0	0.0	0.0	0.0	0.0	59.0	61.0	186.0	170.0	42.0	969.34	35.0	48.0	-22.0	-1015.0	
1636887781.382327	2.0	0.0	0.0	0.0	0.0	0.0	59.0	61.0	186.0	170.0	42.0	969.4	35.0	40.0	-25.0	-1001.0	
1636887781.482323	2.0	0.0	0.0	0.0	0.0	0.0	59.0	61.0	185.0	170.0	42.0	969.39	35.0	37.0	-19.0	-992.0	
1636887781.58647	2.0	0.0	0.0	0.0	0.0	0.0	59.0	61.0	185.0	170.0	42.0	969.5	35.0	35.0	-18.0	-1001.0	
1636887781.689474	1.0	0.0	0.0	0.0	0.0	0.0	59.0	61.0	187.0	170.0	42.0	969.37	35.0	28.0	0.0	-998.0	
1636887781.788357	1.0	0.0	0.0	0.0	0.0	0.0	59.0	61.0	186.0	170.0	42.0	969.33	35.0	33.0	-2.0	-1003.0	
1636887781.894484	1.0	0.0	0.0	0.0	0.0	0.0	59.0	61.0	186.0	170.0	42.0	969.4	35.0	25.0	8.0	-1023.0	
1636887781.993638	1.0	0.0	0.0	0.0	0.0	0.0	59.0	61.0	187.0	170.0	42.0	969.46	35.0	25.0	3.0	-985.0	
1636887782.0975	1.0	0.0	0.0	0.0	0.0	0.0	59.0	61.0	185.0	170.0	42.0	969.42	35.0	23.0	4.0	-1016.0	
1636887782.199367	1.0	0.0	0.0	0.0	0.0	0.0	59.0	61.0	185.0	170.0	42.0	969.37	35.0	36.0	-6.0	-1008.0	
1636887782.301466	1.0	0.0	0.0	0.0	0.0	0.0	59.0	61.0	185.0	170.0	42.0	969.39	36.0	41.0	0.0	-991.0	
1636887782.40308	1.0	0.0	0.0	0.0	0.0	0.0	59.0	61.0	186.0	170.0	42.0	969.47	36.0	31.0	7.0	-995.0	
1636887782.504535	1.0	0.0	0.0	0.0	0.0	0.0	59.0	61.0	186.0	170.0	42.0	969.39	36.0	35.0	4.0	-1015.0	
1636887782.605206	1.0	0.0	0.0	0.0	0.0	0.0	59.0	61.0	184.0	170.0	42.0	969.37	36.0	36.0	2.0	-992.0	
1636887782.70827	1.0	0.0	0.0	0.0	0.0	0.0	59.0	60.0	185.0	170.0	42.0	969.41	36.0	36.0	-2.0	-998.0	
1636887782.812291	1.0	0.0	0.0	0.0	0.0	0.0	59.0	60.0	183.0	170.0	42.0	969.53	36.0	39.0	3.0	-996.0	
1636887782.913873	1.0	0.0	0.0	0.0	0.0	0.0	59.0	60.0	185.0	170.0	42.0	969.4	36.0	39.0	-1.0	-996.0	
1636887783.01473	1.0	0.0	0.0	0.0	0.0	0.0	59.0	60.0	183.0	170.0	42.0	969.4	36.0	52.0	-5.0	-990.0	
1636887783.115608	1.0	0.0	0.0	0.0	0.0	0.0	59.0	60.0	184.0	170.0	42.0	969.45	36.0	41.0	7.0	-1016.0	
1636887783.217243	1.0	0.0	0.0	0.0	0.0	0.0	59.0	60.0	183.0	170.0	42.0	969.37	36.0	51.0	4.0	-1010.0	
1636887783.321314	2.0	0.0	0.0	0.0	0.0	0.0	59.0	60.0	183.0	170.0	42.0	969.39	37.0	41.0	9.0	-1007.0	
1636887783.423353	2.0	0.0	0.0	0.0	0.0	0.0	59.0	60.0	183.0	170.0	42.0	969.38	37.0	32.0	10.0	-1017.0	
1636887783.523817	2.0	0.0	0.0	0.0	0.0	0.0	59.0	60.0	183.0	170.0	42.0	969.4	37.0	31.0	26.0	-1013.0	
1636887783.624979	2.0	0.0	0.0	0.0	0.0	0.0	59.0	60.0	184.0	170.0	42.0	969.34	37.0	29.0	12.0	-1019.0	
1636887783.72996	2.0	0.0	0.0	0.0	0.0	0.0	58.0	62.0	184.0	170.0	41.0	969.37	37.0	26.0	18.0	-1019.0	
1636887783.832391	1.0	0.0	0.0	0.0	0.0	0.0	58.0	62.0	183.0	170.0	41.0	969.45	37.0	22.0	18.0	-997.0	
1636887783.931586	1.0	0.0	0.0	0.0	0.0	0.0	58.0	62.0	182.0	170.0	41.0	969.43	37.0	38.0	2.0	-1007.0	
1636887784.033568	1.0	0.0	0.0	0.0	0.0	0.0	58.0	62.0	183.0	170.0	41.0	969.45	37.0	38.0	17.0	-1009.0	
1636887784.138256	1.0	-1.0	0.0	0.0	0.0	0.0	58.0	62.0	182.0	170.0	41.0	969.39	37.0	18.0	18.0	-1012.0	
1636887784.24143	1.0	-1.0	0.0	0.0	0.0	0.0	58.0	62.0	180.0	170.0	41.0	969.36	37.0	20.0	18.0	-1009.0	
1636887784.342979	0.0	-1.0	0.0	0.0	0.0	0.0	58.0	62.0	181.0	170.0	41.0	969.48	38.0	25.0	15.0	-998.0	
1636887784.442416	0.0	-1.0	0.0	0.0	0.0	0.0	58.0	62.0	181.0	170.0	41.0	969.42	38.0	22.0	24.0	-1013.0	
1636887784.544928	0.0	-1.0	0.0	0.0	0.0	0.0	58.0	62.0	181.0	170.0	41.0	969.43	38.0	30.0	17.0	-992.0	
1636887784.597113	0.0	-1.0	0.0	0.0	0.0	0.0	58.0	62.0	182.0	170.0	41.0	969.41	38.0	24.0	16.0	-1008.0	
1636887784.746727	0.0	-1.0	0.0	0.0	0.0	0.0	59.0	61.0	181.0	170.0	41.0	969.4	38.0	20.0	17.0	-1007.0	
1636887784.801449	0.0	-1.0	0.0	0.0	0.0	0.0	59.0	61.0	181.0	170.0	41.0	969.41	38.0	30.0	9.0	-1006.0	
1636887784.900261	0.0	0.0	0.0	0.0	0.0	0.0	59.0	61.0	183.0	170.0	41.0	969.39	38.0	24.0	22.0	-996.0	
1636887785.005035	0.0	-1.0	0.0	0.0	0.0	0.0	59.0	61.0	183.0	170.0	41.0	969.36	38.0	23.0	19.0	-998.0	
1636887785.105474	0.0	0.0	0.0	0.0	0.0	0.0	59.0	61.0	183.0	170.0	41.0	969.4	38.0	25.0	14.0	-1008.0	
1636887785.207153	1.0	0.0	0.0	0.0	0.0	0.0	59.0	61.0	182.0	170.0	41.0	969.38	38.0	28.0	6.0	-995.0	
1636887785.308627	1.0	0.0	0.0	0.0	0.0	0.0	59.0	61.0	184.0	170.0	41.0	969.34	39.0	35.0	4.0	-1007.0	
1636887785.410081	1.0	0.0	0.0	0.0	0.0	0.0	59.0	61.0	184.0	170.0	41.0	969.42	39.0	26.0	5.0	-992.0	
1636887785.515055	1.0	0.0	0.0	0.0	0.0	0.0	59.0	61.0	184.0	170.0	41.0	969.4	39.0	34.0	1.0	-996.0	
1636887785.616216	1.0	0.0	0.0	0.0	0.0	0.0	59.0	61.0	184.0	170.0	41.0	969.42	39.0	32.0	4.0	-1005.0	
1636887785.717811	1.0	0.0	0.0	0.0	0.0	0.0	58.0	61.0	184.0	170.0	41.0	969.38	39.0	32.0	9.0	-1011.0	
1636887785.821459	1.0	0.0	0.0	0.0	0.0	0.0	58.0	61.0	184.0	170.0	41.0	969.4	39.0	28.0	-3.0	-996.0	
1636887785.919961	1.0	0.0	0.0	0.0	0.0	0.0	58.0	61.0	186.0	170.0	41.0	969.39	39.0	37.0	5.0	-989.0	
1636887786.023076	1.0	0.0	0.0	0.0	0.0	0.0	58.0	61.0	186.0	170.0	41.0	969.43	39.0	22.0	3.0	-1013.0	
1636887786.123838	1.0	0.0	0.0	0.0	0.0	0.0	58.0	61.0	185.0	170.0	41.0	969.49	39.0	30.0	-1.0	-1003.0	
1636887786.228525	1.0	0.0	0.0	0.0	0.0	0.0	58.0	61.0	185.0	170.0	41.0	969.48	39.0	35.0	-8.0	-988.0	
1636887786.332974	1.0	0.0	0.0	0.0	0.0	0.0	58.0	61.0	186.0	170.0	41.0	969.51	40.0	26.0	-3.0	-993.0	
1636887786.432859	1.0	0.0	0.0	0.0	0.0	0.0	58.0	61.0	185.0	170.0	41.0	969.52	40.0	19.0	9.0	-1005.0	
1636887786.533541	1.0	0.0	0.0	0.0	0.0	0.0	58.0	61.0	186.0	170.0	41.0	969.46	40.0	18.0	6.0	-1001.0	
1636887786.633799	1.0	0.0	0.0	0.0	0.0	0.0	58.0	61.0	186.0	170.0	40.0	969.46	40.0	20.0	7.0	-1013.0	
1636887786.739644	1.0	0.0	0.0	0.0	0.0	0.0	58.0	60.0	188.0	170.0	40.0	969.49	40.0	34.0	-8.0	-997.0	
1636887786.860498	1.0	0.0	0.0	0.0	0.0	0.0	58.0	60.0	189.0	170.0	40.0	969.5	40.0	21.0	13.0	-987.0	
1636887786.960125	1.0	0.0	0.0	0.0	0.0	0.0	58.0	60.0	189.0	170.0	40.0	969.5	40.0	26.0	3.0	-996.0	
1636887787.043606	1.0	0.0	0.0	0.0	0.0	0.0	58.0	60.0	191.0	170.0	40.0	969.48	40.0	30.0	4.0	-990.0	
1636887787.148633	1.0	0.0	0.0	0.0	0.0	0.0	58.0	60.0	190.0	170.0	40.0	969.58	40.0	26.0	7.0	-1002.0	
1636887787.249718	1.0	0.0	0.0	0.0	0.0	0.0	58.0	60.0	192.0	170.0	40.0	969.5	40.0	27.0	16.0	-1000.0	
1636887787.354298	1.0	0.0	0.0	0.0	0.0	0.0	58.0	60.0	191.0	170.0	40.0	969.47	41.0	23.0	16.0	-979.0	
1636887787.472913	1.0	0.0	0.0	0.0	0.0	0.0	58.0	60.0	189.0	170.0	40.0	969.48	41.0	31.0	3.0	-988.0	
1636887787.579749	1.0	0.0	0.0	0.0	0.0	0.0	58.0	60.0	189.0	170.0	40.0	969.48	41.0	29.0	13.0	-1001.0	
1636887787.65604	1.0	0.0	0.0	0.0	0.0	0.0	58.0	60.0	190.0	170.0	40.0	969.53	41.0	22.0	24.0	-1013.0	
1636887787.757993	1.0	0.0	0.0	0.0	0.0	0.0	58.0	60.0	189.0	170.0	40.0	969.54	41.0	22.0	16.0	-1007.0	
1636887787.892995	1.0	0.0	0.0	0.0	0.0	0.0	58.0	60.0	190.0	170.0	40.0	969.57	41.0	20.0	12.0	-1013.0	
1636887787.961871	1.0	0.0	0.0	0.0	0.0	0.0	58.0	60.0	189.0	170.0	40.0	969.52	41.0	23.0	11.0	-1008.0	
1636887788.101627	1.0	0.0	0.0	0.0	0.0	0.0	58.0	60.0	190.0	170.0	40.0	969.52	41.0	26.0	12.0	-987.0	
1636887788.194558	1.0	0.0	0.0	0.0	0.0	0.0	58.0	60.0	190.0	170.0	40.0	969.47	41.0	32.0	2.0	-992.0	
1636887788.268005	1.0	0.0	0.0	0.0	0.0	0.0	58.0	60.0	189.0	170.0	40.0	969.5	41.0	32.0	4.0	-991.0	
1636887788.402046	0.0	0.0	0.0	0.0	0.0	0.0	58.0	60.0	189.0	170.0	40.0	969.54	42.0	28.0	2.0	-997.0	
1636887788.471804	0.0	0.0	0.0	0.0	0.0	0.0	58.0	60.0	191.0	170.0	40.0	969.52	42.0	30.0	-3.0	-988.0	
1636887788.53883	0.0	0.0	0.0	0.0	0.0	0.0	58.0	60.0	190.0	170.0	40.0	969.46	42.0	18.0	12.0	-1019.0	
1636887788.637998	0.0	-1.0	0.0	0.0	0.0	0.0	58.0	60.0	191.0	170.0	40.0	969.53	42.0	23.0	7.0	-990.0	
1636887788.776575	0.0	-1.0	0.0	0.0	0.0	0.0	58.0	61.0	191.0	170.0	40.0	969.47	42.0	14.0	10.0	-1003.0	
1636887788.831365	0.0	0.0	0.0	0.0	0.0	0.0	58.0	61.0	193.0	170.0	40.0	969.51	42.0	7.0	17.0	-994.0	
1636887788.946456	0.0	0.0	0.0	0.0	0.0	0.0	58.0	61.0	192.0	170.0	40.0	969.53	42.0	11.0	26.0	-997.0	
1636887789.034945	0.0	0.0	0.0	0.0	0.0	0.0	58.0	61.0	193.0	170.0	40.0	969.53	42.0	12.0	18.0	-978.0	
1636887789.133642	0.0	0.0	0.0	0.0	0.0	0.0	58.0	61.0	191.0	170.0	40.0	969.53	42.0	23.0	22.0	-994.0	
1636887789.251612	0.0	0.0	0.0	0.0	0.0	0.0	58.0	61.0	192.0	170.0	40.0	969.55	42.0	37.0	5.0	-982.0	
1636887789.341028	0.0	0.0	0.0	0.0	0.0	0.0	58.0	61.0	192.0	170.0	40.0	969.53	43.0	16.0	25.0	-1003.0	
1636887789.461786	1.0	-1.0	0.0	0.0	0.0	0.0	58.0	61.0	193.0	170.0	40.0	969.48	43.0	19.0	24.0	-1008.0	
1636887789.557618	1.0	-1.0	0.0	0.0	0.0	0.0	58.0	61.0	192.0	170.0	40.0	969.43	43.0	33.0	6.0	-983.0	
1636887789.644475	1.0	-1.0	0.0	0.0	0.0	0.0	58.0	61.0	193.0	170.0	39.0	969.52	43.0	10.0	23.0	-988.0	
1636887789.748364	1.0	-1.0	0.0	0.0	0.0	0.0	58.0	61.0	192.0	170.0	39.0	969.54	43.0	18.0	41.0	-1005.0	
1636887789.868107	1.0	-1.0	0.0	0.0	0.0	0.0	58.0	61.0	193.0	170.0	39.0	969.47	43.0	28.0	21.0	-989.0	
1636887789.953183	1.0	-1.0	0.0	0.0	0.0	0.0	58.0	61.0	193.0	170.0	39.0	969.54	43.0	15.0	32.0	-996.0	
1636887790.052696	1.0	-1.0	0.0	0.0	0.0	0.0	58.0	61.0	193.0	170.0	39.0	969.49	43.0	17.0	24.0	-995.0	
1636887790.176761	0.0	-1.0	0.0	0.0	0.0	0.0	58.0	61.0	193.0	170.0	39.0	969.51	43.0	38.0	16.0	-1002.0	
1636887790.258414	0.0	-1.0	0.0	0.0	0.0	0.0	58.0	61.0	194.0	170.0	39.0	969.61	43.0	41.0	0.0	-978.0	
1636887790.379972	1.0	-1.0	0.0	0.0	0.0	0.0	58.0	61.0	193.0	170.0	39.0	969.46	44.0	18.0	13.0	-1006.0	
1636887790.479805	1.0	-1.0	0.0	0.0	0.0	0.0	58.0	61.0	192.0	170.0	39.0	969.54	44.0	34.0	0.0	-1008.0	
1636887790.562837	1.0	-1.0	0.0	0.0	0.0	0.0	58.0	61.0	191.0	170.0	39.0	969.49	44.0	30.0	5.0	-1002.0	
1636887790.66668	1.0	-1.0	0.0	0.0	0.0	0.0	58.0	61.0	191.0	170.0	39.0	969.52	44.0	34.0	6.0	-995.0	
1636887790.788573	1.0	-1.0	0.0	0.0	0.0	0.0	58.0	61.0	192.0	170.0	39.0	969.5	44.0	18.0	14.0	-1005.0	
1636887790.868464	0.0	0.0	0.0	0.0	0.0	0.0	58.0	61.0	192.0	170.0	39.0	969.54	44.0	11.0	25.0	-999.0	
1636887790.96931	0.0	0.0	0.0	0.0	0.0	0.0	58.0	61.0	191.0	170.0	39.0	969.57	44.0	18.0	29.0	-999.0	
1636887791.097282	0.0	0.0	0.0	0.0	0.0	0.0	58.0	61.0	191.0	170.0	39.0	969.55	44.0	26.0	3.0	-998.0	
1636887791.176283	0.0	0.0	0.0	0.0	0.0	0.0	58.0	61.0	192.0	170.0	39.0	969.44	44.0	2.0	29.0	-985.0	
1636887791.305431	0.0	0.0	0.0	0.0	0.0	0.0	58.0	61.0	191.0	170.0	39.0	969.56	44.0	24.0	14.0	-992.0	
1636887791.401762	0.0	0.0	0.0	0.0	0.0	0.0	58.0	61.0	190.0	170.0	39.0	969.53	45.0	5.0	21.0	-1014.0	
1636887791.481402	0.0	0.0	0.0	0.0	0.0	0.0	58.0	61.0	191.0	170.0	39.0	969.48	45.0	19.0	10.0	-1000.0	
1636887791.584539	1.0	-1.0	0.0	0.0	0.0	0.0	58.0	61.0	191.0	170.0	39.0	969.57	45.0	4.0	29.0	-1010.0	
1636887791.712038	1.0	-1.0	0.0	0.0	0.0	0.0	58.0	61.0	193.0	170.0	38.0	969.61	45.0	18.0	11.0	-983.0	
1636887791.78821	0.0	0.0	0.0	0.0	0.0	0.0	58.0	60.0	192.0	170.0	38.0	969.51	45.0	23.0	14.0	-987.0	
1636887791.888486	0.0	0.0	0.0	0.0	0.0	0.0	58.0	60.0	191.0	170.0	38.0	969.54	45.0	13.0	27.0	-995.0	
1636887792.017044	0.0	-1.0	0.0	0.0	0.0	0.0	58.0	60.0	192.0	170.0	38.0	969.62	45.0	21.0	7.0	-984.0	
1636887792.093391	1.0	-1.0	0.0	0.0	0.0	0.0	58.0	60.0	193.0	170.0	38.0	969.53	45.0	28.0	12.0	-1010.0	
1636887792.227602	1.0	-1.0	0.0	0.0	0.0	0.0	58.0	60.0	193.0	170.0	38.0	969.55	45.0	28.0	8.0	-998.0	
1636887792.246373	0.0	0.0	0.0	0.0	0.0	0.0	58.0	60.0	192.0	180.0	38.0	969.54	45.0	24.0	3.0	-989.0	
1636887792.348416	1.0	0.0	0.0	0.0	0.0	0.0	58.0	60.0	193.0	180.0	38.0	969.62	46.0	30.0	6.0	-1000.0	
1636887792.448274	1.0	0.0	0.0	0.0	0.0	0.0	58.0	60.0	193.0	180.0	38.0	969.5	46.0	30.0	5.0	-994.0	
1636887792.55241	1.0	0.0	0.0	0.0	0.0	0.0	58.0	60.0	195.0	180.0	38.0	969.49	46.0	19.0	14.0	-997.0	
1636887792.653814	1.0	0.0	0.0	0.0	0.0	0.0	58.0	60.0	194.0	180.0	38.0	969.5	46.0	21.0	9.0	-983.0	
1636887792.8077	1.0	0.0	0.0	0.0	0.0	0.0	59.0	60.0	194.0	180.0	38.0	969.52	46.0	19.0	15.0	-997.0	
1636887792.860292	0.0	0.0	0.0	0.0	0.0	0.0	59.0	60.0	194.0	180.0	38.0	969.46	46.0	26.0	4.0	-1005.0	
1636887792.95813	0.0	0.0	0.0	0.0	0.0	0.0	59.0	60.0	194.0	180.0	38.0	969.47	46.0	35.0	3.0	-999.0	
1636887793.06564	0.0	0.0	0.0	0.0	0.0	0.0	59.0	60.0	193.0	180.0	38.0	969.53	46.0	22.0	4.0	-993.0	
1636887793.163422	0.0	0.0	0.0	0.0	0.0	0.0	59.0	60.0	194.0	180.0	38.0	969.52	46.0	24.0	5.0	-991.0	
1636887793.267896	0.0	0.0	0.0	0.0	0.0	0.0	59.0	60.0	193.0	180.0	38.0	969.56	47.0	24.0	1.0	-1001.0	
1636887793.369461	0.0	0.0	0.0	0.0	0.0	0.0	59.0	60.0	193.0	180.0	38.0	969.5	47.0	13.0	9.0	-1001.0	
1636887793.469746	0.0	0.0	0.0	0.0	0.0	0.0	59.0	60.0	193.0	170.0	38.0	969.54	47.0	22.0	8.0	-999.0	
1636887793.571585	1.0	0.0	0.0	0.0	0.0	0.0	59.0	60.0	193.0	170.0	38.0	969.54	47.0	20.0	9.0	-1000.0	
1636887793.675554	1.0	0.0	0.0	0.0	0.0	0.0	59.0	60.0	194.0	170.0	38.0	969.47	47.0	16.0	4.0	-987.0	
1636887793.774544	1.0	0.0	0.0	0.0	0.0	0.0	58.0	60.0	194.0	170.0	38.0	969.49	47.0	28.0	8.0	-991.0	
1636887793.880044	1.0	0.0	0.0	0.0	0.0	0.0	58.0	60.0	194.0	180.0	38.0	969.46	47.0	23.0	17.0	-1011.0	
1636887793.979698	1.0	0.0	0.0	0.0	0.0	0.0	58.0	60.0	195.0	180.0	38.0	969.49	47.0	23.0	11.0	-994.0	
1636887794.084448	1.0	0.0	0.0	0.0	0.0	0.0	58.0	60.0	194.0	180.0	38.0	969.53	47.0	23.0	8.0	-984.0	
1636887794.182214	1.0	0.0	0.0	0.0	0.0	0.0	58.0	60.0	195.0	180.0	38.0	969.57	47.0	38.0	-3.0	-973.0	
1636887794.28688	1.0	0.0	0.0	0.0	0.0	0.0	58.0	60.0	196.0	180.0	38.0	969.56	48.0	22.0	4.0	-996.0	
1636887794.386248	1.0	0.0	0.0	0.0	0.0	0.0	58.0	60.0	197.0	180.0	38.0	969.51	48.0	24.0	8.0	-988.0	
1636887794.488981	1.0	0.0	0.0	0.0	0.0	0.0	58.0	60.0	195.0	180.0	38.0	969.44	48.0	21.0	9.0	-983.0	
1636887794.591004	1.0	0.0	0.0	0.0	0.0	0.0	58.0	60.0	195.0	180.0	38.0	969.54	48.0	15.0	10.0	-991.0	
1636887794.69462	1.0	0.0	0.0	0.0	0.0	0.0	58.0	60.0	194.0	180.0	38.0	969.52	48.0	19.0	14.0	-1007.0	
1636887794.795908	0.0	0.0	0.0	0.0	0.0	0.0	58.0	60.0	195.0	180.0	38.0	969.53	48.0	19.0	4.0	-1007.0	
1636887794.89733	1.0	0.0	0.0	0.0	0.0	0.0	58.0	60.0	196.0	180.0	38.0	969.57	48.0	17.0	5.0	-996.0	
1636887794.999022	1.0	0.0	0.0	0.0	0.0	0.0	58.0	60.0	195.0	180.0	38.0	969.55	48.0	13.0	4.0	-982.0	
1636887795.102879	0.0	0.0	0.0	0.0	0.0	0.0	58.0	60.0	195.0	180.0	38.0	969.58	48.0	16.0	7.0	-997.0	
1636887795.204636	0.0	0.0	0.0	0.0	0.0	0.0	58.0	60.0	195.0	180.0	38.0	969.53	48.0	15.0	3.0	-1006.0	
1636887795.304504	0.0	0.0	0.0	0.0	0.0	0.0	58.0	60.0	195.0	180.0	38.0	969.58	49.0	11.0	5.0	-1000.0	
1636887795.409987	0.0	0.0	0.0	0.0	0.0	0.0	58.0	60.0	195.0	180.0	38.0	969.59	49.0	17.0	0.0	-984.0	
1636887795.509171	0.0	0.0	0.0	0.0	0.0	0.0	58.0	60.0	192.0	180.0	38.0	969.48	49.0	19.0	-6.0	-988.0	
1636887795.613955	0.0	0.0	0.0	0.0	0.0	0.0	58.0	60.0	194.0	180.0	38.0	969.51	49.0	30.0	-9.0	-997.0	
1636887795.712638	0.0	0.0	0.0	0.0	0.0	0.0	58.0	60.0	195.0	180.0	38.0	969.55	49.0	32.0	0.0	-996.0	
1636887795.81505	0.0	0.0	0.0	0.0	0.0	0.0	57.0	61.0	194.0	180.0	38.0	969.54	49.0	33.0	2.0	-1000.0	
1636887795.917587	1.0	0.0	0.0	0.0	0.0	0.0	57.0	61.0	194.0	180.0	38.0	969.54	49.0	24.0	-6.0	-995.0	
1636887796.020572	1.0	0.0	0.0	0.0	0.0	0.0	57.0	61.0	195.0	180.0	38.0	969.58	49.0	34.0	-9.0	-1002.0	
1636887796.120494	1.0	0.0	0.0	0.0	0.0	0.0	57.0	61.0	196.0	180.0	38.0	969.6	49.0	39.0	-18.0	-992.0	
1636887796.225711	1.0	0.0	0.0	0.0	0.0	0.0	57.0	61.0	195.0	180.0	38.0	969.49	49.0	32.0	-18.0	-988.0	
1636887796.326537	1.0	0.0	0.0	0.0	0.0	0.0	57.0	61.0	195.0	180.0	38.0	969.61	50.0	32.0	5.0	-997.0	
1636887796.427159	1.0	0.0	0.0	0.0	0.0	0.0	57.0	61.0	193.0	180.0	38.0	969.5	50.0	36.0	0.0	-1001.0	
1636887796.529549	1.0	0.0	0.0	0.0	0.0	0.0	57.0	61.0	196.0	180.0	38.0	969.56	50.0	35.0	-2.0	-996.0	
1636887796.582904	1.0	0.0	0.0	0.0	0.0	0.0	57.0	61.0	196.0	180.0	38.0	969.54	50.0	16.0	-2.0	-998.0	
1636887796.68144	1.0	0.0	0.0	0.0	0.0	0.0	57.0	61.0	196.0	180.0	37.0	969.44	50.0	31.0	1.0	-1001.0	
1636887796.834447	1.0	0.0	0.0	0.0	0.0	0.0	58.0	60.0	195.0	180.0	37.0	969.52	50.0	35.0	4.0	-998.0	
1636887796.939402	1.0	0.0	0.0	0.0	0.0	0.0	58.0	60.0	196.0	180.0	37.0	969.48	50.0	23.0	-4.0	-987.0	
1636887797.040365	1.0	0.0	0.0	0.0	0.0	0.0	58.0	60.0	195.0	180.0	37.0	969.52	50.0	19.0	0.0	-991.0	
1636887797.142912	1.0	0.0	0.0	0.0	0.0	0.0	58.0	60.0	194.0	180.0	37.0	969.51	50.0	22.0	-8.0	-983.0	
1636887797.244841	0.0	0.0	0.0	0.0	0.0	0.0	58.0	60.0	194.0	180.0	37.0	969.56	50.0	13.0	3.0	-979.0	
1636887797.294533	0.0	0.0	0.0	0.0	0.0	0.0	58.0	60.0	194.0	180.0	37.0	969.54	51.0	18.0	11.0	-1005.0	
1636887797.395865	0.0	0.0	0.0	0.0	0.0	0.0	58.0	60.0	193.0	180.0	37.0	969.64	51.0	22.0	5.0	-997.0	
1636887797.500345	0.0	0.0	0.0	0.0	0.0	0.0	58.0	60.0	192.0	170.0	37.0	969.55	51.0	17.0	2.0	-995.0	
1636887797.601989	0.0	0.0	0.0	0.0	0.0	0.0	58.0	60.0	193.0	170.0	37.0	969.52	51.0	20.0	-2.0	-1012.0	
1636887797.701995	1.0	0.0	0.0	0.0	0.0	0.0	58.0	60.0	191.0	170.0	37.0	969.49	51.0	19.0	-2.0	-1001.0	
1636887797.806111	0.0	0.0	0.0	0.0	0.0	0.0	58.0	60.0	190.0	170.0	37.0	969.53	51.0	21.0	3.0	-1016.0	
1636887797.90742	0.0	0.0	0.0	0.0	0.0	0.0	58.0	60.0	191.0	170.0	37.0	969.54	51.0	22.0	1.0	-1005.0	
1636887798.006843	1.0	0.0	0.0	0.0	0.0	0.0	58.0	60.0	191.0	170.0	37.0	969.5	51.0	32.0	-16.0	-1015.0	
1636887798.111433	0.0	0.0	0.0	0.0	0.0	0.0	58.0	60.0	192.0	170.0	37.0	969.47	51.0	30.0	-9.0	-1004.0	
1636887798.212138	0.0	0.0	0.0	0.0	0.0	0.0	58.0	60.0	191.0	170.0	37.0	969.53	51.0	27.0	1.0	-996.0	
1636887798.316004	1.0	0.0	0.0	0.0	0.0	0.0	58.0	60.0	192.0	170.0	37.0	969.59	52.0	21.0	9.0	-1003.0	
1636887798.41851	1.0	0.0	0.0	0.0	0.0	0.0	58.0	60.0	192.0	170.0	37.0	969.53	52.0	23.0	1.0	-1006.0	
1636887798.519955	1.0	0.0	0.0	0.0	0.0	0.0	58.0	60.0	192.0	170.0	37.0	969.52	52.0	23.0	0.0	-1001.0	
1636887798.621137	1.0	0.0	0.0	0.0	0.0	0.0	58.0	60.0	192.0	170.0	37.0	969.55	52.0	32.0	-5.0	-992.0	
1636887798.724536	1.0	0.0	0.0	0.0	0.0	0.0	58.0	60.0	192.0	170.0	37.0	969.57	52.0	21.0	3.0	-991.0	
1636887798.823265	1.0	0.0	0.0	0.0	0.0	0.0	58.0	59.0	192.0	170.0	37.0	969.48	52.0	35.0	-12.0	-999.0	
1636887798.927763	1.0	0.0	0.0	0.0	0.0	0.0	58.0	59.0	193.0	170.0	37.0	969.47	52.0	29.0	0.0	-1000.0	
1636887799.030432	1.0	0.0	0.0	0.0	0.0	0.0	58.0	59.0	191.0	170.0	37.0	969.51	52.0	25.0	1.0	-994.0	
1636887799.131562	1.0	0.0	0.0	0.0	0.0	0.0	58.0	59.0	194.0	170.0	37.0	969.55	52.0	41.0	-2.0	-1002.0	
1636887799.23444	1.0	0.0	0.0	0.0	0.0	0.0	58.0	59.0	192.0	170.0	37.0	969.49	52.0	47.0	-16.0	-994.0	
1636887799.335548	2.0	0.0	0.0	0.0	0.0	0.0	58.0	59.0	190.0	170.0	37.0	969.63	53.0	41.0	-7.0	-1003.0	
1636887799.434922	1.0	0.0	0.0	0.0	0.0	0.0	58.0	59.0	191.0	170.0	37.0	969.57	53.0	26.0	8.0	-1006.0	
1636887799.540093	1.0	0.0	0.0	0.0	0.0	0.0	58.0	59.0	191.0	170.0	37.0	969.52	53.0	38.0	1.0	-992.0	
1636887799.640567	1.0	0.0	0.0	0.0	0.0	0.0	58.0	59.0	192.0	170.0	37.0	969.56	53.0	44.0	7.0	-1002.0	
1636887799.744714	2.0	0.0	0.0	0.0	0.0	0.0	58.0	59.0	190.0	170.0	37.0	969.51	53.0	32.0	17.0	-1003.0	
1636887799.845543	1.0	0.0	0.0	0.0	0.0	0.0	58.0	60.0	191.0	170.0	37.0	969.53	53.0	55.0	0.0	-976.0	
1636887799.946126	2.0	0.0	0.0	0.0	0.0	0.0	58.0	60.0	191.0	170.0	37.0	969.51	53.0	49.0	-2.0	-1009.0	
1636887800.050148	2.0	0.0	0.0	0.0	0.0	0.0	58.0	60.0	192.0	170.0	37.0	969.57	53.0	37.0	16.0	-1010.0	
1636887800.153584	2.0	0.0	0.0	0.0	0.0	0.0	58.0	60.0	191.0	170.0	37.0	969.53	53.0	28.0	23.0	-1005.0	
1636887800.257437	2.0	0.0	0.0	0.0	0.0	0.0	58.0	60.0	191.0	170.0	37.0	969.52	53.0	41.0	1.0	-1004.0	
1636887800.357311	2.0	0.0	0.0	0.0	0.0	0.0	58.0	60.0	189.0	170.0	37.0	969.47	54.0	46.0	2.0	-986.0	
1636887800.406127	2.0	0.0	0.0	0.0	0.0	0.0	58.0	60.0	191.0	170.0	37.0	969.49	54.0	58.0	-3.0	-981.0	
1636887800.508991	2.0	0.0	0.0	0.0	0.0	0.0	58.0	60.0	192.0	170.0	37.0	969.43	54.0	49.0	6.0	-1015.0	
1636887800.608262	2.0	0.0	0.0	0.0	0.0	0.0	58.0	60.0	191.0	170.0	36.0	969.45	54.0	53.0	-6.0	-984.0	
1636887800.712522	2.0	0.0	0.0	0.0	0.0	0.0	58.0	60.0	191.0	170.0	36.0	969.45	54.0	53.0	-6.0	-984.0	
1636887800.713886	2.0	0.0	0.0	0.0	0.0	0.0	58.0	60.0	190.0	170.0	36.0	969.52	54.0	47.0	2.0	-995.0	
1636887800.863843	2.0	0.0	0.0	0.0	0.0	0.0	58.0	61.0	191.0	170.0	36.0	969.51	54.0	42.0	19.0	-1015.0	
1636887800.966173	2.0	0.0	0.0	0.0	0.0	0.0	58.0	61.0	190.0	170.0	36.0	969.49	54.0	53.0	0.0	-1001.0	
1636887801.070405	2.0	0.0	0.0	0.0	0.0	0.0	58.0	61.0	189.0	170.0	36.0	969.52	54.0	47.0	9.0	-1008.0	
1636887801.121571	2.0	0.0	0.0	0.0	0.0	0.0	58.0	61.0	191.0	170.0	36.0	969.4	54.0	42.0	9.0	-1009.0	
1636887801.223391	2.0	0.0	0.0	0.0	0.0	0.0	58.0	61.0	189.0	170.0	36.0	969.44	54.0	42.0	10.0	-1009.0	
1636887801.325212	2.0	0.0	0.0	0.0	0.0	0.0	58.0	61.0	189.0	170.0	36.0	969.44	55.0	54.0	-3.0	-990.0	
1636887801.427124	2.0	0.0	0.0	0.0	0.0	0.0	58.0	61.0	190.0	170.0	36.0	969.44	55.0	26.0	15.0	-1006.0	
1636887801.527475	2.0	0.0	0.0	0.0	0.0	0.0	58.0	61.0	191.0	170.0	36.0	969.41	55.0	51.0	0.0	-1002.0	
1636887801.631027	2.0	0.0	0.0	0.0	0.0	0.0	58.0	61.0	190.0	170.0	36.0	969.47	55.0	55.0	-11.0	-991.0	
1636887801.7325	2.0	0.0	0.0	0.0	0.0	0.0	58.0	61.0	191.0	170.0	36.0	969.42	55.0	39.0	3.0	-1005.0	
1636887801.832595	2.0	0.0	0.0	0.0	0.0	0.0	58.0	60.0	190.0	170.0	36.0	969.4	55.0	47.0	5.0	-993.0	
1636887801.937431	2.0	0.0	0.0	0.0	0.0	0.0	58.0	60.0	190.0	170.0	36.0	969.43	55.0	37.0	5.0	-1013.0	
1636887802.036063	2.0	0.0	0.0	0.0	0.0	0.0	58.0	60.0	190.0	170.0	36.0	969.39	55.0	42.0	4.0	-1010.0	
1636887802.140217	2.0	0.0	0.0	0.0	0.0	0.0	58.0	60.0	189.0	170.0	36.0	969.49	55.0	33.0	8.0	-981.0	
1636887802.241892	2.0	0.0	0.0	0.0	0.0	0.0	58.0	60.0	188.0	170.0	36.0	969.44	55.0	41.0	0.0	-965.0	
1636887802.341755	2.0	0.0	0.0	0.0	0.0	0.0	58.0	60.0	188.0	170.0	36.0	969.45	56.0	23.0	13.0	-942.0	
1636887802.446214	2.0	0.0	0.0	0.0	0.0	1.0	58.0	60.0	186.0	170.0	36.0	969.4	56.0	44.0	1.0	-924.0	
1636887802.547237	2.0	0.0	0.0	0.0	0.0	1.0	58.0	60.0	183.0	170.0	36.0	969.38	56.0	61.0	0.0	-920.0	
1636887802.648164	2.0	0.0	0.0	0.0	0.0	2.0	58.0	60.0	180.0	170.0	36.0	969.31	56.0	24.0	18.0	-917.0	
1636887802.749917	2.0	0.0	0.0	0.0	0.0	3.0	58.0	60.0	174.0	160.0	36.0	969.34	56.0	47.0	3.0	-891.0	
1636887802.852315	1.0	0.0	0.0	0.0	0.0	4.0	59.0	61.0	170.0	160.0	36.0	969.26	56.0	17.0	7.0	-912.0	
1636887802.954359	1.0	0.0	0.0	0.0	0.0	5.0	59.0	61.0	163.0	150.0	36.0	969.23	56.0	45.0	-7.0	-895.0	
1636887803.058416	1.0	0.0	0.0	0.0	0.0	6.0	59.0	61.0	156.0	150.0	36.0	969.14	56.0	31.0	8.0	-908.0	
1636887803.161608	1.0	0.0	0.0	0.0	0.0	7.0	59.0	61.0	147.0	140.0	36.0	969.12	56.0	43.0	-3.0	-933.0	
1636887803.260435	1.0	0.0	0.0	0.0	0.0	8.0	59.0	61.0	138.0	130.0	36.0	968.98	56.0	63.0	-18.0	-944.0	
1636887803.361798	1.0	0.0	0.0	0.0	0.0	9.0	59.0	61.0	128.0	120.0	36.0	968.9	57.0	54.0	-7.0	-952.0	
1636887803.467287	2.0	0.0	0.0	0.0	0.0	9.0	59.0	61.0	118.0	110.0	36.0	968.71	57.0	75.0	-25.0	-988.0	
1636887803.567782	2.0	0.0	0.0	0.0	0.0	9.0	59.0	61.0	107.0	100.0	36.0	968.7	57.0	73.0	-14.0	-1013.0	
1636887803.669516	2.0	0.0	0.0	0.0	0.0	9.0	59.0	61.0	98.0	90.0	35.0	968.61	57.0	57.0	-2.0	-1052.0	
1636887803.770929	2.0	0.0	0.0	0.0	0.0	9.0	59.0	61.0	89.0	90.0	35.0	968.52	57.0	74.0	-17.0	-1064.0	
1636887803.873406	3.0	0.0	0.0	0.0	0.0	8.0	58.0	60.0	80.0	80.0	35.0	968.41	57.0	69.0	-5.0	-1074.0	
1636887803.977415	3.0	0.0	0.0	0.0	0.0	7.0	58.0	60.0	72.0	70.0	35.0	968.28	57.0	64.0	-9.0	-1082.0	
1636887804.075745	3.0	0.0	0.0	0.0	0.0	6.0	58.0	60.0	65.0	60.0	35.0	968.3	57.0	70.0	-1.0	-1071.0	
1636887804.179731	3.0	0.0	0.0	0.0	0.0	6.0	58.0	60.0	59.0	50.0	35.0	968.18	57.0	59.0	-3.0	-1041.0	
1636887804.283603	3.0	0.0	0.0	0.0	0.0	5.0	58.0	60.0	53.0	50.0	35.0	968.1	57.0	60.0	-8.0	-1045.0	
1636887804.382689	3.0	0.0	0.0	0.0	0.0	5.0	58.0	60.0	47.0	40.0	35.0	968.09	58.0	62.0	-9.0	-1045.0	
1636887804.48449	3.0	0.0	0.0	0.0	0.0	4.0	58.0	60.0	42.0	40.0	35.0	968.07	58.0	73.0	-16.0	-1010.0	
1636887804.587536	2.0	0.0	0.0	0.0	0.0	4.0	58.0	60.0	36.0	30.0	35.0	968.02	58.0	45.0	7.0	-1012.0	
1636887804.640235	2.0	0.0	0.0	0.0	0.0	4.0	58.0	60.0	31.0	30.0	35.0	967.91	58.0	62.0	-10.0	-1015.0	
1636887804.740647	3.0	0.0	0.0	0.0	0.0	4.0	58.0	60.0	26.0	20.0	35.0	967.94	58.0	54.0	-8.0	-990.0	
1636887804.842747	3.0	0.0	0.0	0.0	0.0	4.0	58.0	61.0	24.0	20.0	35.0	967.84	58.0	55.0	-11.0	-989.0	
1636887804.943618	2.0	0.0	0.0	0.0	0.0	4.0	58.0	61.0	21.0	20.0	35.0	967.88	58.0	59.0	-16.0	-999.0	
1636887805.045327	2.0	0.0	0.0	0.0	0.0	4.0	58.0	61.0	21.0	10.0	35.0	967.35	58.0	50.0	-17.0	-999.0	
1636887805.148695	3.0	0.0	0.0	0.0	0.0	4.0	58.0	61.0	21.0	10.0	35.0	966.55	58.0	19.0	-5.0	-1042.0	
1636887805.2522	2.0	0.0	0.0	0.0	0.0	3.0	58.0	61.0	21.0	0.0	35.0	965.13	58.0	19.0	1.0	-1077.0	
1636887805.351811	1.0	0.0	0.0	0.0	0.0	3.0	58.0	61.0	16.0	0.0	35.0	964.08	59.0	4.0	-14.0	-1121.0	
1636887805.453762	0.0	-1.0	0.0	0.0	-1.0	-2.0	58.0	61.0	10.0	0.0	35.0	966.38	59.0	7.0	0.0	-705.0	
1636887805.557002	-2.0	2.0	0.0	0.0	0.0	0.0	58.0	61.0	10.0	0.0	35.0	966.73	59.0	-235.0	97.0	-2396.0	
1636887805.65903	1.0	-2.0	1.0	1.0	0.0	0.0	58.0	61.0	10.0	0.0	35.0	967.1	59.0	-14.0	-215.0	-755.0	
1636887805.759116	1.0	-2.0	1.0	0.0	0.0	0.0	58.0	61.0	10.0	0.0	35.0	967.33	59.0	13.0	95.0	-1003.0	
1636887805.86143	1.0	-2.0	1.0	1.0	0.0	0.0	59.0	60.0	10.0	0.0	35.0	967.38	59.0	73.0	23.0	-1016.0	
1636887805.967317	1.0	-2.0	1.0	1.0	0.0	0.0	59.0	60.0	10.0	0.0	35.0	967.43	59.0	20.0	47.0	-989.0	
1636887806.067178	1.0	-2.0	1.0	1.0	0.0	0.0	59.0	60.0	10.0	0.0	35.0	967.53	59.0	51.0	29.0	-1002.0	
1636887806.17023	1.0	-2.0	1.0	1.0	0.0	0.0	59.0	60.0	10.0	0.0	35.0	967.58	59.0	48.0	33.0	-997.0	
1636887806.273398	1.0	-2.0	1.0	1.0	0.0	0.0	59.0	60.0	10.0	0.0	35.0	967.56	59.0	38.0	38.0	-999.0	
1636887806.374347	1.0	-2.0	1.0	1.0	0.0	0.0	59.0	60.0	10.0	0.0	35.0	967.62	59.0	44.0	32.0	-1000.0	
1636887806.477154	1.0	-2.0	1.0	1.0	0.0	0.0	59.0	60.0	10.0	0.0	35.0	967.6	59.0	46.0	32.0	-994.0	
1636887806.577128	2.0	-2.0	1.0	1.0	0.0	0.0	59.0	60.0	10.0	0.0	35.0	967.61	59.0	32.0	29.0	-990.0	
1636887806.681293	2.0	-2.0	1.0	1.0	0.0	0.0	59.0	60.0	10.0	0.0	35.0	967.62	59.0	45.0	39.0	-1005.0	
1636887806.783359	2.0	-2.0	1.0	1.0	0.0	-1.0	59.0	60.0	10.0	0.0	35.0	967.64	59.0	46.0	36.0	-1003.0	
1636887806.884467	2.0	-2.0	1.0	2.0	0.0	-1.0	58.0	60.0	10.0	0.0	35.0	967.61	59.0	39.0	38.0	-1001.0	
1636887806.984659	2.0	-2.0	1.0	2.0	0.0	-1.0	58.0	60.0	10.0	0.0	35.0	967.59	59.0	42.0	38.0	-1001.0	
1636887807.089278	2.0	-2.0	1.0	2.0	0.0	0.0	58.0	60.0	10.0	0.0	35.0	967.66	59.0	45.0	37.0	-1001.0	
1636887807.190599	2.0	-2.0	1.0	0.0	0.0	0.0	58.0	60.0	10.0	0.0	35.0	967.61	59.0	42.0	37.0	-1003.0	
1636887807.291778	2.0	-2.0	1.0	0.0	0.0	0.0	58.0	60.0	10.0	0.0	35.0	967.61	59.0	43.0	37.0	-1007.0	
1636887807.394836	2.0	-2.0	1.0	0.0	0.0	0.0	58.0	60.0	10.0	0.0	35.0	967.59	59.0	42.0	37.0	-1004.0	
1636887807.496124	2.0	-2.0	1.0	0.0	0.0	0.0	58.0	60.0	10.0	0.0	35.0	967.63	59.0	43.0	37.0	-1004.0	
1636887807.598833	2.0	-2.0	1.0	0.0	0.0	0.0	58.0	60.0	10.0	0.0	35.0	967.57	59.0	42.0	39.0	-1002.0	
1636887807.700311	2.0	-2.0	1.0	0.0	0.0	0.0	58.0	60.0	10.0	0.0	35.0	967.65	59.0	43.0	36.0	-1004.0	
1636887807.748488	2.0	-2.0	1.0	0.0	0.0	0.0	58.0	60.0	10.0	0.0	35.0	967.65	59.0	43.0	36.0	-1004.0	
1636887807.79977	2.0	-2.0	1.0	0.0	0.0	0.0	58.0	60.0	10.0	0.0	35.0	967.63	59.0	42.0	34.0	-1002.0	
1636887807.904785	2.0	-2.0	1.0	0.0	0.0	0.0	58.0	61.0	10.0	0.0	35.0	967.6	59.0	42.0	36.0	-1006.0	
1636887808.006938	2.0	-2.0	1.0	0.0	0.0	0.0	58.0	61.0	10.0	0.0	35.0	967.57	59.0	43.0	37.0	-1004.0	
1636887808.107519	2.0	-2.0	1.0	0.0	0.0	0.0	58.0	61.0	10.0	0.0	35.0	967.6	59.0	42.0	36.0	-1004.0	
1636887808.211172	2.0	-2.0	1.0	0.0	0.0	0.0	58.0	61.0	10.0	0.0	35.0	967.65	59.0	43.0	36.0	-1008.0	
1636887808.258392	2.0	-2.0	1.0	0.0	0.0	0.0	58.0	61.0	10.0	0.0	35.0	967.59	59.0	43.0	36.0	-1004.0	
1636887808.362242	2.0	-2.0	1.0	0.0	0.0	0.0	58.0	61.0	10.0	0.0	35.0	967.59	59.0	44.0	36.0	-1004.0	
1636887808.463404	2.0	-2.0	1.0	0.0	0.0	0.0	58.0	61.0	10.0	0.0	35.0	967.62	59.0	42.0	36.0	-1004.0	
1636887808.564399	2.0	-2.0	1.0	0.0	0.0	0.0	58.0	61.0	10.0	0.0	35.0	967.58	59.0	43.0	36.0	-1007.0	
1636887808.66826	2.0	-2.0	1.0	0.0	0.0	0.0	58.0	61.0	10.0	0.0	35.0	967.59	59.0	43.0	37.0	-1005.0	
1636887808.768481	2.0	-2.0	1.0	0.0	0.0	0.0	58.0	61.0	10.0	0.0	35.0	967.67	59.0	43.0	36.0	-1004.0	
1636887808.87042	2.0	-2.0	1.0	0.0	0.0	0.0	58.0	60.0	10.0	0.0	35.0	967.64	59.0	43.0	36.0	-1007.0	
1636887808.976247	2.0	-2.0	1.0	0.0	0.0	0.0	58.0	60.0	10.0	0.0	35.0	967.64	59.0	44.0	37.0	-1004.0	
1636887809.074722	2.0	-2.0	1.0	0.0	0.0	0.0	58.0	60.0	10.0	0.0	35.0	967.65	59.0	44.0	35.0	-1001.0	
1636887809.180117	2.0	-2.0	1.0	0.0	0.0	0.0	58.0	60.0	10.0	0.0	35.0	967.69	59.0	43.0	37.0	-1005.0	
1636887809.281823	2.0	-2.0	1.0	0.0	0.0	0.0	58.0	60.0	10.0	0.0	35.0	967.64	59.0	42.0	37.0	-1004.0	
1636887809.381621	2.0	-2.0	1.0	0.0	0.0	0.0	58.0	60.0	10.0	0.0	35.0	967.65	59.0	45.0	37.0	-1005.0	
1636887809.484009	2.0	-2.0	1.0	0.0	0.0	0.0	58.0	60.0	10.0	0.0	35.0	967.63	59.0	43.0	36.0	-1007.0	
1636887809.589778	2.0	-2.0	0.0	0.0	0.0	0.0	58.0	60.0	10.0	0.0	35.0	967.62	59.0	42.0	37.0	-1007.0	
1636887809.691829	2.0	-2.0	0.0	0.0	0.0	0.0	58.0	60.0	10.0	0.0	35.0	967.65	59.0	44.0	38.0	-1005.0	
1636887809.791391	2.0	-2.0	0.0	0.0	0.0	0.0	58.0	60.0	10.0	0.0	35.0	967.64	59.0	41.0	36.0	-1005.0	
1636887809.895633	2.0	-2.0	0.0	0.0	0.0	0.0	58.0	60.0	10.0	0.0	35.0	967.63	59.0	43.0	37.0	-1003.0	
1636887809.99439	2.0	-2.0	0.0	0.0	0.0	0.0	58.0	60.0	10.0	0.0	35.0	967.63	59.0	42.0	36.0	-1000.0	
1636887810.097983	2.0	-2.0	0.0	0.0	0.0	0.0	58.0	60.0	10.0	0.0	35.0	967.63	59.0	43.0	35.0	-1004.0	
1636887810.199105	2.0	-2.0	0.0	0.0	0.0	0.0	58.0	60.0	10.0	0.0	35.0	967.63	59.0	42.0	35.0	-1005.0	
1636887810.300309	2.0	-2.0	0.0	0.0	0.0	0.0	58.0	60.0	10.0	0.0	35.0	967.65	59.0	42.0	38.0	-1002.0	
1636887810.401875	2.0	-2.0	0.0	0.0	0.0	0.0	58.0	60.0	10.0	0.0	35.0	967.62	59.0	44.0	38.0	-1005.0	
1636887810.505097	2.0	-2.0	0.0	0.0	0.0	0.0	58.0	60.0	10.0	0.0	35.0	967.64	59.0	43.0	37.0	-1004.0	
1636887810.605442	2.0	-2.0	0.0	0.0	0.0	0.0	58.0	60.0	10.0	0.0	35.0	967.66	59.0	43.0	36.0	-1003.0	
1636887810.708311	2.0	-2.0	0.0	0.0	0.0	0.0	58.0	60.0	10.0	0.0	35.0	967.62	59.0	43.0	37.0	-1002.0	
1636887810.811789	2.0	-2.0	0.0	0.0	0.0	0.0	58.0	60.0	10.0	0.0	35.0	967.59	59.0	43.0	37.0	-1004.0	
1636887810.911011	2.0	-2.0	0.0	0.0	0.0	0.0	59.0	61.0	10.0	0.0	35.0	967.68	59.0	43.0	37.0	-1002.0	
1636887811.014608	2.0	-2.0	0.0	0.0	0.0	0.0	59.0	61.0	10.0	0.0	35.0	967.64	59.0	44.0	36.0	-1004.0	
1636887811.11491	2.0	-2.0	0.0	0.0	0.0	0.0	59.0	61.0	10.0	0.0	35.0	967.6	59.0	43.0	35.0	-1002.0	
1636887811.219126	2.0	-2.0	0.0	0.0	0.0	0.0	59.0	61.0	10.0	0.0	35.0	967.64	59.0	42.0	37.0	-1003.0	
1636887811.321029	2.0	-2.0	0.0	0.0	0.0	0.0	59.0	61.0	10.0	0.0	35.0	967.61	59.0	42.0	36.0	-1004.0	
1636887811.422658	2.0	-2.0	0.0	0.0	0.0	0.0	59.0	61.0	10.0	0.0	35.0	967.65	59.0	43.0	36.0	-1003.0	
1636887811.525444	2.0	-2.0	0.0	0.0	0.0	0.0	59.0	61.0	10.0	0.0	35.0	967.62	59.0	41.0	37.0	-1004.0	
1636887811.627178	2.0	-2.0	0.0	0.0	0.0	0.0	59.0	61.0	10.0	0.0	35.0	967.61	59.0	44.0	37.0	-1003.0	
1636887811.679111	2.0	-2.0	0.0	0.0	0.0	0.0	59.0	61.0	10.0	0.0	35.0	967.64	59.0	44.0	36.0	-1004.0	
1636887811.777529	2.0	-2.0	0.0	0.0	0.0	0.0	59.0	61.0	10.0	0.0	35.0	967.6	59.0	43.0	37.0	-1003.0	
1636887811.883663	2.0	-2.0	0.0	0.0	0.0	0.0	59.0	60.0	10.0	0.0	35.0	967.64	59.0	44.0	36.0	-1003.0	
1636887811.984394	2.0	-2.0	0.0	0.0	0.0	0.0	59.0	60.0	10.0	0.0	35.0	967.6	59.0	44.0	37.0	-1004.0	
1636887812.084351	2.0	-2.0	0.0	0.0	0.0	0.0	59.0	60.0	10.0	0.0	35.0	967.61	59.0	42.0	37.0	-1001.0	
1636887812.188825	2.0	-2.0	0.0	0.0	0.0	0.0	59.0	60.0	10.0	0.0	35.0	967.63	59.0	44.0	36.0	-1001.0	
1636887812.291389	2.0	-2.0	0.0	0.0	0.0	0.0	59.0	60.0	10.0	0.0	35.0	967.63	59.0	43.0	37.0	-1001.0	
1636887812.390897	2.0	-2.0	0.0	0.0	0.0	0.0	59.0	60.0	10.0	0.0	35.0	967.61	59.0	43.0	35.0	-1003.0	
1636887812.493268	2.0	-2.0	0.0	0.0	0.0	0.0	59.0	60.0	10.0	0.0	35.0	967.61	59.0	43.0	36.0	-1001.0	
1636887812.596553	2.0	-2.0	0.0	0.0	0.0	0.0	59.0	60.0	10.0	0.0	35.0	967.61	59.0	43.0	35.0	-1003.0	
1636887812.698254	2.0	-2.0	0.0	0.0	0.0	0.0	59.0	60.0	10.0	0.0	35.0	967.63	59.0	42.0	39.0	-1003.0	
1636887812.80137	2.0	-2.0	0.0	0.0	0.0	0.0	59.0	60.0	10.0	0.0	35.0	967.62	59.0	42.0	35.0	-1001.0	
1636887812.903795	2.0	-2.0	0.0	0.0	0.0	0.0	59.0	62.0	10.0	0.0	35.0	967.63	59.0	45.0	38.0	-1000.0	
1636887813.005625	2.0	-2.0	0.0	0.0	0.0	0.0	59.0	62.0	10.0	0.0	35.0	967.6	59.0	42.0	36.0	-1001.0	
1636887813.105645	2.0	-2.0	0.0	0.0	0.0	0.0	59.0	62.0	10.0	0.0	35.0	967.63	59.0	45.0	36.0	-1000.0	
1636887813.209606	2.0	-2.0	0.0	0.0	0.0	0.0	59.0	62.0	10.0	0.0	35.0	967.66	59.0	42.0	36.0	-1001.0	
1636887813.311092	2.0	-2.0	0.0	0.0	0.0	0.0	59.0	62.0	10.0	0.0	35.0	967.64	59.0	42.0	36.0	-1002.0	
1636887813.410957	2.0	-2.0	0.0	0.0	0.0	0.0	59.0	62.0	10.0	0.0	35.0	967.62	59.0	43.0	35.0	-1001.0	
1636887813.515833	2.0	-2.0	0.0	0.0	0.0	0.0	59.0	62.0	10.0	0.0	35.0	967.64	59.0	44.0	38.0	-1000.0	
1636887813.615069	2.0	-2.0	0.0	0.0	0.0	0.0	59.0	62.0	10.0	0.0	35.0	967.61	59.0	41.0	38.0	-1001.0	
1636887813.716421	2.0	-2.0	0.0	0.0	0.0	0.0	59.0	62.0	10.0	0.0	35.0	967.68	59.0	42.0	38.0	-1000.0	
1636887813.821407	2.0	-2.0	0.0	0.0	0.0	0.0	59.0	62.0	10.0	0.0	35.0	967.63	59.0	43.0	36.0	-1000.0	
1636887813.924249	2.0	-2.0	0.0	0.0	0.0	0.0	59.0	62.0	10.0	0.0	35.0	967.6	59.0	42.0	38.0	-1000.0	
1636887814.023097	2.0	-2.0	0.0	0.0	0.0	0.0	59.0	62.0	10.0	0.0	35.0	967.66	59.0	42.0	37.0	-1000.0	
1636887814.125302	2.0	-2.0	0.0	0.0	0.0	0.0	59.0	62.0	10.0	0.0	35.0	967.63	59.0	42.0	37.0	-1001.0	
1636887814.229704	2.0	-2.0	0.0	0.0	0.0	0.0	59.0	62.0	10.0	0.0	35.0	967.67	59.0	43.0	37.0	-1002.0	
1636887814.330574	2.0	-2.0	0.0	0.0	0.0	0.0	59.0	62.0	10.0	0.0	35.0	967.6	59.0	42.0	38.0	-1001.0	
1636887814.432327	2.0	-2.0	0.0	0.0	0.0	0.0	59.0	62.0	10.0	0.0	35.0	967.63	59.0	42.0	39.0	-999.0	
1636887814.535369	2.0	-2.0	0.0	0.0	0.0	0.0	59.0	62.0	10.0	0.0	35.0	967.62	59.0	43.0	38.0	-999.0	
1636887814.633905	2.0	-2.0	0.0	0.0	0.0	0.0	59.0	62.0	10.0	0.0	35.0	967.61	59.0	43.0	37.0	-997.0	
1636887814.73972	2.0	-2.0	0.0	0.0	0.0	0.0	59.0	62.0	10.0	0.0	35.0	967.6	59.0	44.0	36.0	-999.0	
1636887814.787311	2.0	-2.0	0.0	0.0	0.0	0.0	59.0	62.0	10.0	0.0	35.0	967.6	59.0	44.0	36.0	-999.0	
1636887814.839235	2.0	-2.0	0.0	0.0	0.0	0.0	59.0	62.0	10.0	0.0	35.0	967.61	59.0	43.0	37.0	-997.0	
1636887814.942468	2.0	-2.0	0.0	0.0	0.0	0.0	59.0	62.0	10.0	0.0	35.0	967.59	59.0	43.0	35.0	-998.0	
1636887815.044787	2.0	-2.0	0.0	0.0	0.0	0.0	59.0	62.0	10.0	0.0	35.0	967.61	59.0	44.0	37.0	-1000.0	
1636887815.093563	2.0	-2.0	0.0	0.0	0.0	0.0	59.0	62.0	10.0	0.0	35.0	967.63	59.0	43.0	36.0	-998.0	
1636887815.195985	2.0	-2.0	0.0	0.0	0.0	0.0	59.0	62.0	10.0	0.0	35.0	967.68	59.0	44.0	35.0	-999.0	
1636887815.301106	2.0	-2.0	0.0	0.0	0.0	0.0	59.0	62.0	10.0	0.0	35.0	967.63	59.0	42.0	38.0	-997.0	
1636887815.40136	2.0	-2.0	0.0	0.0	0.0	0.0	59.0	62.0	10.0	0.0	35.0	967.58	59.0	43.0	37.0	-996.0	
1636887815.50161	2.0	-2.0	0.0	0.0	0.0	0.0	59.0	62.0	10.0	0.0	35.0	967.64	59.0	43.0	37.0	-1001.0	
1636887815.60532	2.0	-2.0	0.0	0.0	0.0	0.0	59.0	62.0	10.0	0.0	35.0	967.62	59.0	43.0	37.0	-997.0	
1636887815.705471	2.0	-2.0	0.0	0.0	0.0	0.0	59.0	62.0	10.0	0.0	35.0	967.65	59.0	44.0	38.0	-997.0	
1636887815.808775	2.0	-2.0	0.0	0.0	0.0	0.0	59.0	62.0	10.0	0.0	35.0	967.63	59.0	43.0	36.0	-1000.0	
1636887815.91276	2.0	-2.0	0.0	0.0	0.0	0.0	60.0	62.0	10.0	0.0	35.0	967.59	59.0	44.0	37.0	-996.0	
1636887816.012313	2.0	-2.0	0.0	0.0	0.0	0.0	60.0	62.0	10.0	0.0	35.0	967.61	59.0	44.0	35.0	-999.0	
1636887816.116672	2.0	-2.0	0.0	0.0	0.0	0.0	60.0	62.0	10.0	0.0	35.0	967.62	59.0	44.0	36.0	-1000.0	
1636887816.219668	2.0	-2.0	0.0	0.0	0.0	0.0	60.0	62.0	10.0	0.0	35.0	967.61	59.0	44.0	36.0	-997.0	
1636887816.32215	2.0	-2.0	0.0	0.0	0.0	0.0	60.0	62.0	10.0	0.0	35.0	967.66	59.0	44.0	38.0	-998.0	
1636887816.421934	2.0	-2.0	0.0	0.0	0.0	0.0	60.0	62.0	10.0	0.0	35.0	967.66	59.0	42.0	36.0	-999.0	
1636887816.523571	2.0	-2.0	0.0	0.0	0.0	0.0	60.0	62.0	10.0	0.0	35.0	967.63	59.0	43.0	37.0	-998.0	
1636887816.625464	2.0	-2.0	0.0	0.0	0.0	0.0	60.0	62.0	10.0	0.0	35.0	967.7	59.0	43.0	36.0	-1000.0	
1636887816.72933	2.0	-2.0	0.0	0.0	0.0	0.0	60.0	62.0	10.0	0.0	35.0	967.65	59.0	43.0	38.0	-999.0	
1636887816.829428	2.0	-2.0	0.0	0.0	0.0	0.0	60.0	62.0	10.0	0.0	35.0	967.64	59.0	43.0	38.0	-999.0	
1636887816.933429	2.0	-2.0	0.0	0.0	0.0	0.0	60.0	62.0	10.0	0.0	35.0	967.63	59.0	42.0	36.0	-998.0	
1636887817.034265	2.0	-2.0	0.0	0.0	0.0	0.0	60.0	62.0	10.0	0.0	35.0	967.62	59.0	44.0	36.0	-1000.0	
1636887817.137453	2.0	-2.0	0.0	0.0	0.0	0.0	60.0	62.0	10.0	0.0	35.0	967.61	59.0	42.0	37.0	-999.0	
1636887817.236742	2.0	-2.0	0.0	0.0	0.0	0.0	60.0	62.0	10.0	0.0	35.0	967.65	59.0	42.0	37.0	-998.0	
1636887817.339908	2.0	-2.0	0.0	0.0	0.0	0.0	60.0	62.0	10.0	0.0	35.0	967.61	59.0	43.0	38.0	-999.0	
1636887817.443548	2.0	-2.0	0.0	0.0	0.0	0.0	60.0	62.0	10.0	0.0	35.0	967.65	59.0	43.0	37.0	-996.0	
1636887817.543922	2.0	-2.0	0.0	0.0	0.0	0.0	60.0	62.0	10.0	0.0	35.0	967.63	59.0	42.0	37.0	-997.0	
1636887817.646229	2.0	-2.0	0.0	0.0	0.0	0.0	60.0	62.0	10.0	0.0	35.0	967.64	59.0	42.0	37.0	-998.0	
1636887817.745833	2.0	-2.0	0.0	0.0	0.0	0.0	60.0	62.0	10.0	0.0	35.0	967.6	59.0	41.0	36.0	-998.0	
1636887817.850273	2.0	-2.0	0.0	0.0	0.0	0.0	60.0	62.0	10.0	0.0	35.0	967.6	59.0	43.0	37.0	-999.0	
1636887817.953246	2.0	-2.0	0.0	0.0	0.0	0.0	60.0	62.0	10.0	0.0	35.0	967.64	59.0	43.0	39.0	-998.0	
1636887818.05285	2.0	-2.0	0.0	0.0	0.0	0.0	60.0	62.0	10.0	0.0	35.0	967.63	59.0	41.0	38.0	-995.0	
1636887818.154623	2.0	-2.0	0.0	0.0	0.0	0.0	60.0	62.0	10.0	0.0	35.0	967.69	59.0	43.0	37.0	-997.0	
1636887818.206555	2.0	-2.0	0.0	0.0	0.0	0.0	60.0	62.0	10.0	0.0	35.0	967.66	59.0	42.0	38.0	-997.0	
1636887818.308964	2.0	-2.0	0.0	0.0	0.0	0.0	60.0	62.0	10.0	0.0	35.0	967.66	59.0	41.0	37.0	-995.0	
1636887818.409675	2.0	-2.0	0.0	0.0	0.0	0.0	60.0	62.0	10.0	0.0	35.0	967.62	59.0	43.0	38.0	-997.0	
1636887818.511171	2.0	-2.0	0.0	0.0	0.0	0.0	60.0	62.0	10.0	0.0	35.0	967.59	59.0	44.0	36.0	-997.0	
1636887818.61455	2.0	-2.0	0.0	0.0	0.0	0.0	60.0	62.0	10.0	0.0	35.0	967.65	59.0	44.0	36.0	-999.0	
1636887818.7178	2.0	-2.0	0.0	0.0	0.0	0.0	60.0	62.0	10.0	0.0	35.0	967.64	59.0	43.0	37.0	-996.0	
1636887818.818284	2.0	-2.0	0.0	0.0	0.0	0.0	60.0	62.0	10.0	0.0	35.0	967.64	59.0	45.0	36.0	-998.0	
1636887818.923028	2.0	-2.0	0.0	0.0	0.0	0.0	60.0	62.0	10.0	0.0	35.0	967.67	59.0	43.0	38.0	-997.0	
1636887819.024002	2.0	-2.0	0.0	0.0	0.0	0.0	60.0	62.0	10.0	0.0	35.0	967.57	59.0	42.0	37.0	-999.0	
1636887819.126746	2.0	-2.0	0.0	0.0	0.0	0.0	60.0	62.0	10.0	0.0	35.0	967.58	59.0	44.0	37.0	-997.0	
1636887819.227561	2.0	-2.0	0.0	0.0	0.0	0.0	60.0	62.0	10.0	0.0	35.0	967.61	59.0	43.0	35.0	-995.0	
1636887819.328819	2.0	-2.0	0.0	0.0	0.0	0.0	60.0	62.0	10.0	0.0	35.0	967.58	59.0	43.0	38.0	-999.0	
1636887819.430402	2.0	-2.0	0.0	0.0	0.0	0.0	60.0	62.0	10.0	0.0	35.0	967.67	59.0	44.0	37.0	-998.0	
1636887819.532069	2.0	-2.0	0.0	0.0	0.0	0.0	60.0	62.0	10.0	0.0	35.0	967.62	59.0	43.0	36.0	-996.0	
1636887819.634948	2.0	-2.0	0.0	0.0	0.0	0.0	60.0	62.0	10.0	0.0	35.0	967.58	59.0	43.0	36.0	-997.0	
1636887819.738056	2.0	-2.0	0.0	0.0	0.0	0.0	60.0	62.0	10.0	0.0	35.0	967.7	59.0	44.0	38.0	-996.0	
1636887819.840053	2.0	-2.0	0.0	0.0	0.0	0.0	60.0	62.0	10.0	0.0	35.0	967.66	59.0	44.0	37.0	-1001.0	
1636887819.942579	2.0	-2.0	0.0	0.0	0.0	0.0	60.0	63.0	10.0	0.0	35.0	967.68	59.0	43.0	36.0	-997.0	
1636887820.044783	2.0	-2.0	0.0	0.0	0.0	0.0	60.0	63.0	10.0	0.0	35.0	967.68	59.0	43.0	36.0	-999.0	
1636887820.144648	2.0	-2.0	0.0	0.0	0.0	0.0	60.0	63.0	10.0	0.0	35.0	967.61	59.0	44.0	36.0	-997.0	
1636887820.248123	2.0	-2.0	0.0	0.0	0.0	0.0	60.0	63.0	10.0	0.0	35.0	967.67	59.0	43.0	37.0	-999.0	
1636887820.348328	2.0	-2.0	0.0	0.0	0.0	0.0	60.0	63.0	10.0	0.0	35.0	967.67	59.0	41.0	36.0	-998.0	
1636887820.450495	2.0	-2.0	0.0	0.0	0.0	0.0	60.0	63.0	10.0	0.0	35.0	967.63	59.0	43.0	36.0	-998.0	
1636887820.555274	2.0	-2.0	0.0	0.0	0.0	0.0	60.0	63.0	10.0	0.0	35.0	967.66	59.0	43.0	37.0	-998.0	
1636887820.653653	2.0	-2.0	0.0	0.0	0.0	0.0	60.0	63.0	10.0	0.0	35.0	967.65	59.0	44.0	37.0	-998.0	
1636887820.75926	2.0	-2.0	0.0	0.0	0.0	0.0	60.0	63.0	10.0	0.0	35.0	967.6	59.0	44.0	36.0	-998.0	
1636887820.859192	2.0	-2.0	0.0	0.0	0.0	0.0	60.0	63.0	10.0	0.0	35.0	967.67	59.0	42.0	37.0	-1000.0	
