timestamp	pitch	roll	yaw	vgx	vgy	vgz	templ	temph	tof	h	bat	baro	time	agx	agy	agz	
2.0	-2.0	0.0	0.0	0.0	0.0	81.0	83.0	10.0	0.0	27.0	967.76	59.0	40.0	39.0	-999.0	1636888163.71678	
2.0	-2.0	0.0	0.0	0.0	0.0	81.0	83.0	10.0	0.0	27.0	967.76	59.0	40.0	39.0	-999.0	1636888163.737004	
2.0	-2.0	0.0	0.0	0.0	0.0	81.0	83.0	10.0	0.0	27.0	967.78	59.0	40.0	38.0	-999.0	1636888163.860835	
2.0	-2.0	0.0	0.0	0.0	0.0	81.0	83.0	10.0	0.0	27.0	967.77	59.0	43.0	36.0	-998.0	1636888163.890657	
2.0	-2.0	0.0	0.0	0.0	0.0	81.0	83.0	10.0	0.0	27.0	967.8	59.0	41.0	37.0	-997.0	1636888164.017709	
2.0	-2.0	0.0	0.0	0.0	0.0	81.0	83.0	10.0	0.0	27.0	967.79	59.0	42.0	37.0	-998.0	1636888164.108155	
2.0	-2.0	0.0	0.0	0.0	0.0	81.0	83.0	10.0	0.0	27.0	967.75	59.0	41.0	37.0	-996.0	1636888164.247918	
2.0	-2.0	0.0	0.0	0.0	0.0	81.0	83.0	10.0	0.0	27.0	967.76	59.0	41.0	37.0	-998.0	1636888164.414938	
2.0	-2.0	0.0	0.0	0.0	0.0	81.0	83.0	10.0	0.0	27.0	967.78	59.0	42.0	38.0	-996.0	1636888164.414938	
2.0	-2.0	0.0	0.0	0.0	0.0	81.0	83.0	10.0	0.0	27.0	967.77	59.0	42.0	39.0	-999.0	1636888164.569827	
2.0	-2.0	0.0	0.0	0.0	0.0	80.0	83.0	10.0	0.0	27.0	967.75	59.0	42.0	37.0	-999.0	1636888164.722756	
2.0	-2.0	0.0	0.0	0.0	0.0	80.0	83.0	10.0	0.0	27.0	967.75	59.0	42.0	38.0	-997.0	1636888164.722756	
2.0	-2.0	0.0	0.0	0.0	0.0	80.0	83.0	10.0	0.0	27.0	967.75	59.0	41.0	37.0	-1000.0	1636888164.865162	
2.0	-2.0	0.0	0.0	0.0	0.0	80.0	83.0	10.0	0.0	27.0	967.79	59.0	41.0	37.0	-997.0	1636888164.911518	
2.0	-2.0	0.0	0.0	0.0	0.0	80.0	83.0	10.0	0.0	27.0	967.78	59.0	42.0	37.0	-996.0	1636888165.013763	
2.0	-2.0	0.0	0.0	0.0	0.0	80.0	83.0	10.0	0.0	27.0	967.83	59.0	41.0	36.0	-999.0	1636888165.063012	
2.0	-2.0	0.0	0.0	0.0	0.0	80.0	83.0	10.0	0.0	27.0	967.82	59.0	42.0	37.0	-1001.0	1636888165.16419	
2.0	-2.0	0.0	0.0	0.0	0.0	80.0	83.0	10.0	0.0	27.0	967.76	59.0	42.0	37.0	-999.0	1636888165.268685	
2.0	-2.0	0.0	0.0	0.0	0.0	80.0	83.0	10.0	0.0	27.0	967.73	59.0	42.0	39.0	-997.0	1636888165.36933	
2.0	-2.0	0.0	0.0	0.0	0.0	80.0	83.0	10.0	0.0	27.0	967.74	59.0	41.0	37.0	-1001.0	1636888165.469359	
2.0	-2.0	0.0	0.0	0.0	0.0	80.0	83.0	10.0	0.0	27.0	967.74	59.0	43.0	38.0	-996.0	1636888165.574696	
2.0	-2.0	0.0	0.0	0.0	0.0	80.0	83.0	10.0	0.0	27.0	967.78	59.0	42.0	39.0	-999.0	1636888165.676815	
2.0	-2.0	0.0	0.0	0.0	0.0	80.0	83.0	10.0	0.0	27.0	967.76	59.0	40.0	37.0	-995.0	1636888165.777945	
2.0	-2.0	0.0	0.0	0.0	0.0	80.0	83.0	10.0	0.0	27.0	967.78	59.0	41.0	39.0	-999.0	1636888165.880317	
2.0	-2.0	0.0	0.0	0.0	0.0	80.0	83.0	10.0	0.0	27.0	967.74	59.0	41.0	38.0	-997.0	1636888165.983215	
2.0	-2.0	0.0	0.0	0.0	0.0	80.0	83.0	10.0	0.0	27.0	967.72	59.0	41.0	38.0	-998.0	1636888166.083629	
2.0	-2.0	0.0	0.0	0.0	0.0	80.0	83.0	10.0	0.0	27.0	967.78	59.0	41.0	39.0	-995.0	1636888166.18678	
2.0	-2.0	0.0	0.0	0.0	0.0	80.0	83.0	10.0	0.0	27.0	967.76	59.0	42.0	39.0	-1000.0	1636888166.286575	
2.0	-2.0	0.0	0.0	0.0	0.0	80.0	83.0	10.0	0.0	27.0	967.74	59.0	41.0	39.0	-1000.0	1636888166.388509	
2.0	-2.0	0.0	0.0	0.0	0.0	80.0	83.0	10.0	0.0	27.0	967.75	59.0	41.0	38.0	-998.0	1636888166.48909	
2.0	-2.0	0.0	0.0	0.0	0.0	80.0	83.0	10.0	0.0	26.0	967.73	59.0	41.0	38.0	-996.0	1636888166.591454	
2.0	-2.0	0.0	0.0	0.0	0.0	80.0	83.0	10.0	0.0	26.0	967.72	59.0	43.0	37.0	-997.0	1636888166.694704	
2.0	-2.0	0.0	0.0	0.0	0.0	80.0	83.0	10.0	0.0	26.0	967.77	59.0	42.0	37.0	-997.0	1636888166.798551	
2.0	-2.0	0.0	0.0	0.0	0.0	80.0	83.0	10.0	0.0	26.0	967.76	59.0	41.0	38.0	-1001.0	1636888166.899204	
2.0	-2.0	0.0	0.0	0.0	0.0	80.0	83.0	10.0	0.0	26.0	967.78	59.0	41.0	37.0	-999.0	1636888167.000818	
2.0	-2.0	0.0	0.0	0.0	0.0	80.0	83.0	10.0	0.0	26.0	967.8	59.0	42.0	38.0	-997.0	1636888167.1021	
2.0	-2.0	0.0	0.0	0.0	0.0	80.0	83.0	10.0	0.0	26.0	967.78	59.0	42.0	38.0	-997.0	1636888167.205533	
2.0	-2.0	0.0	0.0	0.0	0.0	80.0	83.0	10.0	0.0	26.0	967.71	59.0	41.0	37.0	-997.0	1636888167.305386	
2.0	-2.0	0.0	0.0	0.0	0.0	80.0	83.0	10.0	0.0	26.0	967.78	59.0	42.0	38.0	-997.0	1636888167.406941	
2.0	-2.0	0.0	0.0	0.0	0.0	80.0	83.0	10.0	0.0	26.0	967.8	59.0	42.0	37.0	-1000.0	1636888167.508992	
2.0	-2.0	0.0	0.0	0.0	0.0	81.0	82.0	10.0	0.0	26.0	967.75	59.0	42.0	38.0	-999.0	1636888167.614606	
2.0	-2.0	0.0	0.0	0.0	0.0	81.0	82.0	10.0	0.0	26.0	967.76	59.0	43.0	37.0	-998.0	1636888167.714536	
2.0	-2.0	0.0	0.0	0.0	0.0	81.0	82.0	10.0	0.0	26.0	967.73	59.0	41.0	37.0	-999.0	1636888167.817307	
2.0	-2.0	0.0	0.0	0.0	0.0	81.0	82.0	10.0	0.0	26.0	967.8	59.0	41.0	37.0	-995.0	1636888167.918766	
2.0	-2.0	0.0	0.0	0.0	0.0	81.0	82.0	10.0	0.0	26.0	967.74	59.0	41.0	37.0	-996.0	1636888168.023267	
2.0	-2.0	0.0	0.0	0.0	0.0	81.0	82.0	10.0	0.0	26.0	967.81	59.0	41.0	38.0	-1001.0	1636888168.12476	
2.0	-2.0	0.0	0.0	0.0	0.0	81.0	82.0	10.0	0.0	26.0	967.75	59.0	42.0	37.0	-998.0	1636888168.226114	
2.0	-2.0	0.0	0.0	0.0	0.0	81.0	82.0	10.0	0.0	26.0	967.75	59.0	43.0	38.0	-998.0	1636888168.329498	
2.0	-2.0	0.0	0.0	0.0	0.0	81.0	82.0	10.0	0.0	26.0	967.81	59.0	41.0	37.0	-997.0	1636888168.430598	
2.0	-2.0	0.0	0.0	0.0	0.0	81.0	82.0	10.0	0.0	26.0	967.79	59.0	41.0	39.0	-995.0	1636888168.481983	
2.0	-2.0	0.0	0.0	0.0	0.0	80.0	84.0	10.0	0.0	26.0	967.78	59.0	41.0	37.0	-997.0	1636888168.63265	
2.0	-2.0	0.0	0.0	0.0	0.0	80.0	84.0	10.0	0.0	26.0	967.83	59.0	41.0	38.0	-999.0	1636888168.736511	
2.0	-2.0	0.0	0.0	0.0	0.0	80.0	84.0	10.0	0.0	26.0	967.77	59.0	42.0	36.0	-998.0	1636888168.788415	
2.0	-2.0	0.0	0.0	0.0	0.0	80.0	84.0	10.0	0.0	26.0	967.76	59.0	40.0	37.0	-997.0	1636888168.889385	
2.0	-2.0	0.0	0.0	0.0	0.0	80.0	84.0	10.0	0.0	26.0	967.75	59.0	42.0	37.0	-996.0	1636888168.992963	
2.0	-2.0	0.0	0.0	0.0	0.0	80.0	84.0	10.0	0.0	26.0	967.77	59.0	40.0	36.0	-999.0	1636888169.09321	
2.0	-2.0	0.0	0.0	0.0	0.0	80.0	84.0	10.0	0.0	26.0	967.76	59.0	40.0	38.0	-995.0	1636888169.193086	
2.0	-2.0	0.0	0.0	0.0	0.0	80.0	84.0	10.0	0.0	26.0	967.75	59.0	41.0	38.0	-997.0	1636888169.296174	
2.0	-2.0	0.0	0.0	0.0	0.0	80.0	84.0	10.0	0.0	26.0	967.79	59.0	42.0	37.0	-1000.0	1636888169.39729	
2.0	-2.0	0.0	0.0	0.0	0.0	80.0	84.0	10.0	0.0	26.0	967.73	59.0	43.0	39.0	-998.0	1636888169.501508	
2.0	-2.0	0.0	0.0	0.0	0.0	81.0	83.0	10.0	0.0	26.0	967.76	59.0	43.0	38.0	-997.0	1636888169.603588	
2.0	-2.0	0.0	0.0	0.0	0.0	81.0	83.0	10.0	0.0	26.0	967.74	59.0	41.0	38.0	-996.0	1636888169.703985	
2.0	-2.0	0.0	0.0	0.0	0.0	81.0	83.0	10.0	0.0	26.0	967.81	59.0	44.0	38.0	-997.0	1636888169.805398	
2.0	-2.0	0.0	0.0	0.0	0.0	81.0	83.0	10.0	0.0	26.0	967.78	59.0	41.0	38.0	-997.0	1636888169.911007	
2.0	-2.0	0.0	0.0	0.0	0.0	81.0	83.0	10.0	0.0	26.0	967.74	59.0	42.0	36.0	-999.0	1636888170.008764	
2.0	-2.0	0.0	0.0	0.0	0.0	81.0	83.0	10.0	0.0	26.0	967.74	59.0	42.0	38.0	-997.0	1636888170.112146	
2.0	-2.0	0.0	0.0	0.0	0.0	81.0	83.0	10.0	0.0	26.0	967.78	59.0	42.0	37.0	-998.0	1636888170.215067	
2.0	-2.0	0.0	0.0	0.0	0.0	81.0	83.0	10.0	0.0	26.0	967.77	59.0	42.0	37.0	-998.0	1636888170.316524	
2.0	-2.0	0.0	0.0	0.0	0.0	81.0	83.0	10.0	0.0	26.0	967.81	59.0	42.0	36.0	-1000.0	1636888170.418462	
2.0	-2.0	0.0	0.0	0.0	0.0	81.0	83.0	10.0	0.0	26.0	967.77	59.0	43.0	36.0	-998.0	1636888170.518697	
2.0	-2.0	0.0	0.0	0.0	0.0	81.0	83.0	10.0	0.0	26.0	967.78	59.0	41.0	37.0	-999.0	1636888170.62427	
2.0	-2.0	0.0	0.0	0.0	0.0	81.0	83.0	10.0	0.0	26.0	967.77	59.0	42.0	38.0	-996.0	1636888170.725738	
2.0	-2.0	0.0	0.0	0.0	0.0	81.0	83.0	10.0	0.0	26.0	967.77	59.0	41.0	36.0	-999.0	1636888170.826223	
2.0	-2.0	0.0	0.0	0.0	0.0	81.0	83.0	10.0	0.0	26.0	967.79	59.0	41.0	39.0	-999.0	1636888170.931395	
2.0	-2.0	0.0	0.0	0.0	0.0	81.0	83.0	10.0	0.0	26.0	967.75	59.0	42.0	38.0	-996.0	1636888171.030117	
2.0	-2.0	0.0	0.0	0.0	0.0	81.0	83.0	10.0	0.0	26.0	967.81	59.0	40.0	37.0	-997.0	1636888171.131918	
2.0	-2.0	0.0	0.0	0.0	0.0	81.0	83.0	10.0	0.0	26.0	967.82	59.0	41.0	38.0	-998.0	1636888171.237368	
2.0	-2.0	0.0	0.0	0.0	0.0	81.0	83.0	10.0	0.0	26.0	967.79	59.0	43.0	38.0	-999.0	1636888171.336586	
2.0	-2.0	0.0	0.0	0.0	0.0	81.0	83.0	10.0	0.0	26.0	967.81	59.0	43.0	37.0	-997.0	1636888171.442402	
2.0	-2.0	0.0	0.0	0.0	0.0	81.0	83.0	10.0	0.0	26.0	967.85	59.0	41.0	37.0	-998.0	1636888171.54061	
2.0	-2.0	0.0	0.0	0.0	0.0	80.0	83.0	10.0	0.0	26.0	967.78	59.0	41.0	38.0	-997.0	1636888171.645839	
2.0	-2.0	0.0	0.0	0.0	0.0	80.0	83.0	10.0	0.0	26.0	967.83	59.0	42.0	37.0	-996.0	1636888171.748291	
2.0	-2.0	0.0	0.0	0.0	0.0	80.0	83.0	10.0	0.0	26.0	967.81	59.0	40.0	38.0	-999.0	1636888171.84681	
2.0	-2.0	0.0	0.0	0.0	0.0	80.0	83.0	10.0	0.0	26.0	967.79	59.0	41.0	37.0	-999.0	1636888171.949601	
2.0	-2.0	0.0	0.0	0.0	0.0	80.0	83.0	10.0	0.0	26.0	967.73	59.0	40.0	38.0	-997.0	1636888172.050851	
2.0	-2.0	0.0	0.0	0.0	0.0	80.0	83.0	10.0	0.0	26.0	967.8	59.0	41.0	38.0	-1000.0	1636888172.103194	
2.0	-2.0	0.0	0.0	0.0	0.0	80.0	83.0	10.0	0.0	26.0	967.79	59.0	42.0	39.0	-998.0	1636888172.206999	
2.0	-2.0	0.0	0.0	0.0	0.0	80.0	83.0	10.0	0.0	26.0	967.76	59.0	42.0	37.0	-999.0	1636888172.307802	
2.0	-2.0	0.0	0.0	0.0	0.0	80.0	83.0	10.0	0.0	26.0	967.83	59.0	41.0	38.0	-998.0	1636888172.411016	
2.0	-2.0	0.0	0.0	0.0	0.0	80.0	83.0	10.0	0.0	26.0	967.76	59.0	43.0	37.0	-996.0	1636888172.512456	
2.0	-2.0	0.0	0.0	0.0	0.0	80.0	83.0	10.0	0.0	26.0	967.84	59.0	44.0	38.0	-997.0	1636888172.615174	
2.0	-2.0	0.0	0.0	0.0	0.0	80.0	83.0	10.0	0.0	26.0	967.75	59.0	42.0	38.0	-997.0	1636888172.716087	
2.0	-2.0	0.0	0.0	0.0	0.0	80.0	83.0	10.0	0.0	26.0	967.79	59.0	42.0	38.0	-996.0	1636888172.815948	
2.0	-2.0	0.0	0.0	0.0	0.0	80.0	83.0	10.0	0.0	26.0	967.82	59.0	40.0	37.0	-995.0	1636888172.920076	
2.0	-2.0	0.0	0.0	0.0	0.0	80.0	83.0	10.0	0.0	26.0	967.8	59.0	41.0	38.0	-996.0	1636888173.021389	
2.0	-2.0	0.0	0.0	0.0	0.0	80.0	83.0	10.0	0.0	26.0	967.78	59.0	42.0	37.0	-997.0	1636888173.125225	
2.0	-2.0	0.0	0.0	0.0	0.0	80.0	83.0	10.0	0.0	26.0	967.81	59.0	40.0	38.0	-998.0	1636888173.224487	
2.0	-2.0	0.0	0.0	0.0	0.0	80.0	83.0	10.0	0.0	26.0	967.74	59.0	41.0	38.0	-996.0	1636888173.327222	
2.0	-2.0	0.0	0.0	0.0	0.0	80.0	83.0	10.0	0.0	26.0	967.77	59.0	41.0	37.0	-998.0	1636888173.430162	
2.0	-2.0	0.0	0.0	0.0	0.0	80.0	83.0	10.0	0.0	26.0	967.73	59.0	41.0	39.0	-996.0	1636888173.530589	
2.0	-2.0	0.0	0.0	0.0	0.0	81.0	83.0	10.0	0.0	26.0	967.77	59.0	41.0	38.0	-1000.0	1636888173.633838	
2.0	-2.0	0.0	0.0	0.0	0.0	81.0	83.0	10.0	0.0	26.0	967.84	59.0	41.0	38.0	-1000.0	1636888173.736453	
2.0	-2.0	0.0	0.0	0.0	0.0	81.0	83.0	10.0	0.0	26.0	967.76	59.0	41.0	38.0	-999.0	1636888173.837586	
2.0	-2.0	0.0	0.0	0.0	0.0	81.0	83.0	10.0	0.0	26.0	967.76	59.0	41.0	37.0	-999.0	1636888173.939682	
2.0	-2.0	0.0	0.0	0.0	0.0	81.0	83.0	10.0	0.0	26.0	967.81	59.0	41.0	37.0	-1000.0	1636888174.044398	
2.0	-2.0	0.0	0.0	0.0	0.0	81.0	83.0	10.0	0.0	26.0	967.74	59.0	41.0	37.0	-999.0	1636888174.144515	
2.0	-2.0	0.0	0.0	0.0	0.0	81.0	83.0	10.0	0.0	26.0	967.78	59.0	42.0	37.0	-1001.0	1636888174.244375	
2.0	-2.0	0.0	0.0	0.0	0.0	81.0	83.0	10.0	0.0	26.0	967.78	59.0	40.0	37.0	-997.0	1636888174.346381	
2.0	-2.0	0.0	0.0	0.0	0.0	81.0	83.0	10.0	0.0	26.0	967.79	59.0	41.0	38.0	-998.0	1636888174.45136	
2.0	-2.0	0.0	0.0	0.0	0.0	81.0	83.0	10.0	0.0	26.0	967.76	59.0	41.0	37.0	-996.0	1636888174.551001	
2.0	-2.0	0.0	0.0	0.0	0.0	81.0	82.0	10.0	0.0	26.0	967.78	59.0	40.0	37.0	-996.0	1636888174.6524	
2.0	-2.0	0.0	0.0	0.0	0.0	81.0	82.0	10.0	0.0	26.0	967.75	59.0	42.0	37.0	-998.0	1636888174.75739	
2.0	-2.0	0.0	0.0	0.0	0.0	81.0	82.0	10.0	0.0	26.0	967.78	59.0	41.0	38.0	-999.0	1636888174.855735	
2.0	-2.0	0.0	0.0	0.0	0.0	81.0	82.0	10.0	0.0	26.0	967.77	59.0	42.0	37.0	-995.0	1636888175.028338	
2.0	-2.0	0.0	0.0	0.0	0.0	81.0	82.0	10.0	0.0	26.0	967.79	59.0	41.0	37.0	-999.0	1636888175.173457	
2.0	-2.0	0.0	0.0	0.0	0.0	81.0	82.0	10.0	0.0	26.0	967.78	59.0	41.0	37.0	-1001.0	1636888175.173457	
2.0	-2.0	0.0	0.0	0.0	0.0	81.0	82.0	10.0	0.0	26.0	967.75	59.0	41.0	37.0	-996.0	1636888175.268338	
2.0	-2.0	0.0	0.0	0.0	0.0	81.0	82.0	10.0	0.0	26.0	967.77	59.0	41.0	38.0	-1000.0	1636888175.432681	
2.0	-2.0	0.0	0.0	0.0	0.0	81.0	82.0	10.0	0.0	26.0	967.75	59.0	41.0	37.0	-998.0	1636888175.432681	
2.0	-2.0	0.0	0.0	0.0	0.0	81.0	82.0	10.0	0.0	26.0	967.82	59.0	42.0	38.0	-998.0	1636888175.575576	
2.0	-2.0	0.0	0.0	0.0	0.0	80.0	83.0	10.0	0.0	26.0	967.78	59.0	41.0	37.0	-998.0	1636888175.779129	
2.0	-2.0	0.0	0.0	0.0	0.0	80.0	83.0	10.0	0.0	26.0	967.78	59.0	39.0	39.0	-999.0	1636888175.779129	
2.0	-2.0	0.0	0.0	0.0	0.0	80.0	83.0	10.0	0.0	26.0	967.74	59.0	42.0	39.0	-996.0	1636888175.838566	
2.0	-2.0	0.0	0.0	0.0	0.0	80.0	83.0	10.0	0.0	26.0	967.77	59.0	42.0	38.0	-1001.0	1636888175.929975	
2.0	-2.0	0.0	0.0	0.0	0.0	80.0	83.0	10.0	0.0	26.0	967.71	59.0	41.0	38.0	-998.0	1636888176.088682	
2.0	-2.0	0.0	0.0	0.0	0.0	80.0	83.0	10.0	0.0	26.0	967.79	59.0	41.0	37.0	-998.0	1636888176.230107	
2.0	-2.0	0.0	0.0	0.0	0.0	80.0	83.0	10.0	0.0	26.0	967.76	59.0	41.0	38.0	-998.0	1636888176.236341	
2.0	-2.0	0.0	0.0	0.0	0.0	80.0	83.0	10.0	0.0	26.0	967.79	59.0	39.0	38.0	-997.0	1636888176.395324	
2.0	-2.0	0.0	0.0	0.0	0.0	80.0	83.0	10.0	0.0	26.0	967.78	59.0	40.0	37.0	-999.0	1636888176.537379	
2.0	-2.0	0.0	0.0	0.0	0.0	80.0	83.0	10.0	0.0	26.0	967.76	59.0	42.0	39.0	-1000.0	1636888176.541372	
2.0	-2.0	0.0	0.0	0.0	0.0	81.0	83.0	10.0	0.0	26.0	967.8	59.0	40.0	38.0	-998.0	1636888176.701398	
2.0	-2.0	0.0	0.0	0.0	0.0	81.0	83.0	10.0	0.0	26.0	967.8	59.0	41.0	38.0	-996.0	1636888176.846556	
2.0	-2.0	0.0	0.0	0.0	0.0	81.0	83.0	10.0	0.0	26.0	967.77	59.0	43.0	37.0	-998.0	1636888176.848442	
2.0	-2.0	0.0	0.0	0.0	0.0	81.0	83.0	10.0	0.0	26.0	967.74	59.0	43.0	36.0	-996.0	1636888177.009674	
2.0	-2.0	0.0	0.0	0.0	0.0	81.0	83.0	10.0	0.0	26.0	967.75	59.0	40.0	37.0	-997.0	1636888177.150776	
2.0	-2.0	0.0	0.0	0.0	0.0	81.0	83.0	10.0	0.0	26.0	967.77	59.0	41.0	37.0	-998.0	1636888177.154743	
2.0	-2.0	0.0	0.0	0.0	0.0	81.0	83.0	10.0	0.0	26.0	967.76	59.0	41.0	37.0	-1000.0	1636888177.315936	
2.0	-2.0	0.0	0.0	0.0	0.0	81.0	83.0	10.0	0.0	26.0	967.81	59.0	41.0	38.0	-998.0	1636888177.459228	
2.0	-2.0	0.0	0.0	0.0	0.0	81.0	83.0	10.0	0.0	26.0	967.79	59.0	41.0	37.0	-997.0	1636888177.459228	
2.0	-2.0	0.0	0.0	0.0	0.0	81.0	83.0	10.0	0.0	26.0	967.76	59.0	41.0	38.0	-998.0	1636888177.621438	
2.0	-2.0	0.0	0.0	0.0	0.0	81.0	83.0	10.0	0.0	26.0	967.78	59.0	41.0	38.0	-997.0	1636888177.764843	
2.0	-2.0	0.0	0.0	0.0	0.0	81.0	83.0	10.0	0.0	26.0	967.74	59.0	42.0	38.0	-999.0	1636888177.768776	
2.0	-2.0	0.0	0.0	0.0	0.0	81.0	83.0	10.0	0.0	26.0	967.77	59.0	33.0	39.0	-994.0	1636888177.931626	
2.0	-2.0	0.0	0.0	0.0	0.0	81.0	83.0	10.0	0.0	26.0	967.77	59.0	36.0	43.0	-1003.0	1636888178.07327	
2.0	-2.0	0.0	0.0	0.0	0.0	81.0	83.0	10.0	0.0	26.0	967.77	59.0	21.0	51.0	-1009.0	1636888178.075828	
2.0	-2.0	0.0	0.0	0.0	0.0	81.0	83.0	10.0	0.0	26.0	967.77	59.0	48.0	48.0	-1003.0	1636888178.238903	
2.0	-2.0	0.0	0.0	0.0	0.0	81.0	83.0	10.0	0.0	26.0	967.77	59.0	28.0	28.0	-996.0	1636888178.381857	
0.0	-2.0	0.0	0.0	0.0	0.0	81.0	83.0	10.0	0.0	26.0	967.77	59.0	29.0	-9.0	-1024.0	1636888178.381857	
-2.0	0.0	0.0	0.0	0.0	0.0	81.0	83.0	10.0	0.0	26.0	967.77	59.0	8.0	-13.0	-1124.0	1636888178.542924	
-2.0	2.0	0.0	0.0	0.0	-2.0	81.0	83.0	10.0	0.0	26.0	967.77	59.0	21.0	-17.0	-1274.0	1636888178.687667	
0.0	2.0	0.0	1.0	0.0	-4.0	81.0	83.0	10.0	0.0	26.0	967.77	60.0	51.0	-3.0	-1245.0	1636888178.687667	
3.0	0.0	0.0	1.0	0.0	-6.0	81.0	83.0	13.0	0.0	26.0	967.91	60.0	56.0	-32.0	-1152.0	1636888178.853711	
4.0	0.0	0.0	1.0	0.0	-7.0	81.0	83.0	21.0	0.0	26.0	968.17	60.0	49.0	-32.0	-1096.0	1636888178.88956	
4.0	1.0	0.0	1.0	0.0	-7.0	81.0	83.0	31.0	10.0	26.0	968.23	60.0	52.0	-24.0	-1042.0	1636888178.988793	
4.0	1.0	0.0	0.0	0.0	-7.0	81.0	83.0	37.0	10.0	26.0	968.31	60.0	48.0	-23.0	-988.0	1636888179.038311	
4.0	1.0	0.0	0.0	0.0	-7.0	81.0	83.0	46.0	20.0	26.0	968.37	60.0	45.0	-17.0	-949.0	1636888179.142348	
3.0	1.0	0.0	0.0	0.0	-6.0	81.0	83.0	55.0	30.0	26.0	968.5	60.0	49.0	-7.0	-901.0	1636888179.245086	
3.0	0.0	0.0	0.0	0.0	-5.0	81.0	83.0	63.0	30.0	26.0	968.58	60.0	65.0	-19.0	-886.0	1636888179.347885	
3.0	0.0	0.0	0.0	0.0	-4.0	81.0	83.0	70.0	40.0	26.0	968.6	60.0	67.0	-19.0	-873.0	1636888179.450093	
3.0	0.0	0.0	0.0	0.0	-3.0	81.0	83.0	78.0	40.0	26.0	968.62	60.0	51.0	-9.0	-880.0	1636888179.549536	
3.0	0.0	0.0	0.0	0.0	-2.0	81.0	83.0	83.0	50.0	26.0	968.61	61.0	57.0	-21.0	-895.0	1636888179.650823	
3.0	0.0	0.0	0.0	0.0	-1.0	81.0	83.0	89.0	50.0	26.0	968.73	61.0	36.0	-8.0	-893.0	1636888179.754288	
3.0	1.0	0.0	0.0	0.0	0.0	81.0	83.0	91.0	50.0	26.0	968.75	61.0	49.0	-16.0	-907.0	1636888179.856348	
3.0	1.0	0.0	0.0	0.0	0.0	81.0	83.0	94.0	50.0	26.0	968.76	61.0	65.0	-29.0	-923.0	1636888179.957952	
3.0	1.0	0.0	0.0	0.0	0.0	81.0	83.0	96.0	60.0	26.0	968.77	61.0	69.0	-30.0	-937.0	1636888180.062144	
3.0	1.0	0.0	0.0	0.0	0.0	81.0	83.0	96.0	60.0	26.0	968.74	61.0	58.0	-17.0	-968.0	1636888180.176884	
3.0	1.0	0.0	0.0	0.0	0.0	81.0	83.0	97.0	60.0	26.0	968.81	61.0	64.0	-18.0	-953.0	1636888180.263539	
3.0	1.0	0.0	0.0	0.0	0.0	81.0	83.0	97.0	60.0	26.0	968.83	61.0	51.0	-2.0	-968.0	1636888180.364831	
3.0	1.0	0.0	0.0	0.0	1.0	81.0	83.0	98.0	60.0	26.0	968.85	61.0	64.0	-16.0	-970.0	1636888180.466246	
4.0	1.0	0.0	0.0	0.0	1.0	81.0	83.0	97.0	60.0	26.0	968.82	61.0	62.0	-26.0	-968.0	1636888180.568777	
4.0	1.0	0.0	0.0	0.0	1.0	80.0	83.0	96.0	60.0	26.0	968.76	62.0	49.0	-19.0	-987.0	1636888180.6704	
3.0	1.0	0.0	0.0	0.0	1.0	80.0	83.0	94.0	60.0	26.0	968.77	62.0	50.0	-10.0	-996.0	1636888180.775897	
3.0	1.0	0.0	0.0	0.0	1.0	80.0	83.0	94.0	60.0	26.0	968.73	62.0	61.0	-13.0	-996.0	1636888180.878108	
3.0	1.0	0.0	0.0	0.0	1.0	80.0	83.0	91.0	60.0	26.0	968.75	62.0	51.0	-16.0	-1031.0	1636888180.976903	
2.0	1.0	0.0	0.0	0.0	0.0	80.0	83.0	89.0	60.0	26.0	968.78	62.0	67.0	-10.0	-1195.0	1636888181.082579	
3.0	1.0	0.0	0.0	0.0	-2.0	80.0	83.0	89.0	60.0	26.0	968.83	62.0	64.0	-22.0	-1199.0	1636888181.184083	
3.0	0.0	0.0	0.0	0.0	-4.0	80.0	83.0	92.0	60.0	26.0	968.84	62.0	55.0	-20.0	-1186.0	1636888181.283948	
2.0	0.0	0.0	0.0	0.0	-5.0	80.0	83.0	98.0	70.0	26.0	968.82	62.0	70.0	-30.0	-1161.0	1636888181.386975	
2.0	0.0	0.0	0.0	0.0	-7.0	80.0	83.0	103.0	70.0	26.0	968.94	62.0	63.0	-29.0	-1133.0	1636888181.488581	
3.0	0.0	0.0	0.0	0.0	-8.0	80.0	83.0	113.0	80.0	26.0	968.98	62.0	65.0	-19.0	-1103.0	1636888181.593233	
3.0	1.0	0.0	0.0	0.0	-9.0	80.0	82.0	126.0	90.0	26.0	969.04	63.0	55.0	-11.0	-1075.0	1636888181.694758	
2.0	0.0	0.0	0.0	0.0	-9.0	80.0	82.0	136.0	100.0	26.0	969.16	63.0	53.0	-23.0	-1037.0	1636888181.796433	
2.0	0.0	0.0	0.0	0.0	-9.0	80.0	82.0	147.0	110.0	26.0	969.32	63.0	56.0	-27.0	-925.0	1636888181.8963	
2.0	0.0	0.0	0.0	0.0	-8.0	80.0	82.0	156.0	120.0	26.0	969.45	63.0	19.0	2.0	-817.0	1636888181.999161	
2.0	0.0	0.0	0.0	0.0	-6.0	80.0	82.0	164.0	130.0	26.0	969.34	63.0	75.0	-19.0	-801.0	1636888182.098458	
2.0	0.0	0.0	0.0	0.0	-4.0	80.0	82.0	168.0	130.0	26.0	969.49	63.0	36.0	13.0	-836.0	1636888182.203909	
2.0	0.0	0.0	0.0	0.0	-3.0	80.0	82.0	172.0	140.0	26.0	969.47	63.0	65.0	-3.0	-851.0	1636888182.30554	
2.0	0.0	0.0	0.0	0.0	-1.0	80.0	82.0	175.0	140.0	26.0	969.57	63.0	40.0	7.0	-886.0	1636888182.407465	
2.0	0.0	0.0	0.0	0.0	-1.0	80.0	82.0	176.0	140.0	26.0	969.56	63.0	45.0	20.0	-914.0	1636888182.4554	
2.0	0.0	0.0	0.0	0.0	0.0	80.0	82.0	175.0	140.0	26.0	969.57	63.0	40.0	23.0	-958.0	1636888182.55748	
2.0	0.0	0.0	0.0	0.0	0.0	80.0	82.0	175.0	140.0	26.0	969.6	64.0	45.0	12.0	-965.0	1636888182.711704	
2.0	0.0	0.0	0.0	0.0	0.0	80.0	82.0	176.0	140.0	26.0	969.64	64.0	43.0	24.0	-989.0	1636888182.764997	
2.0	0.0	0.0	0.0	0.0	0.0	80.0	82.0	175.0	140.0	26.0	969.53	64.0	46.0	11.0	-996.0	1636888182.86452	
2.0	-1.0	0.0	0.0	0.0	0.0	80.0	82.0	175.0	140.0	26.0	969.55	64.0	53.0	3.0	-994.0	1636888182.968935	
2.0	-1.0	0.0	0.0	0.0	0.0	80.0	82.0	174.0	140.0	26.0	969.51	64.0	62.0	-6.0	-1002.0	1636888183.067989	
2.0	0.0	0.0	0.0	0.0	0.0	80.0	82.0	175.0	140.0	26.0	969.56	64.0	56.0	0.0	-996.0	1636888183.172189	
2.0	0.0	0.0	0.0	0.0	0.0	80.0	82.0	175.0	140.0	26.0	969.52	64.0	48.0	1.0	-995.0	1636888183.272975	
2.0	0.0	0.0	0.0	0.0	0.0	80.0	82.0	173.0	140.0	26.0	969.48	64.0	47.0	0.0	-1009.0	1636888183.375657	
2.0	0.0	0.0	0.0	0.0	0.0	80.0	82.0	174.0	140.0	26.0	969.55	64.0	50.0	5.0	-999.0	1636888183.475546	
2.0	0.0	0.0	0.0	0.0	0.0	80.0	82.0	175.0	140.0	26.0	969.56	64.0	52.0	-12.0	-994.0	1636888183.578504	
2.0	0.0	0.0	0.0	0.0	0.0	79.0	82.0	177.0	140.0	26.0	969.59	65.0	50.0	-15.0	-989.0	1636888183.681217	
2.0	0.0	0.0	0.0	0.0	0.0	79.0	82.0	177.0	140.0	26.0	969.54	65.0	49.0	-2.0	-1006.0	1636888183.781789	
2.0	0.0	0.0	0.0	0.0	0.0	79.0	82.0	176.0	140.0	26.0	969.59	65.0	50.0	-11.0	-986.0	1636888183.885648	
1.0	0.0	0.0	0.0	0.0	0.0	79.0	82.0	176.0	140.0	26.0	969.52	65.0	46.0	1.0	-991.0	1636888183.985454	
2.0	0.0	0.0	0.0	0.0	0.0	79.0	82.0	177.0	140.0	26.0	969.52	65.0	42.0	-1.0	-1002.0	1636888184.088043	
2.0	0.0	0.0	0.0	0.0	0.0	79.0	82.0	174.0	140.0	26.0	969.49	65.0	50.0	-12.0	-1002.0	1636888184.18942	
2.0	0.0	0.0	0.0	0.0	0.0	79.0	82.0	175.0	140.0	26.0	969.52	65.0	54.0	-10.0	-987.0	1636888184.291235	
2.0	0.0	0.0	0.0	0.0	0.0	79.0	82.0	172.0	140.0	26.0	969.52	65.0	52.0	-10.0	-992.0	1636888184.393306	
2.0	1.0	0.0	0.0	0.0	0.0	79.0	82.0	174.0	140.0	26.0	969.52	65.0	58.0	-16.0	-996.0	1636888184.496006	
2.0	1.0	0.0	0.0	0.0	0.0	79.0	82.0	173.0	140.0	26.0	969.46	65.0	41.0	-4.0	-1011.0	1636888184.597417	
2.0	0.0	0.0	0.0	0.0	0.0	79.0	81.0	172.0	140.0	26.0	969.52	66.0	52.0	-1.0	-998.0	1636888184.702529	
2.0	0.0	0.0	0.0	0.0	0.0	79.0	81.0	172.0	140.0	26.0	969.57	66.0	41.0	6.0	-1003.0	1636888184.80463	
2.0	0.0	0.0	0.0	0.0	0.0	79.0	81.0	173.0	140.0	26.0	969.51	66.0	57.0	-1.0	-1005.0	1636888184.906033	
2.0	0.0	0.0	0.0	0.0	0.0	79.0	81.0	171.0	140.0	26.0	969.58	66.0	56.0	2.0	-993.0	1636888185.006689	
2.0	0.0	0.0	0.0	0.0	0.0	79.0	81.0	171.0	140.0	26.0	969.6	66.0	62.0	-11.0	-995.0	1636888185.109349	
2.0	0.0	0.0	0.0	0.0	0.0	79.0	81.0	171.0	140.0	26.0	969.58	66.0	55.0	-9.0	-1000.0	1636888185.210728	
2.0	0.0	0.0	0.0	0.0	0.0	79.0	81.0	171.0	140.0	26.0	969.52	66.0	48.0	-6.0	-1004.0	1636888185.314649	
2.0	0.0	0.0	0.0	0.0	0.0	79.0	81.0	171.0	140.0	26.0	969.49	66.0	57.0	-19.0	-995.0	1636888185.414514	
2.0	0.0	0.0	0.0	0.0	0.0	79.0	81.0	172.0	140.0	26.0	969.53	66.0	48.0	-7.0	-1003.0	1636888185.516157	
2.0	0.0	0.0	0.0	0.0	0.0	79.0	81.0	173.0	140.0	26.0	969.54	66.0	42.0	-3.0	-1015.0	1636888185.622159	
2.0	0.0	0.0	0.0	0.0	0.0	77.0	81.0	173.0	140.0	26.0	969.58	67.0	45.0	-14.0	-996.0	1636888185.721201	
2.0	0.0	0.0	0.0	0.0	0.0	77.0	81.0	173.0	140.0	26.0	969.51	67.0	41.0	-14.0	-986.0	1636888185.824302	
2.0	0.0	0.0	0.0	0.0	0.0	77.0	81.0	173.0	140.0	26.0	969.55	67.0	38.0	-14.0	-991.0	1636888185.927008	
1.0	1.0	0.0	0.0	0.0	0.0	77.0	81.0	175.0	140.0	26.0	969.59	67.0	41.0	1.0	-1000.0	1636888186.02934	
1.0	0.0	0.0	0.0	0.0	0.0	77.0	81.0	174.0	140.0	26.0	969.57	67.0	47.0	-14.0	-990.0	1636888186.129212	
1.0	0.0	0.0	0.0	0.0	0.0	77.0	81.0	175.0	140.0	26.0	969.45	67.0	30.0	0.0	-1001.0	1636888186.232445	
1.0	0.0	0.0	0.0	0.0	0.0	77.0	81.0	177.0	140.0	26.0	969.54	67.0	34.0	14.0	-1003.0	1636888186.335411	
1.0	0.0	0.0	0.0	0.0	0.0	77.0	81.0	177.0	140.0	26.0	969.58	67.0	59.0	-6.0	-995.0	1636888186.387335	
1.0	0.0	0.0	0.0	0.0	0.0	77.0	81.0	175.0	140.0	26.0	969.6	67.0	61.0	-7.0	-995.0	1636888186.489791	
2.0	0.0	0.0	0.0	0.0	0.0	77.0	81.0	173.0	140.0	26.0	969.53	67.0	71.0	-10.0	-983.0	1636888186.590235	
2.0	0.0	0.0	0.0	0.0	0.0	77.0	80.0	174.0	140.0	26.0	969.54	68.0	67.0	-12.0	-976.0	1636888186.743478	
2.0	0.0	0.0	0.0	0.0	0.0	77.0	80.0	174.0	140.0	26.0	969.65	68.0	71.0	-17.0	-988.0	1636888186.843594	
3.0	0.0	0.0	0.0	0.0	0.0	77.0	80.0	174.0	140.0	26.0	969.59	68.0	46.0	0.0	-988.0	1636888186.94587	
3.0	0.0	0.0	0.0	0.0	0.0	77.0	80.0	175.0	140.0	26.0	969.51	68.0	54.0	-13.0	-999.0	1636888187.047048	
3.0	0.0	0.0	0.0	0.0	0.0	77.0	80.0	174.0	140.0	26.0	969.57	68.0	60.0	-10.0	-993.0	1636888187.098568	
3.0	0.0	0.0	0.0	0.0	0.0	77.0	80.0	174.0	140.0	26.0	969.6	68.0	58.0	-12.0	-999.0	1636888187.202002	
3.0	0.0	0.0	0.0	0.0	0.0	77.0	80.0	172.0	140.0	26.0	969.55	68.0	48.0	-1.0	-1008.0	1636888187.305091	
3.0	0.0	0.0	0.0	0.0	0.0	77.0	80.0	173.0	140.0	26.0	969.53	68.0	55.0	-9.0	-1008.0	1636888187.407578	
3.0	0.0	0.0	0.0	0.0	0.0	77.0	80.0	173.0	140.0	26.0	969.64	68.0	59.0	3.0	-1003.0	1636888187.509293	
3.0	0.0	0.0	0.0	0.0	0.0	77.0	80.0	174.0	140.0	26.0	969.59	68.0	67.0	-3.0	-990.0	1636888187.610872	
3.0	0.0	0.0	0.0	0.0	0.0	78.0	79.0	173.0	140.0	26.0	969.5	69.0	59.0	-2.0	-998.0	1636888187.712508	
3.0	0.0	0.0	0.0	0.0	0.0	78.0	79.0	174.0	140.0	26.0	969.54	69.0	58.0	-2.0	-1008.0	1636888187.812378	
3.0	0.0	0.0	0.0	0.0	0.0	78.0	79.0	175.0	140.0	26.0	969.53	69.0	64.0	-7.0	-994.0	1636888187.918237	
3.0	0.0	0.0	0.0	0.0	0.0	78.0	79.0	175.0	140.0	26.0	969.53	69.0	63.0	-13.0	-994.0	1636888188.017623	
3.0	0.0	0.0	0.0	0.0	0.0	78.0	79.0	175.0	140.0	26.0	969.56	69.0	57.0	-14.0	-996.0	1636888188.121482	
3.0	0.0	0.0	0.0	0.0	0.0	78.0	79.0	174.0	140.0	26.0	969.54	69.0	56.0	13.0	-998.0	1636888188.221748	
3.0	0.0	0.0	0.0	0.0	0.0	78.0	79.0	173.0	140.0	26.0	969.54	69.0	57.0	11.0	-1014.0	1636888188.323089	
3.0	0.0	0.0	0.0	0.0	0.0	78.0	79.0	173.0	140.0	26.0	969.58	69.0	62.0	-4.0	-996.0	1636888188.425137	
3.0	0.0	0.0	0.0	0.0	0.0	78.0	79.0	173.0	140.0	26.0	969.53	69.0	59.0	-4.0	-993.0	1636888188.527362	
3.0	0.0	0.0	0.0	0.0	0.0	78.0	79.0	174.0	140.0	26.0	969.57	69.0	63.0	-8.0	-994.0	1636888188.630562	
3.0	0.0	0.0	0.0	0.0	0.0	77.0	79.0	174.0	140.0	26.0	969.51	70.0	65.0	-11.0	-997.0	1636888188.734925	
3.0	0.0	0.0	0.0	0.0	0.0	77.0	79.0	175.0	140.0	26.0	969.46	70.0	61.0	-1.0	-1000.0	1636888188.834324	
3.0	0.0	0.0	0.0	0.0	0.0	77.0	79.0	175.0	140.0	26.0	969.49	70.0	58.0	2.0	-1000.0	1636888189.015799	
3.0	0.0	0.0	0.0	0.0	0.0	77.0	79.0	175.0	140.0	26.0	969.53	70.0	64.0	-3.0	-993.0	1636888189.040759	
3.0	0.0	0.0	0.0	0.0	0.0	77.0	79.0	174.0	140.0	26.0	969.58	70.0	71.0	4.0	-986.0	1636888189.158424	
3.0	0.0	0.0	0.0	0.0	0.0	77.0	79.0	171.0	140.0	26.0	969.6	70.0	67.0	2.0	-997.0	1636888189.306607	
3.0	0.0	0.0	0.0	0.0	0.0	77.0	79.0	174.0	140.0	26.0	969.53	70.0	64.0	14.0	-1006.0	1636888189.450166	
3.0	0.0	0.0	0.0	0.0	0.0	77.0	79.0	172.0	140.0	26.0	969.6	70.0	55.0	5.0	-1000.0	1636888189.450166	
3.0	-1.0	0.0	0.0	0.0	0.0	77.0	79.0	171.0	140.0	26.0	969.45	70.0	54.0	8.0	-1011.0	1636888189.555943	
3.0	0.0	0.0	0.0	0.0	0.0	77.0	79.0	173.0	140.0	26.0	969.55	70.0	40.0	12.0	-992.0	1636888189.684547	
2.0	0.0	0.0	0.0	0.0	0.0	76.0	79.0	172.0	140.0	26.0	969.51	71.0	44.0	19.0	-1016.0	1636888189.753285	
2.0	-1.0	1.0	0.0	0.0	0.0	76.0	79.0	172.0	140.0	26.0	969.49	71.0	42.0	11.0	-984.0	1636888189.901737	
2.0	-1.0	1.0	0.0	0.0	0.0	76.0	79.0	173.0	140.0	26.0	969.41	71.0	34.0	10.0	-987.0	1636888190.044193	
2.0	0.0	0.0	0.0	0.0	0.0	76.0	79.0	173.0	140.0	26.0	969.45	71.0	53.0	0.0	-989.0	1636888190.060838	
2.0	0.0	0.0	0.0	0.0	0.0	76.0	79.0	174.0	140.0	26.0	969.47	71.0	49.0	-5.0	-980.0	1636888190.264367	
2.0	0.0	0.0	0.0	0.0	0.0	76.0	79.0	173.0	140.0	26.0	969.51	71.0	54.0	-3.0	-988.0	1636888190.264367	
2.0	0.0	0.0	0.0	0.0	0.0	76.0	79.0	174.0	140.0	26.0	969.53	71.0	49.0	0.0	-994.0	1636888190.365622	
2.0	0.0	0.0	0.0	0.0	0.0	76.0	79.0	172.0	140.0	26.0	969.55	71.0	52.0	2.0	-1000.0	1636888190.52483	
2.0	0.0	0.0	0.0	0.0	0.0	76.0	79.0	172.0	140.0	26.0	969.45	71.0	49.0	5.0	-1005.0	1636888190.52483	
2.0	0.0	0.0	0.0	0.0	0.0	76.0	79.0	172.0	140.0	26.0	969.5	71.0	40.0	4.0	-1016.0	1636888190.667951	
2.0	0.0	0.0	0.0	0.0	0.0	76.0	77.0	172.0	140.0	26.0	969.48	72.0	36.0	4.0	-997.0	1636888190.834444	
2.0	0.0	0.0	0.0	0.0	0.0	76.0	77.0	172.0	140.0	26.0	969.56	72.0	48.0	-3.0	-1007.0	1636888190.834444	
2.0	0.0	0.0	0.0	0.0	0.0	76.0	77.0	172.0	140.0	26.0	969.47	72.0	43.0	-5.0	-997.0	1636888190.924892	
2.0	0.0	0.0	0.0	0.0	0.0	76.0	77.0	172.0	140.0	26.0	969.49	72.0	41.0	-8.0	-992.0	1636888191.030427	
2.0	0.0	0.0	0.0	0.0	0.0	76.0	77.0	172.0	140.0	26.0	969.46	72.0	46.0	-22.0	-987.0	1636888191.132934	
2.0	0.0	0.0	0.0	0.0	0.0	76.0	77.0	172.0	140.0	26.0	969.49	72.0	48.0	-24.0	-986.0	1636888191.230664	
2.0	0.0	0.0	0.0	0.0	0.0	76.0	77.0	173.0	140.0	26.0	969.5	72.0	53.0	-31.0	-1006.0	1636888191.336121	
2.0	1.0	0.0	0.0	0.0	0.0	76.0	77.0	173.0	140.0	26.0	969.45	72.0	57.0	-25.0	-996.0	1636888191.436142	
2.0	1.0	0.0	0.0	0.0	0.0	76.0	77.0	174.0	140.0	26.0	969.46	72.0	47.0	-32.0	-995.0	1636888191.535635	
2.0	1.0	0.0	0.0	0.0	0.0	76.0	77.0	174.0	140.0	26.0	969.45	72.0	44.0	-28.0	-1006.0	1636888191.639487	
3.0	2.0	0.0	0.0	0.0	0.0	75.0	77.0	178.0	140.0	26.0	969.54	73.0	58.0	-26.0	-1006.0	1636888191.743549	
3.0	2.0	0.0	0.0	0.0	0.0	75.0	77.0	176.0	140.0	26.0	969.55	73.0	53.0	-26.0	-996.0	1636888191.843922	
3.0	2.0	0.0	0.0	0.0	0.0	75.0	77.0	178.0	140.0	26.0	969.45	73.0	49.0	-11.0	-1010.0	1636888191.945514	
3.0	1.0	0.0	0.0	0.0	0.0	75.0	77.0	176.0	140.0	26.0	969.52	73.0	37.0	-3.0	-1008.0	1636888192.049636	
3.0	1.0	0.0	0.0	0.0	0.0	75.0	77.0	176.0	140.0	26.0	969.47	73.0	53.0	-25.0	-988.0	1636888192.148181	
3.0	1.0	0.0	0.0	0.0	0.0	75.0	77.0	175.0	140.0	26.0	969.53	73.0	49.0	-17.0	-994.0	1636888192.253528	
3.0	0.0	0.0	0.0	0.0	0.0	75.0	77.0	176.0	140.0	26.0	969.55	73.0	33.0	-20.0	-1010.0	1636888192.352307	
2.0	0.0	0.0	0.0	0.0	0.0	75.0	77.0	175.0	140.0	26.0	969.51	73.0	48.0	-27.0	-990.0	1636888192.4568	
2.0	1.0	0.0	0.0	0.0	0.0	75.0	77.0	176.0	140.0	26.0	969.48	73.0	44.0	-20.0	-995.0	1636888192.555678	
2.0	1.0	0.0	0.0	0.0	0.0	75.0	77.0	176.0	140.0	26.0	969.38	74.0	31.0	-12.0	-1008.0	1636888192.658992	
2.0	1.0	0.0	0.0	0.0	0.0	75.0	77.0	177.0	140.0	26.0	969.51	74.0	47.0	-5.0	-1003.0	1636888192.763622	
2.0	1.0	0.0	0.0	0.0	0.0	75.0	77.0	174.0	140.0	26.0	969.56	74.0	57.0	-14.0	-987.0	1636888192.863743	
2.0	0.0	0.0	0.0	0.0	0.0	75.0	77.0	172.0	140.0	26.0	969.54	74.0	45.0	1.0	-988.0	1636888192.964314	
2.0	0.0	0.0	0.0	0.0	0.0	75.0	77.0	173.0	140.0	26.0	969.52	74.0	34.0	28.0	-1002.0	1636888193.069625	
2.0	0.0	0.0	0.0	0.0	0.0	75.0	77.0	172.0	140.0	26.0	969.61	74.0	44.0	17.0	-1007.0	1636888193.170508	
2.0	-1.0	0.0	0.0	0.0	0.0	75.0	77.0	172.0	140.0	26.0	969.55	74.0	52.0	15.0	-997.0	1636888193.271536	
3.0	-1.0	0.0	0.0	0.0	0.0	75.0	77.0	170.0	140.0	26.0	969.53	74.0	47.0	21.0	-1018.0	1636888193.374192	
3.0	-1.0	0.0	0.0	0.0	0.0	75.0	77.0	171.0	140.0	26.0	969.52	74.0	48.0	32.0	-995.0	1636888193.479012	
3.0	-1.0	0.0	0.0	0.0	0.0	75.0	77.0	174.0	140.0	26.0	969.56	74.0	33.0	27.0	-999.0	1636888193.577869	
3.0	-1.0	0.0	0.0	0.0	0.0	75.0	77.0	173.0	140.0	26.0	969.59	75.0	47.0	-3.0	-990.0	1636888193.680503	
3.0	-1.0	0.0	0.0	0.0	0.0	75.0	77.0	171.0	140.0	26.0	969.59	75.0	42.0	0.0	-1004.0	1636888193.779589	
2.0	0.0	0.0	0.0	0.0	0.0	75.0	77.0	171.0	140.0	26.0	969.54	75.0	47.0	-5.0	-1005.0	1636888193.882732	
2.0	0.0	0.0	0.0	0.0	0.0	75.0	77.0	171.0	140.0	26.0	969.47	75.0	46.0	-13.0	-1008.0	1636888193.985096	
2.0	0.0	0.0	0.0	0.0	0.0	75.0	77.0	172.0	140.0	26.0	969.51	75.0	44.0	-8.0	-1010.0	1636888194.089148	
2.0	0.0	0.0	0.0	0.0	0.0	75.0	77.0	172.0	140.0	26.0	969.43	75.0	52.0	-14.0	-1011.0	1636888194.190111	
3.0	0.0	0.0	0.0	0.0	0.0	75.0	77.0	172.0	140.0	26.0	969.51	75.0	70.0	-17.0	-982.0	1636888194.293266	
3.0	0.0	0.0	0.0	0.0	0.0	75.0	77.0	173.0	140.0	26.0	969.51	75.0	67.0	-24.0	-989.0	1636888194.392385	
3.0	1.0	0.0	0.0	0.0	0.0	75.0	77.0	174.0	140.0	26.0	969.6	75.0	60.0	-13.0	-986.0	1636888194.496731	
3.0	1.0	0.0	0.0	0.0	0.0	75.0	77.0	175.0	140.0	26.0	969.51	75.0	63.0	-9.0	-982.0	1636888194.547916	
3.0	0.0	0.0	0.0	0.0	0.0	75.0	77.0	175.0	140.0	26.0	969.46	76.0	54.0	-15.0	-988.0	1636888194.647795	
3.0	0.0	0.0	0.0	0.0	0.0	75.0	76.0	176.0	140.0	26.0	969.46	76.0	48.0	-14.0	-1004.0	1636888194.800992	
3.0	1.0	0.0	0.0	0.0	0.0	75.0	76.0	175.0	140.0	26.0	969.53	76.0	60.0	-15.0	-993.0	1636888194.905368	
3.0	0.0	0.0	0.0	0.0	0.0	75.0	76.0	175.0	140.0	26.0	969.49	76.0	57.0	-9.0	-992.0	1636888195.009642	
3.0	1.0	0.0	0.0	0.0	0.0	75.0	76.0	174.0	140.0	26.0	969.45	76.0	41.0	0.0	-1011.0	1636888195.058582	
3.0	0.0	0.0	0.0	0.0	0.0	75.0	76.0	175.0	140.0	26.0	969.51	76.0	57.0	2.0	-995.0	1636888195.157507	
3.0	0.0	0.0	0.0	0.0	0.0	75.0	76.0	174.0	140.0	26.0	969.44	76.0	53.0	-11.0	-990.0	1636888195.258905	
3.0	0.0	0.0	0.0	0.0	0.0	75.0	76.0	173.0	140.0	26.0	969.44	76.0	52.0	-15.0	-1002.0	1636888195.363255	
3.0	0.0	0.0	0.0	0.0	0.0	75.0	76.0	173.0	140.0	26.0	969.49	76.0	46.0	-22.0	-996.0	1636888195.466356	
3.0	0.0	0.0	0.0	0.0	0.0	75.0	76.0	173.0	140.0	26.0	969.44	76.0	42.0	-21.0	-1003.0	1636888195.566503	
2.0	1.0	0.0	0.0	0.0	0.0	75.0	76.0	175.0	140.0	26.0	969.46	77.0	54.0	-35.0	-998.0	1636888195.670389	
2.0	2.0	0.0	0.0	0.0	0.0	75.0	76.0	174.0	140.0	26.0	969.51	77.0	44.0	-24.0	-1002.0	1636888195.771539	
2.0	2.0	0.0	0.0	0.0	0.0	75.0	76.0	176.0	140.0	26.0	969.46	77.0	46.0	-19.0	-1010.0	1636888195.872269	
2.0	2.0	0.0	0.0	0.0	0.0	75.0	76.0	177.0	140.0	26.0	969.44	77.0	45.0	-8.0	-1014.0	1636888195.975726	
2.0	1.0	0.0	0.0	0.0	0.0	75.0	76.0	176.0	140.0	26.0	969.41	77.0	55.0	-28.0	-991.0	1636888196.078238	
2.0	1.0	0.0	0.0	0.0	0.0	75.0	76.0	175.0	140.0	26.0	969.48	77.0	47.0	-6.0	-1001.0	1636888196.176897	
3.0	0.0	0.0	0.0	0.0	0.0	75.0	76.0	175.0	140.0	26.0	969.54	77.0	55.0	-16.0	-991.0	1636888196.278399	
3.0	0.0	0.0	0.0	0.0	0.0	75.0	76.0	174.0	140.0	26.0	969.43	77.0	49.0	-16.0	-986.0	1636888196.381494	
3.0	0.0	0.0	0.0	0.0	0.0	75.0	76.0	175.0	140.0	26.0	969.47	77.0	49.0	-13.0	-1001.0	1636888196.482872	
3.0	1.0	0.0	0.0	0.0	0.0	75.0	76.0	175.0	140.0	26.0	969.53	77.0	52.0	-15.0	-989.0	1636888196.585457	
3.0	1.0	0.0	0.0	0.0	0.0	75.0	76.0	176.0	140.0	26.0	969.44	78.0	52.0	-20.0	-1013.0	1636888196.688285	
3.0	1.0	0.0	0.0	0.0	0.0	73.0	76.0	174.0	140.0	26.0	969.57	78.0	60.0	-17.0	-981.0	1636888196.789422	
3.0	0.0	0.0	0.0	0.0	0.0	73.0	76.0	174.0	140.0	26.0	969.61	78.0	52.0	1.0	-1008.0	1636888196.892995	
3.0	0.0	0.0	0.0	0.0	0.0	73.0	76.0	173.0	140.0	26.0	969.54	78.0	30.0	14.0	-1001.0	1636888196.992815	
2.0	0.0	0.0	0.0	0.0	0.0	73.0	76.0	172.0	140.0	26.0	969.55	78.0	47.0	8.0	-1016.0	1636888197.096656	
3.0	0.0	0.0	0.0	0.0	0.0	73.0	76.0	171.0	140.0	26.0	969.52	78.0	63.0	-14.0	-1002.0	1636888197.199857	
3.0	0.0	0.0	0.0	0.0	0.0	73.0	76.0	172.0	140.0	26.0	969.59	78.0	57.0	1.0	-1011.0	1636888197.298977	
3.0	0.0	0.0	0.0	0.0	0.0	73.0	76.0	172.0	140.0	26.0	969.52	78.0	40.0	19.0	-1004.0	1636888197.404079	
3.0	0.0	0.0	0.0	0.0	0.0	73.0	76.0	170.0	140.0	26.0	969.49	78.0	44.0	10.0	-1011.0	1636888197.505532	
3.0	0.0	0.0	0.0	0.0	0.0	73.0	76.0	172.0	140.0	26.0	969.47	78.0	54.0	7.0	-1001.0	1636888197.607025	
3.0	0.0	0.0	0.0	0.0	0.0	73.0	76.0	170.0	140.0	26.0	969.45	79.0	40.0	12.0	-996.0	1636888197.708512	
3.0	0.0	0.0	0.0	0.0	0.0	74.0	75.0	170.0	140.0	26.0	969.47	79.0	61.0	-19.0	-987.0	1636888197.809665	
3.0	0.0	0.0	0.0	0.0	0.0	74.0	75.0	170.0	140.0	26.0	969.54	79.0	49.0	-14.0	-1000.0	1636888197.91242	
3.0	0.0	0.0	0.0	0.0	0.0	74.0	75.0	171.0	140.0	26.0	969.44	79.0	47.0	-17.0	-1002.0	1636888198.014362	
2.0	0.0	0.0	0.0	0.0	0.0	74.0	75.0	172.0	140.0	26.0	969.48	79.0	48.0	-13.0	-992.0	1636888198.115744	
2.0	1.0	0.0	0.0	0.0	0.0	74.0	75.0	173.0	140.0	26.0	969.36	79.0	52.0	-10.0	-993.0	1636888198.221067	
3.0	1.0	0.0	0.0	0.0	0.0	74.0	75.0	172.0	140.0	26.0	969.55	79.0	46.0	-11.0	-999.0	1636888198.322648	
3.0	1.0	0.0	0.0	0.0	0.0	74.0	75.0	172.0	140.0	26.0	969.47	79.0	47.0	-14.0	-994.0	1636888198.42373	
3.0	0.0	0.0	0.0	0.0	0.0	74.0	75.0	172.0	140.0	26.0	969.46	79.0	44.0	-12.0	-993.0	1636888198.526871	
3.0	0.0	0.0	0.0	0.0	0.0	74.0	75.0	173.0	140.0	26.0	969.47	79.0	35.0	-9.0	-999.0	1636888198.627238	
3.0	0.0	0.0	0.0	0.0	0.0	74.0	75.0	173.0	140.0	26.0	969.48	80.0	46.0	-12.0	-1001.0	1636888198.67709	
3.0	1.0	0.0	0.0	0.0	0.0	73.0	75.0	172.0	140.0	26.0	969.49	80.0	40.0	-1.0	-1011.0	1636888198.832997	
2.0	1.0	0.0	0.0	0.0	0.0	73.0	75.0	172.0	140.0	26.0	969.4	80.0	46.0	-21.0	-995.0	1636888198.882856	
2.0	1.0	0.0	0.0	0.0	0.0	73.0	75.0	173.0	140.0	26.0	969.41	80.0	55.0	-13.0	-989.0	1636888198.985133	
2.0	1.0	0.0	0.0	0.0	0.0	73.0	75.0	172.0	140.0	26.0	969.5	80.0	56.0	-23.0	-989.0	1636888199.088381	
2.0	0.0	0.0	0.0	0.0	0.0	73.0	75.0	173.0	140.0	26.0	969.59	80.0	28.0	-8.0	-1002.0	1636888199.190133	
2.0	0.0	0.0	0.0	0.0	0.0	73.0	75.0	171.0	140.0	26.0	969.46	80.0	36.0	-13.0	-994.0	1636888199.292154	
2.0	0.0	0.0	0.0	0.0	0.0	73.0	75.0	172.0	140.0	26.0	969.38	80.0	40.0	-13.0	-1002.0	1636888199.393918	
2.0	0.0	0.0	0.0	0.0	0.0	73.0	75.0	173.0	140.0	26.0	969.47	80.0	34.0	-14.0	-991.0	1636888199.495478	
2.0	0.0	0.0	0.0	0.0	0.0	73.0	75.0	174.0	140.0	26.0	969.51	80.0	43.0	-24.0	-986.0	1636888199.598164	
2.0	1.0	0.0	0.0	0.0	0.0	73.0	75.0	172.0	140.0	26.0	969.48	81.0	30.0	-14.0	-1001.0	1636888199.69634	
2.0	1.0	0.0	0.0	0.0	0.0	73.0	76.0	173.0	140.0	26.0	969.38	81.0	32.0	-9.0	-1004.0	1636888199.799278	
2.0	1.0	0.0	0.0	0.0	0.0	73.0	76.0	173.0	140.0	26.0	969.43	81.0	45.0	-19.0	-1011.0	1636888199.904384	
2.0	1.0	0.0	0.0	0.0	0.0	73.0	76.0	173.0	140.0	26.0	969.41	81.0	47.0	-29.0	-996.0	1636888200.003011	
2.0	1.0	0.0	0.0	0.0	0.0	73.0	76.0	172.0	140.0	26.0	969.42	81.0	49.0	-24.0	-989.0	1636888200.10527	
2.0	0.0	0.0	0.0	0.0	0.0	73.0	76.0	173.0	140.0	26.0	969.41	81.0	44.0	-11.0	-1003.0	1636888200.209695	
2.0	1.0	0.0	0.0	0.0	0.0	73.0	76.0	173.0	140.0	26.0	969.42	81.0	42.0	-22.0	-991.0	1636888200.311225	
2.0	1.0	0.0	0.0	0.0	0.0	73.0	76.0	174.0	140.0	26.0	969.41	81.0	48.0	-29.0	-995.0	1636888200.410086	
2.0	1.0	0.0	0.0	0.0	0.0	73.0	76.0	176.0	140.0	26.0	969.49	81.0	26.0	-13.0	-992.0	1636888200.515464	
2.0	2.0	0.0	0.0	0.0	0.0	73.0	76.0	175.0	140.0	26.0	969.44	81.0	51.0	-26.0	-984.0	1636888200.615324	
2.0	1.0	0.0	0.0	0.0	0.0	73.0	76.0	173.0	140.0	26.0	969.45	82.0	30.0	-7.0	-1012.0	1636888200.718274	
2.0	0.0	0.0	0.0	0.0	0.0	73.0	76.0	172.0	140.0	26.0	969.45	82.0	40.0	-11.0	-993.0	1636888200.822156	
2.0	0.0	0.0	0.0	0.0	0.0	73.0	76.0	172.0	140.0	26.0	969.46	82.0	30.0	-9.0	-1021.0	1636888201.00373	
2.0	0.0	0.0	0.0	0.0	0.0	73.0	76.0	172.0	140.0	26.0	969.43	82.0	35.0	-13.0	-1005.0	1636888201.025323	
2.0	0.0	0.0	0.0	0.0	0.0	73.0	76.0	171.0	140.0	26.0	969.46	82.0	41.0	-24.0	-1009.0	1636888201.146368	
2.0	0.0	0.0	0.0	0.0	0.0	73.0	76.0	171.0	140.0	26.0	969.46	82.0	31.0	-15.0	-1003.0	1636888201.295641	
2.0	0.0	0.0	0.0	0.0	0.0	73.0	76.0	170.0	140.0	26.0	969.45	82.0	35.0	-14.0	-1009.0	1636888201.441419	
2.0	1.0	0.0	0.0	0.0	0.0	73.0	76.0	172.0	140.0	26.0	969.53	82.0	38.0	-17.0	-992.0	1636888201.441419	
2.0	1.0	0.0	0.0	0.0	0.0	73.0	76.0	172.0	140.0	26.0	969.47	82.0	28.0	-17.0	-1003.0	1636888201.536032	
2.0	1.0	0.0	0.0	0.0	0.0	73.0	76.0	171.0	140.0	26.0	969.52	82.0	29.0	-7.0	-1003.0	1636888201.686221	
2.0	1.0	0.0	0.0	0.0	0.0	73.0	76.0	171.0	140.0	26.0	969.42	83.0	37.0	-20.0	-1009.0	1636888201.738696	
1.0	0.0	0.0	0.0	0.0	0.0	73.0	75.0	171.0	140.0	26.0	969.48	83.0	42.0	-19.0	-1008.0	1636888201.888104	
2.0	0.0	0.0	0.0	0.0	0.0	73.0	75.0	172.0	140.0	26.0	969.47	83.0	28.0	-12.0	-1006.0	1636888201.94313	
2.0	0.0	0.0	0.0	0.0	0.0	73.0	75.0	171.0	140.0	26.0	969.47	83.0	48.0	-21.0	-993.0	1636888202.044797	
2.0	0.0	0.0	0.0	0.0	0.0	73.0	75.0	172.0	140.0	26.0	969.47	83.0	43.0	-13.0	-1004.0	1636888202.202516	
2.0	0.0	0.0	0.0	0.0	0.0	73.0	75.0	170.0	140.0	26.0	969.47	83.0	41.0	-11.0	-1001.0	1636888202.34506	
2.0	0.0	0.0	0.0	0.0	0.0	73.0	75.0	172.0	140.0	26.0	969.5	83.0	52.0	-17.0	-998.0	1636888202.349054	
3.0	0.0	0.0	0.0	0.0	0.0	73.0	75.0	173.0	140.0	26.0	969.5	83.0	43.0	-12.0	-992.0	1636888202.508589	
3.0	0.0	0.0	0.0	0.0	0.0	73.0	75.0	174.0	140.0	26.0	969.46	83.0	43.0	-14.0	-992.0	1636888202.651295	
3.0	0.0	0.0	0.0	0.0	0.0	73.0	75.0	172.0	140.0	26.0	969.5	83.0	52.0	-20.0	-987.0	1636888202.655286	
3.0	0.0	0.0	0.0	0.0	0.0	73.0	75.0	173.0	140.0	26.0	969.42	84.0	41.0	-18.0	-1006.0	1636888202.817033	
3.0	0.0	0.0	0.0	0.0	0.0	71.0	74.0	175.0	140.0	26.0	969.48	84.0	39.0	-25.0	-996.0	1636888202.861813	
3.0	1.0	0.0	0.0	0.0	0.0	71.0	74.0	174.0	140.0	26.0	969.48	84.0	42.0	-23.0	-995.0	1636888202.96281	
3.0	1.0	0.0	0.0	0.0	0.0	71.0	74.0	174.0	140.0	26.0	969.48	84.0	45.0	-31.0	-991.0	1636888203.063338	
3.0	1.0	0.0	0.0	0.0	0.0	71.0	74.0	175.0	140.0	26.0	969.41	84.0	42.0	-25.0	-985.0	1636888203.117098	
3.0	1.0	0.0	0.0	0.0	0.0	71.0	74.0	172.0	140.0	26.0	969.43	84.0	53.0	-36.0	-1007.0	1636888203.216303	
3.0	2.0	0.0	0.0	0.0	0.0	71.0	74.0	175.0	140.0	26.0	969.47	84.0	43.0	-36.0	-998.0	1636888203.318573	
3.0	2.0	0.0	0.0	0.0	0.0	71.0	74.0	175.0	140.0	26.0	969.43	84.0	43.0	-24.0	-992.0	1636888203.421826	
3.0	2.0	0.0	0.0	0.0	0.0	71.0	74.0	178.0	140.0	26.0	969.46	84.0	44.0	-18.0	-1009.0	1636888203.52115	
3.0	2.0	0.0	0.0	0.0	0.0	71.0	74.0	177.0	140.0	26.0	969.46	84.0	39.0	-1.0	-997.0	1636888203.624142	
3.0	1.0	0.0	0.0	0.0	0.0	71.0	74.0	176.0	140.0	26.0	969.42	85.0	56.0	-22.0	-988.0	1636888203.728787	
3.0	1.0	0.0	0.0	0.0	0.0	71.0	74.0	176.0	140.0	26.0	969.42	85.0	56.0	-22.0	-988.0	1636888203.728787	
3.0	1.0	0.0	0.0	0.0	0.0	71.0	74.0	177.0	140.0	26.0	969.36	85.0	40.0	-7.0	-999.0	1636888203.832051	
3.0	1.0	0.0	0.0	0.0	0.0	71.0	74.0	177.0	140.0	26.0	969.46	85.0	44.0	-4.0	-995.0	1636888203.934235	
3.0	1.0	0.0	0.0	0.0	0.0	71.0	74.0	174.0	140.0	26.0	969.4	85.0	64.0	-24.0	-993.0	1636888204.032633	
3.0	0.0	0.0	0.0	0.0	0.0	71.0	74.0	175.0	140.0	26.0	969.49	85.0	55.0	-11.0	-994.0	1636888204.137083	
3.0	0.0	0.0	0.0	0.0	0.0	71.0	74.0	176.0	140.0	26.0	969.46	85.0	40.0	-3.0	-1003.0	1636888204.239983	
3.0	0.0	0.0	0.0	0.0	0.0	71.0	74.0	173.0	140.0	26.0	969.47	85.0	48.0	-2.0	-1009.0	1636888204.340253	
3.0	0.0	0.0	0.0	0.0	0.0	71.0	74.0	175.0	140.0	26.0	969.53	85.0	58.0	-2.0	-986.0	1636888204.443977	
3.0	0.0	0.0	0.0	0.0	0.0	71.0	74.0	177.0	140.0	26.0	969.45	85.0	56.0	-5.0	-985.0	1636888204.546258	
3.0	0.0	0.0	0.0	0.0	0.0	71.0	74.0	174.0	140.0	26.0	969.5	85.0	67.0	-19.0	-990.0	1636888204.647539	
3.0	0.0	0.0	0.0	0.0	0.0	71.0	74.0	175.0	140.0	26.0	969.49	86.0	39.0	10.0	-1008.0	1636888204.748464	
3.0	0.0	0.0	0.0	0.0	0.0	72.0	74.0	173.0	140.0	26.0	969.44	86.0	66.0	-8.0	-979.0	1636888204.851426	
3.0	0.0	0.0	0.0	0.0	0.0	72.0	74.0	174.0	140.0	26.0	969.5	86.0	62.0	-7.0	-992.0	1636888204.955778	
3.0	0.0	0.0	0.0	0.0	0.0	72.0	74.0	174.0	140.0	26.0	969.43	86.0	54.0	-4.0	-995.0	1636888205.056267	
3.0	0.0	0.0	0.0	0.0	0.0	72.0	74.0	174.0	140.0	26.0	969.39	86.0	45.0	8.0	-994.0	1636888205.157722	
3.0	0.0	0.0	0.0	0.0	0.0	72.0	74.0	172.0	140.0	26.0	969.45	86.0	47.0	5.0	-1000.0	1636888205.259596	
3.0	0.0	0.0	0.0	0.0	0.0	72.0	74.0	171.0	140.0	26.0	969.47	86.0	49.0	6.0	-1001.0	1636888205.360869	
3.0	0.0	0.0	0.0	0.0	0.0	72.0	74.0	172.0	140.0	26.0	969.46	86.0	38.0	14.0	-1013.0	1636888205.460737	
3.0	0.0	0.0	0.0	0.0	0.0	72.0	74.0	173.0	140.0	26.0	969.43	86.0	45.0	0.0	-1002.0	1636888205.564157	
3.0	0.0	0.0	0.0	0.0	0.0	72.0	74.0	172.0	140.0	26.0	969.4	87.0	44.0	-4.0	-1006.0	1636888205.664198	
3.0	0.0	0.0	0.0	0.0	0.0	72.0	74.0	172.0	140.0	26.0	969.4	87.0	42.0	12.0	-992.0	1636888205.766635	
2.0	0.0	0.0	0.0	0.0	0.0	71.0	75.0	172.0	140.0	26.0	969.46	87.0	47.0	-2.0	-990.0	1636888205.869021	
2.0	0.0	0.0	0.0	0.0	0.0	71.0	75.0	169.0	140.0	26.0	969.42	87.0	45.0	-6.0	-997.0	1636888205.973761	
2.0	0.0	0.0	0.0	0.0	0.0	71.0	75.0	171.0	140.0	26.0	969.48	87.0	44.0	0.0	-996.0	1636888206.074416	
2.0	0.0	0.0	0.0	0.0	0.0	71.0	75.0	168.0	140.0	26.0	969.38	87.0	32.0	11.0	-1009.0	1636888206.176536	
2.0	0.0	0.0	0.0	0.0	0.0	71.0	75.0	169.0	140.0	26.0	969.4	87.0	50.0	2.0	-997.0	1636888206.278029	
2.0	0.0	0.0	0.0	0.0	0.0	71.0	75.0	169.0	140.0	26.0	969.34	87.0	48.0	-21.0	-1003.0	1636888206.381849	
2.0	0.0	0.0	0.0	0.0	0.0	71.0	75.0	169.0	140.0	26.0	969.43	87.0	21.0	22.0	-1016.0	1636888206.48115	
2.0	0.0	0.0	0.0	0.0	0.0	71.0	75.0	168.0	140.0	26.0	969.47	87.0	35.0	-12.0	-995.0	1636888206.58254	
2.0	0.0	0.0	0.0	0.0	0.0	71.0	75.0	166.0	140.0	26.0	969.35	88.0	34.0	-10.0	-1016.0	1636888206.687333	
1.0	0.0	0.0	0.0	0.0	0.0	71.0	75.0	167.0	140.0	26.0	969.48	88.0	26.0	1.0	-1010.0	1636888206.789003	
1.0	0.0	0.0	0.0	0.0	0.0	71.0	73.0	167.0	140.0	26.0	969.39	88.0	38.0	-8.0	-1016.0	1636888206.890696	
1.0	0.0	0.0	0.0	0.0	0.0	71.0	73.0	167.0	140.0	26.0	969.43	88.0	40.0	-10.0	-981.0	1636888206.991417	
2.0	0.0	0.0	0.0	0.0	0.0	71.0	73.0	168.0	140.0	26.0	969.51	88.0	48.0	-11.0	-987.0	1636888207.092863	
2.0	0.0	0.0	0.0	0.0	0.0	71.0	73.0	170.0	140.0	26.0	969.42	88.0	36.0	-14.0	-1002.0	1636888207.195734	
2.0	0.0	0.0	0.0	0.0	0.0	71.0	73.0	169.0	140.0	26.0	969.45	88.0	32.0	-2.0	-997.0	1636888207.245483	
2.0	0.0	0.0	0.0	0.0	0.0	71.0	73.0	169.0	140.0	26.0	969.42	88.0	41.0	5.0	-991.0	1636888207.348208	
2.0	0.0	0.0	0.0	0.0	0.0	71.0	73.0	170.0	140.0	26.0	969.47	88.0	43.0	-5.0	-996.0	1636888207.45075	
2.0	0.0	0.0	0.0	0.0	0.0	71.0	73.0	171.0	140.0	26.0	969.5	88.0	31.0	4.0	-995.0	1636888207.550932	
2.0	0.0	0.0	0.0	0.0	0.0	71.0	73.0	170.0	140.0	26.0	969.54	89.0	34.0	2.0	-1004.0	1636888207.656509	
2.0	0.0	0.0	0.0	0.0	0.0	71.0	73.0	171.0	140.0	26.0	969.48	89.0	41.0	0.0	-997.0	1636888207.757862	
2.0	0.0	0.0	0.0	0.0	0.0	71.0	73.0	170.0	140.0	26.0	969.5	89.0	27.0	3.0	-995.0	1636888207.910306	
2.0	0.0	0.0	0.0	0.0	0.0	71.0	73.0	170.0	140.0	26.0	969.46	89.0	39.0	-13.0	-998.0	1636888208.011947	
2.0	0.0	0.0	0.0	0.0	0.0	71.0	73.0	171.0	140.0	26.0	969.46	89.0	49.0	-13.0	-1001.0	1636888208.061585	
2.0	0.0	0.0	0.0	0.0	0.0	71.0	73.0	172.0	140.0	26.0	969.51	89.0	40.0	-13.0	-998.0	1636888208.164711	
2.0	0.0	0.0	0.0	0.0	0.0	71.0	73.0	172.0	140.0	26.0	969.46	89.0	49.0	-21.0	-1007.0	1636888208.266913	
2.0	0.0	0.0	0.0	0.0	0.0	71.0	73.0	173.0	140.0	26.0	969.46	89.0	46.0	-18.0	-999.0	1636888208.368894	
2.0	1.0	0.0	0.0	0.0	0.0	71.0	73.0	174.0	140.0	26.0	969.4	89.0	43.0	-15.0	-1000.0	1636888208.472223	
3.0	1.0	0.0	0.0	0.0	0.0	71.0	73.0	175.0	140.0	26.0	969.5	89.0	38.0	-8.0	-992.0	1636888208.574001	
2.0	0.0	0.0	0.0	0.0	0.0	71.0	73.0	173.0	140.0	26.0	969.52	90.0	46.0	-14.0	-996.0	1636888208.6763	
2.0	1.0	0.0	0.0	0.0	0.0	71.0	73.0	173.0	140.0	26.0	969.49	90.0	54.0	-23.0	-993.0	1636888208.775061	
2.0	1.0	0.0	0.0	0.0	0.0	71.0	72.0	174.0	140.0	26.0	969.45	90.0	45.0	-5.0	-993.0	1636888208.878067	
2.0	0.0	0.0	0.0	0.0	0.0	71.0	72.0	175.0	140.0	26.0	969.45	90.0	49.0	-1.0	-1008.0	1636888208.981292	
2.0	0.0	0.0	0.0	0.0	0.0	71.0	72.0	176.0	140.0	26.0	969.56	90.0	51.0	1.0	-996.0	1636888209.08111	
3.0	0.0	0.0	0.0	0.0	0.0	71.0	72.0	174.0	140.0	26.0	969.56	90.0	55.0	-1.0	-1000.0	1636888209.18621	
3.0	0.0	0.0	0.0	0.0	0.0	71.0	72.0	175.0	140.0	26.0	969.47	90.0	54.0	-2.0	-1002.0	1636888209.286077	
3.0	0.0	0.0	0.0	0.0	0.0	71.0	72.0	175.0	140.0	26.0	969.51	90.0	54.0	-5.0	-993.0	1636888209.38896	
3.0	0.0	0.0	0.0	0.0	0.0	71.0	72.0	175.0	140.0	26.0	969.54	90.0	67.0	-7.0	-993.0	1636888209.490578	
3.0	0.0	0.0	0.0	0.0	0.0	71.0	72.0	176.0	140.0	26.0	969.51	90.0	50.0	-3.0	-987.0	1636888209.594441	
3.0	0.0	0.0	0.0	0.0	0.0	71.0	72.0	177.0	140.0	26.0	969.42	91.0	49.0	-3.0	-996.0	1636888209.696214	
3.0	0.0	0.0	0.0	0.0	0.0	71.0	72.0	176.0	140.0	26.0	969.59	91.0	50.0	-1.0	-997.0	1636888209.800012	
3.0	0.0	0.0	0.0	0.0	0.0	71.0	72.0	176.0	140.0	26.0	969.49	91.0	44.0	7.0	-1004.0	1636888209.898931	
3.0	0.0	0.0	0.0	0.0	0.0	71.0	72.0	175.0	140.0	26.0	969.48	91.0	66.0	-11.0	-988.0	1636888210.000645	
3.0	0.0	0.0	0.0	0.0	0.0	71.0	72.0	177.0	140.0	26.0	969.52	91.0	59.0	-5.0	-988.0	1636888210.105905	
3.0	0.0	0.0	0.0	0.0	0.0	71.0	72.0	176.0	140.0	26.0	969.45	91.0	49.0	4.0	-994.0	1636888210.204538	
3.0	0.0	0.0	0.0	0.0	0.0	71.0	72.0	177.0	140.0	26.0	969.56	91.0	55.0	-2.0	-995.0	1636888210.30719	
3.0	0.0	0.0	0.0	0.0	0.0	71.0	72.0	176.0	140.0	26.0	969.45	91.0	65.0	-8.0	-1001.0	1636888210.411778	
3.0	0.0	0.0	0.0	0.0	0.0	71.0	72.0	176.0	140.0	26.0	969.49	91.0	63.0	-9.0	-986.0	1636888210.512022	
3.0	0.0	0.0	0.0	0.0	0.0	71.0	72.0	176.0	140.0	26.0	969.52	91.0	70.0	-19.0	-984.0	1636888210.613506	
3.0	0.0	0.0	0.0	0.0	0.0	71.0	72.0	175.0	140.0	26.0	969.51	92.0	66.0	-17.0	-988.0	1636888210.735143	
3.0	0.0	0.0	0.0	0.0	0.0	71.0	72.0	175.0	140.0	26.0	969.51	92.0	66.0	-17.0	-988.0	1636888210.767093	
3.0	0.0	0.0	0.0	0.0	0.0	71.0	72.0	176.0	140.0	26.0	969.47	92.0	64.0	-11.0	-995.0	1636888210.817861	
3.0	0.0	0.0	0.0	0.0	0.0	70.0	72.0	174.0	140.0	26.0	969.46	92.0	44.0	-1.0	-990.0	1636888210.918975	
3.0	0.0	0.0	0.0	0.0	0.0	70.0	72.0	173.0	140.0	26.0	969.44	92.0	43.0	3.0	-1007.0	1636888211.020241	
3.0	0.0	0.0	0.0	0.0	0.0	70.0	72.0	175.0	140.0	26.0	969.43	92.0	58.0	-6.0	-994.0	1636888211.126332	
3.0	0.0	0.0	0.0	0.0	0.0	70.0	72.0	175.0	140.0	26.0	969.47	92.0	49.0	7.0	-1006.0	1636888211.227218	
3.0	0.0	0.0	0.0	0.0	0.0	70.0	72.0	175.0	140.0	26.0	969.44	92.0	67.0	-11.0	-1000.0	1636888211.329047	
3.0	0.0	0.0	0.0	0.0	0.0	70.0	72.0	173.0	140.0	26.0	969.49	92.0	48.0	7.0	-993.0	1636888211.430237	
3.0	0.0	0.0	0.0	0.0	0.0	70.0	72.0	175.0	140.0	26.0	969.47	92.0	41.0	0.0	-1012.0	1636888211.53358	
3.0	0.0	0.0	0.0	0.0	0.0	70.0	72.0	175.0	140.0	26.0	969.43	92.0	52.0	0.0	-1005.0	1636888211.634433	
3.0	0.0	0.0	0.0	0.0	0.0	70.0	72.0	174.0	140.0	26.0	969.43	93.0	54.0	2.0	-1016.0	1636888211.684333	
3.0	0.0	0.0	0.0	0.0	0.0	70.0	72.0	174.0	140.0	26.0	969.48	93.0	51.0	6.0	-1007.0	1636888211.78718	
3.0	0.0	0.0	0.0	0.0	0.0	70.0	73.0	175.0	140.0	26.0	969.38	93.0	64.0	-7.0	-995.0	1636888211.938348	
3.0	0.0	0.0	0.0	0.0	0.0	70.0	73.0	173.0	140.0	26.0	969.33	93.0	51.0	17.0	-1003.0	1636888212.042583	
3.0	0.0	0.0	0.0	0.0	0.0	70.0	73.0	174.0	140.0	26.0	969.42	93.0	77.0	-9.0	-988.0	1636888212.144922	
3.0	0.0	0.0	0.0	0.0	0.0	70.0	73.0	173.0	140.0	26.0	969.45	93.0	60.0	8.0	-993.0	1636888212.192858	
3.0	0.0	0.0	0.0	0.0	0.0	70.0	73.0	174.0	140.0	26.0	969.46	93.0	53.0	5.0	-995.0	1636888212.297673	
3.0	0.0	0.0	0.0	0.0	0.0	70.0	73.0	173.0	140.0	26.0	969.41	93.0	65.0	-2.0	-994.0	1636888212.396794	
3.0	0.0	0.0	0.0	0.0	0.0	70.0	73.0	174.0	140.0	26.0	969.52	93.0	60.0	6.0	-1006.0	1636888212.502257	
3.0	0.0	0.0	0.0	0.0	0.0	70.0	73.0	175.0	140.0	26.0	969.42	93.0	66.0	1.0	-988.0	1636888212.602351	
3.0	0.0	0.0	0.0	0.0	0.0	70.0	73.0	177.0	140.0	26.0	969.46	94.0	65.0	2.0	-988.0	1636888212.704416	
3.0	0.0	0.0	0.0	0.0	0.0	70.0	73.0	175.0	140.0	26.0	969.4	94.0	61.0	6.0	-999.0	1636888212.805148	
3.0	0.0	0.0	0.0	0.0	0.0	70.0	73.0	176.0	140.0	26.0	969.39	94.0	47.0	16.0	-1016.0	1636888212.910171	
3.0	0.0	0.0	0.0	0.0	0.0	70.0	73.0	179.0	140.0	26.0	969.51	94.0	70.0	3.0	-983.0	1636888213.009767	
4.0	0.0	0.0	0.0	0.0	0.0	70.0	73.0	176.0	140.0	26.0	969.47	94.0	65.0	-4.0	-994.0	1636888213.114993	
4.0	0.0	0.0	0.0	0.0	0.0	70.0	73.0	177.0	140.0	26.0	969.42	94.0	63.0	5.0	-997.0	1636888213.213441	
3.0	0.0	0.0	0.0	0.0	0.0	70.0	73.0	176.0	140.0	26.0	969.41	94.0	69.0	-1.0	-996.0	1636888213.314777	
3.0	0.0	0.0	0.0	0.0	0.0	70.0	73.0	177.0	140.0	26.0	969.46	94.0	76.0	-15.0	-989.0	1636888213.418235	
3.0	0.0	0.0	0.0	0.0	0.0	70.0	73.0	175.0	140.0	26.0	969.33	94.0	47.0	12.0	-1002.0	1636888213.520243	
4.0	0.0	0.0	0.0	0.0	0.0	70.0	73.0	176.0	140.0	26.0	969.46	94.0	47.0	-6.0	-1004.0	1636888213.6206	
4.0	0.0	0.0	0.0	0.0	0.0	70.0	73.0	176.0	140.0	26.0	969.41	95.0	61.0	-17.0	-1005.0	1636888213.723994	
4.0	0.0	0.0	0.0	0.0	0.0	70.0	73.0	178.0	140.0	26.0	969.31	95.0	58.0	-18.0	-994.0	1636888213.824926	
3.0	0.0	0.0	0.0	0.0	0.0	70.0	72.0	176.0	140.0	26.0	969.33	95.0	69.0	-35.0	-988.0	1636888213.930229	
3.0	0.0	0.0	0.0	0.0	0.0	70.0	72.0	176.0	140.0	26.0	969.39	95.0	54.0	-11.0	-990.0	1636888214.029277	
3.0	0.0	0.0	0.0	0.0	0.0	70.0	72.0	173.0	140.0	26.0	969.43	95.0	51.0	-5.0	-995.0	1636888214.134858	
3.0	1.0	0.0	0.0	0.0	0.0	70.0	72.0	175.0	140.0	26.0	969.44	95.0	62.0	-1.0	-1000.0	1636888214.234574	
3.0	0.0	0.0	0.0	0.0	0.0	70.0	72.0	176.0	140.0	26.0	969.37	95.0	63.0	6.0	-1003.0	1636888214.338362	
3.0	0.0	0.0	0.0	0.0	0.0	70.0	72.0	176.0	140.0	26.0	969.46	95.0	56.0	7.0	-996.0	1636888214.440553	
3.0	0.0	0.0	0.0	0.0	0.0	70.0	72.0	173.0	140.0	26.0	969.43	95.0	54.0	2.0	-984.0	1636888214.541977	
3.0	0.0	0.0	0.0	0.0	0.0	70.0	72.0	172.0	140.0	25.0	969.4	95.0	53.0	-2.0	-991.0	1636888214.643411	
3.0	0.0	0.0	0.0	0.0	0.0	70.0	72.0	173.0	140.0	25.0	969.41	96.0	53.0	2.0	-989.0	1636888214.746451	
3.0	0.0	0.0	0.0	0.0	0.0	70.0	72.0	173.0	140.0	25.0	969.49	96.0	35.0	-4.0	-1007.0	1636888214.849306	
2.0	0.0	0.0	0.0	0.0	0.0	70.0	71.0	171.0	140.0	25.0	969.42	96.0	49.0	-3.0	-1008.0	1636888214.95132	
2.0	0.0	0.0	0.0	0.0	0.0	70.0	71.0	173.0	140.0	25.0	969.37	96.0	62.0	-19.0	-1008.0	1636888215.052457	
2.0	0.0	0.0	0.0	0.0	0.0	70.0	71.0	172.0	140.0	25.0	969.41	96.0	56.0	-4.0	-1003.0	1636888215.152307	
2.0	0.0	0.0	0.0	0.0	0.0	70.0	71.0	172.0	140.0	25.0	969.44	96.0	45.0	-1.0	-993.0	1636888215.256434	
3.0	0.0	0.0	0.0	0.0	0.0	70.0	71.0	171.0	140.0	25.0	969.41	96.0	48.0	-5.0	-1012.0	1636888215.359395	
3.0	0.0	0.0	0.0	0.0	0.0	70.0	71.0	173.0	140.0	25.0	969.35	96.0	38.0	3.0	-999.0	1636888215.461206	
3.0	0.0	0.0	0.0	0.0	0.0	70.0	71.0	173.0	140.0	25.0	969.38	96.0	47.0	-5.0	-989.0	1636888215.560535	
3.0	0.0	0.0	0.0	0.0	0.0	70.0	71.0	172.0	140.0	25.0	969.4	96.0	60.0	-14.0	-991.0	1636888215.662049	
3.0	0.0	0.0	0.0	0.0	0.0	70.0	71.0	172.0	140.0	25.0	969.44	97.0	44.0	-4.0	-999.0	1636888215.713195	
3.0	0.0	0.0	0.0	0.0	0.0	70.0	71.0	170.0	140.0	25.0	969.44	97.0	46.0	-3.0	-1003.0	1636888215.816877	
3.0	0.0	0.0	0.0	0.0	0.0	69.0	71.0	171.0	140.0	25.0	969.44	97.0	49.0	-2.0	-992.0	1636888215.970747	
3.0	0.0	0.0	0.0	0.0	0.0	69.0	71.0	172.0	140.0	25.0	969.38	97.0	53.0	-7.0	-1000.0	1636888216.073058	
3.0	0.0	0.0	0.0	0.0	0.0	69.0	71.0	172.0	140.0	25.0	969.4	97.0	47.0	-3.0	-1007.0	1636888216.124588	
3.0	0.0	0.0	0.0	0.0	0.0	69.0	71.0	171.0	140.0	25.0	969.44	97.0	58.0	-12.0	-1004.0	1636888216.225693	
3.0	0.0	0.0	0.0	0.0	0.0	69.0	71.0	172.0	140.0	25.0	969.45	97.0	65.0	-8.0	-983.0	1636888216.32956	
3.0	0.0	0.0	0.0	0.0	0.0	69.0	71.0	172.0	140.0	25.0	969.4	97.0	45.0	0.0	-1000.0	1636888216.428482	
3.0	0.0	0.0	0.0	0.0	0.0	69.0	71.0	174.0	140.0	25.0	969.38	97.0	39.0	0.0	-1002.0	1636888216.530168	
3.0	0.0	0.0	0.0	0.0	0.0	69.0	71.0	173.0	140.0	25.0	969.39	97.0	58.0	-8.0	-1000.0	1636888216.633456	
3.0	0.0	0.0	0.0	0.0	0.0	69.0	71.0	175.0	140.0	25.0	969.35	98.0	47.0	1.0	-996.0	1636888216.735513	
3.0	0.0	0.0	0.0	0.0	0.0	69.0	71.0	173.0	140.0	25.0	969.45	98.0	47.0	-5.0	-996.0	1636888216.838527	
3.0	0.0	0.0	0.0	0.0	0.0	68.0	71.0	176.0	140.0	25.0	969.43	98.0	57.0	-6.0	-1000.0	1636888216.93815	
3.0	0.0	0.0	0.0	0.0	0.0	68.0	71.0	172.0	140.0	25.0	969.48	98.0	64.0	-14.0	-994.0	1636888217.039056	
3.0	0.0	0.0	0.0	0.0	0.0	68.0	71.0	176.0	140.0	25.0	969.42	98.0	68.0	-17.0	-990.0	1636888217.144871	
3.0	0.0	0.0	0.0	0.0	0.0	68.0	71.0	176.0	140.0	25.0	969.49	98.0	58.0	-19.0	-977.0	1636888217.244665	
3.0	0.0	0.0	0.0	0.0	0.0	68.0	71.0	178.0	140.0	25.0	969.35	98.0	57.0	-14.0	-995.0	1636888217.344806	
4.0	0.0	0.0	0.0	0.0	0.0	68.0	71.0	177.0	140.0	25.0	969.47	98.0	57.0	-16.0	-988.0	1636888217.448925	
3.0	0.0	0.0	0.0	0.0	0.0	68.0	71.0	178.0	140.0	25.0	969.55	98.0	61.0	-17.0	-989.0	1636888217.548935	
4.0	0.0	0.0	0.0	0.0	0.0	68.0	71.0	174.0	140.0	24.0	969.39	98.0	50.0	0.0	-993.0	1636888217.652103	
4.0	0.0	0.0	0.0	0.0	0.0	68.0	71.0	177.0	140.0	24.0	969.45	99.0	60.0	-19.0	-992.0	1636888217.757983	
4.0	0.0	0.0	0.0	0.0	0.0	68.0	71.0	177.0	140.0	24.0	969.45	99.0	60.0	-19.0	-992.0	1636888217.757983	
4.0	0.0	0.0	0.0	0.0	0.0	68.0	71.0	177.0	140.0	24.0	969.42	99.0	76.0	-19.0	-980.0	1636888217.856597	
4.0	0.0	0.0	0.0	0.0	0.0	69.0	71.0	177.0	140.0	24.0	969.46	99.0	65.0	-11.0	-1002.0	1636888217.959043	
4.0	0.0	0.0	0.0	0.0	0.0	69.0	71.0	178.0	140.0	24.0	969.37	99.0	69.0	-13.0	-992.0	1636888218.063706	
3.0	0.0	0.0	0.0	0.0	0.0	69.0	71.0	176.0	140.0	24.0	969.42	99.0	63.0	-5.0	-997.0	1636888218.165337	
3.0	0.0	0.0	0.0	0.0	0.0	69.0	71.0	178.0	140.0	24.0	969.37	99.0	61.0	-12.0	-994.0	1636888218.266944	
3.0	0.0	0.0	0.0	0.0	0.0	69.0	71.0	173.0	140.0	24.0	969.37	99.0	61.0	-16.0	-994.0	1636888218.367265	
3.0	0.0	0.0	0.0	0.0	0.0	69.0	71.0	175.0	140.0	24.0	969.42	99.0	69.0	-17.0	-990.0	1636888218.467395	
3.0	0.0	0.0	0.0	0.0	0.0	69.0	71.0	176.0	140.0	24.0	969.33	99.0	67.0	-12.0	-1003.0	1636888218.572966	
4.0	0.0	0.0	0.0	0.0	0.0	69.0	71.0	174.0	140.0	24.0	969.34	100.0	49.0	-1.0	-1020.0	1636888218.672681	
3.0	0.0	0.0	0.0	0.0	0.0	69.0	71.0	177.0	140.0	24.0	969.32	100.0	60.0	-10.0	-982.0	1636888218.773314	
3.0	0.0	0.0	0.0	0.0	0.0	69.0	71.0	176.0	140.0	24.0	969.42	100.0	65.0	-12.0	-999.0	1636888218.876735	
3.0	0.0	0.0	0.0	0.0	0.0	69.0	71.0	175.0	140.0	24.0	969.4	100.0	57.0	-12.0	-984.0	1636888218.980594	
3.0	0.0	0.0	0.0	0.0	0.0	69.0	71.0	174.0	140.0	24.0	969.35	100.0	64.0	-26.0	-1000.0	1636888219.082336	
3.0	0.0	0.0	0.0	0.0	0.0	69.0	71.0	174.0	140.0	24.0	969.39	100.0	54.0	-16.0	-1002.0	1636888219.181503	
3.0	0.0	0.0	0.0	0.0	0.0	69.0	71.0	174.0	140.0	24.0	969.37	100.0	44.0	-2.0	-1001.0	1636888219.284689	
3.0	0.0	0.0	0.0	0.0	0.0	69.0	71.0	172.0	140.0	24.0	969.38	100.0	60.0	-21.0	-1004.0	1636888219.385542	
3.0	0.0	0.0	0.0	0.0	0.0	69.0	71.0	172.0	140.0	24.0	969.39	100.0	52.0	-8.0	-996.0	1636888219.5846	
3.0	0.0	0.0	0.0	0.0	0.0	69.0	71.0	172.0	140.0	24.0	969.39	100.0	54.0	-18.0	-998.0	1636888219.592595	
3.0	0.0	0.0	0.0	0.0	0.0	69.0	71.0	175.0	140.0	24.0	969.44	101.0	73.0	-23.0	-987.0	1636888219.695195	
3.0	0.0	0.0	0.0	0.0	0.0	69.0	71.0	174.0	140.0	24.0	969.38	101.0	48.0	-2.0	-1006.0	1636888219.745912	
3.0	0.0	0.0	0.0	0.0	0.0	69.0	71.0	174.0	140.0	24.0	969.39	101.0	65.0	-20.0	-987.0	1636888219.846705	
3.0	0.0	0.0	0.0	0.0	0.0	68.0	71.0	174.0	140.0	24.0	969.33	101.0	64.0	-25.0	-991.0	1636888219.997604	
3.0	0.0	0.0	0.0	0.0	0.0	68.0	71.0	173.0	140.0	24.0	969.39	101.0	61.0	-26.0	-993.0	1636888220.09965	
3.0	0.0	0.0	0.0	0.0	0.0	68.0	71.0	174.0	140.0	24.0	969.39	101.0	56.0	-15.0	-984.0	1636888220.205155	
3.0	0.0	0.0	0.0	0.0	0.0	68.0	71.0	171.0	140.0	24.0	969.37	101.0	57.0	-12.0	-997.0	1636888220.306876	
3.0	1.0	0.0	0.0	0.0	0.0	68.0	71.0	173.0	140.0	24.0	969.35	101.0	60.0	-11.0	-1004.0	1636888220.355374	
3.0	0.0	0.0	0.0	0.0	0.0	68.0	71.0	172.0	140.0	24.0	969.34	101.0	62.0	-22.0	-993.0	1636888220.458162	
3.0	0.0	0.0	0.0	0.0	0.0	68.0	71.0	172.0	140.0	24.0	969.46	101.0	59.0	-17.0	-1007.0	1636888220.558371	
3.0	0.0	0.0	0.0	0.0	0.0	68.0	71.0	174.0	140.0	23.0	969.39	102.0	50.0	-9.0	-1004.0	1636888220.663373	
3.0	1.0	0.0	0.0	0.0	0.0	68.0	71.0	175.0	140.0	23.0	969.41	102.0	55.0	-17.0	-1002.0	1636888220.765043	
3.0	1.0	0.0	0.0	0.0	0.0	68.0	71.0	174.0	140.0	23.0	969.36	102.0	60.0	-13.0	-994.0	1636888220.868016	
3.0	1.0	0.0	0.0	0.0	0.0	68.0	70.0	172.0	140.0	23.0	969.31	102.0	60.0	-18.0	-1001.0	1636888220.969494	
3.0	1.0	0.0	0.0	0.0	0.0	68.0	70.0	173.0	140.0	23.0	969.31	102.0	62.0	-24.0	-1007.0	1636888221.069138	
3.0	1.0	0.0	0.0	0.0	0.0	68.0	70.0	172.0	140.0	23.0	969.36	102.0	57.0	-2.0	-1013.0	1636888221.17333	
3.0	1.0	0.0	0.0	0.0	0.0	68.0	70.0	172.0	140.0	23.0	969.46	102.0	65.0	-14.0	-1004.0	1636888221.275786	
3.0	0.0	0.0	0.0	0.0	0.0	68.0	70.0	173.0	140.0	23.0	969.41	102.0	80.0	-25.0	-989.0	1636888221.378597	
4.0	0.0	0.0	0.0	0.0	0.0	68.0	70.0	172.0	140.0	23.0	969.45	102.0	75.0	-26.0	-1007.0	1636888221.478465	
4.0	1.0	0.0	0.0	0.0	0.0	68.0	70.0	174.0	140.0	23.0	969.43	102.0	66.0	-20.0	-1009.0	1636888221.578552	
4.0	1.0	0.0	0.0	0.0	0.0	68.0	70.0	174.0	140.0	23.0	969.46	103.0	62.0	-22.0	-998.0	1636888221.682436	
4.0	1.0	0.0	0.0	0.0	0.0	68.0	70.0	175.0	140.0	23.0	969.37	103.0	72.0	-30.0	-982.0	1636888221.783996	
4.0	0.0	0.0	0.0	0.0	0.0	68.0	70.0	175.0	140.0	23.0	969.34	103.0	59.0	-22.0	-996.0	1636888221.88668	
4.0	1.0	0.0	0.0	0.0	0.0	68.0	70.0	176.0	140.0	23.0	969.43	103.0	65.0	-23.0	-988.0	1636888221.986943	
4.0	1.0	0.0	0.0	0.0	0.0	68.0	70.0	174.0	140.0	23.0	969.4	103.0	66.0	-25.0	-1002.0	1636888222.089385	
4.0	1.0	0.0	0.0	0.0	0.0	68.0	70.0	177.0	140.0	23.0	969.28	103.0	59.0	-25.0	-1006.0	1636888222.192073	
3.0	1.0	0.0	0.0	0.0	0.0	68.0	70.0	173.0	140.0	23.0	969.29	103.0	67.0	-33.0	-979.0	1636888222.293628	
4.0	1.0	0.0	0.0	0.0	0.0	68.0	70.0	174.0	140.0	23.0	969.38	103.0	60.0	-28.0	-990.0	1636888222.397957	
3.0	1.0	0.0	0.0	0.0	0.0	68.0	70.0	173.0	140.0	23.0	969.38	103.0	69.0	-43.0	-995.0	1636888222.497564	
3.0	2.0	0.0	0.0	0.0	0.0	68.0	70.0	175.0	140.0	23.0	969.3	103.0	43.0	-20.0	-1003.0	1636888222.602077	
3.0	2.0	0.0	0.0	0.0	0.0	68.0	70.0	173.0	140.0	23.0	969.39	104.0	56.0	-24.0	-989.0	1636888222.701341	
3.0	2.0	0.0	0.0	0.0	0.0	68.0	70.0	174.0	140.0	23.0	969.4	104.0	77.0	-14.0	-988.0	1636888222.807389	
3.0	1.0	0.0	0.0	0.0	0.0	68.0	70.0	171.0	140.0	23.0	969.45	104.0	49.0	12.0	-993.0	1636888222.904794	
3.0	0.0	0.0	0.0	0.0	0.0	68.0	70.0	171.0	140.0	23.0	969.37	104.0	73.0	0.0	-1010.0	1636888223.010026	
3.0	0.0	0.0	0.0	0.0	0.0	68.0	70.0	172.0	140.0	23.0	969.51	104.0	71.0	2.0	-998.0	1636888223.110849	
4.0	0.0	0.0	0.0	0.0	0.0	68.0	70.0	172.0	140.0	23.0	969.45	104.0	80.0	-11.0	-998.0	1636888223.213918	
3.0	0.0	0.0	0.0	0.0	0.0	68.0	70.0	173.0	140.0	23.0	969.41	104.0	58.0	9.0	-1006.0	1636888223.31553	
4.0	0.0	0.0	0.0	0.0	0.0	68.0	70.0	174.0	140.0	23.0	969.34	104.0	72.0	-3.0	-993.0	1636888223.417848	
4.0	0.0	0.0	0.0	0.0	0.0	68.0	70.0	171.0	140.0	23.0	969.44	104.0	57.0	2.0	-997.0	1636888223.519443	
