timestamp,pitch,roll,yaw,vgx,vgy,vgz,templ,h,bat,baro,agx,agy,agz,wind speed
1634974374.472922,0.0,1.0,0.0,0.0,0.0,0.0,48.0,0.0,50.0,951.31,-4.0,-30.0,-1001.0,-1.0
1634974374.586605,0.0,1.0,0.0,0.0,0.0,0.0,48.0,0.0,50.0,951.3,0.0,-31.0,-994.0,-1.0
1634974374.688741,0.0,1.0,0.0,0.0,0.0,0.0,48.0,0.0,50.0,951.3,-5.0,-30.0,-996.0,-1.0
1634974374.787752,0.0,1.0,0.0,0.0,0.0,0.0,48.0,0.0,50.0,951.3,6.0,-18.0,-996.0,-1.0
1634974374.886702,-1.0,2.0,0.0,0.0,0.0,0.0,48.0,0.0,50.0,951.3,-5.0,-27.0,-1000.0,-1.0
1634974374.98231,-1.0,2.0,0.0,0.0,0.0,0.0,48.0,0.0,50.0,951.3,-9.0,-24.0,-997.0,-1.0
1634974375.091363,-1.0,1.0,0.0,0.0,0.0,0.0,48.0,0.0,50.0,951.3,28.0,-18.0,-1037.0,-1.0
1634974375.189877,-1.0,0.0,0.0,0.0,0.0,-1.0,48.0,0.0,50.0,951.3,2.0,0.0,-1155.0,-1.0
1634974375.289687,1.0,-1.0,0.0,1.0,0.0,-3.0,48.0,0.0,50.0,951.3,33.0,-4.0,-1264.0,-1.0
1634974375.402538,3.0,-1.0,0.0,0.0,0.0,-5.0,48.0,0.0,50.0,951.44,-12.0,23.0,-1140.0,-1.0
1634974375.443406,2.0,-1.0,0.0,0.0,0.0,-6.0,48.0,10.0,50.0,951.58,25.0,16.0,-1057.0,-1.0
1634974375.544078,1.0,-1.0,0.0,0.0,0.0,-7.0,48.0,10.0,50.0,951.76,53.0,1.0,-999.0,-1.0
1634974375.656654,1.0,-1.0,0.0,0.0,0.0,-7.0,48.0,20.0,50.0,951.81,23.0,3.0,-986.0,-1.0
1634974375.749087,1.0,0.0,0.0,0.0,0.0,-6.0,48.0,30.0,50.0,951.91,15.0,13.0,-961.0,-1.0
1634974375.860311,1.0,0.0,0.0,0.0,0.0,-6.0,48.0,40.0,50.0,951.92,20.0,-2.0,-943.0,-1.0
1634974375.956141,1.0,0.0,0.0,0.0,0.0,-5.0,48.0,40.0,50.0,952.04,18.0,6.0,-935.0,-1.0
1634974376.064542,0.0,0.0,0.0,0.0,0.0,-4.0,48.0,50.0,50.0,952.04,8.0,9.0,-911.0,-1.0
1634974376.159159,0.0,0.0,0.0,0.0,0.0,-3.0,48.0,50.0,50.0,952.1,2.0,13.0,-926.0,-1.0
1634974376.261056,0.0,0.0,0.0,0.0,0.0,-3.0,48.0,60.0,50.0,952.16,8.0,7.0,-930.0,-1.0
1634974376.371667,0.0,0.0,0.0,0.0,0.0,-2.0,48.0,60.0,50.0,952.15,10.0,15.0,-941.0,-1.0
1634974376.466561,0.0,0.0,0.0,0.0,0.0,-2.0,48.0,60.0,50.0,952.16,29.0,1.0,-918.0,-1.0
1634974376.562135,0.0,0.0,0.0,0.0,0.0,-1.0,48.0,60.0,50.0,952.16,17.0,2.0,-962.0,-1.0
1634974376.668438,0.0,0.0,0.0,0.0,0.0,-1.0,48.0,70.0,50.0,952.22,4.0,11.0,-972.0,-1.0
1634974376.767268,0.0,0.0,0.0,0.0,0.0,-1.0,48.0,70.0,50.0,952.29,4.0,9.0,-969.0,-1.0
1634974376.878373,0.0,0.0,0.0,0.0,0.0,0.0,48.0,70.0,50.0,952.33,3.0,13.0,-979.0,-1.0
1634974376.981441,0.0,0.0,0.0,0.0,0.0,0.0,48.0,70.0,50.0,952.29,6.0,15.0,-975.0,-1.0
1634974377.082975,0.0,0.0,0.0,0.0,0.0,0.0,47.0,70.0,50.0,952.26,9.0,13.0,-980.0,-1.0
1634974377.181617,0.0,0.0,0.0,0.0,0.0,0.0,47.0,70.0,50.0,952.28,11.0,11.0,-990.0,-1.0
1634974377.28028,0.0,0.0,0.0,0.0,0.0,0.0,47.0,70.0,50.0,952.28,-6.0,16.0,-1002.0,-1.0
1634974377.390996,0.0,0.0,0.0,0.0,0.0,0.0,47.0,80.0,50.0,952.29,15.0,8.0,-975.0,-1.0
1634974377.484728,0.0,0.0,0.0,0.0,0.0,0.0,47.0,80.0,50.0,952.3,19.0,12.0,-995.0,-1.0
1634974377.582859,0.0,0.0,0.0,0.0,0.0,0.0,47.0,80.0,50.0,952.27,30.0,6.0,-986.0,-1.0
1634974377.695989,0.0,0.0,0.0,0.0,0.0,0.0,47.0,80.0,50.0,952.32,8.0,9.0,-982.0,-1.0
1634974377.789715,0.0,0.0,0.0,0.0,0.0,0.0,47.0,80.0,50.0,952.26,26.0,4.0,-982.0,-1.0
1634974377.898085,0.0,0.0,0.0,0.0,0.0,0.0,47.0,80.0,50.0,952.27,25.0,1.0,-987.0,-1.0
1634974377.994719,0.0,0.0,0.0,0.0,0.0,0.0,47.0,80.0,50.0,952.37,22.0,6.0,-990.0,-1.0
1634974378.041585,1.0,0.0,0.0,0.0,0.0,0.0,49.0,80.0,50.0,952.37,30.0,5.0,-995.0,-1.0
1634974378.149711,1.0,0.0,0.0,0.0,0.0,0.0,49.0,80.0,50.0,952.34,30.0,0.0,-1000.0,-1.0
1634974378.245082,1.0,0.0,0.0,0.0,0.0,0.0,49.0,80.0,50.0,952.35,20.0,13.0,-1005.0,-1.0
1634974378.355954,1.0,0.0,0.0,0.0,0.0,0.0,49.0,80.0,50.0,952.35,23.0,12.0,-1003.0,-1.0
1634974378.456146,1.0,0.0,0.0,0.0,0.0,0.0,49.0,80.0,50.0,952.29,24.0,8.0,-996.0,-1.0
1634974378.564578,1.0,0.0,0.0,0.0,0.0,0.0,49.0,80.0,50.0,952.31,13.0,16.0,-1011.0,-1.0
1634974378.656566,1.0,0.0,0.0,0.0,0.0,0.0,49.0,80.0,50.0,952.33,38.0,7.0,-984.0,-1.0
1634974378.766564,1.0,0.0,0.0,0.0,0.0,0.0,49.0,80.0,50.0,952.34,26.0,10.0,-1001.0,-1.0
1634974378.862225,1.0,0.0,0.0,0.0,0.0,0.0,49.0,80.0,50.0,952.3,29.0,8.0,-989.0,-1.0
1634974378.960345,1.0,0.0,0.0,0.0,0.0,0.0,49.0,80.0,50.0,952.33,19.0,12.0,-1005.0,-1.0
1634974379.064566,1.0,0.0,0.0,0.0,0.0,0.0,48.0,80.0,50.0,952.34,31.0,8.0,-990.0,-1.0
1634974379.176136,1.0,0.0,0.0,0.0,0.0,0.0,48.0,80.0,50.0,952.38,28.0,12.0,-995.0,-1.0
1634974379.264213,1.0,0.0,0.0,0.0,0.0,0.0,48.0,80.0,49.0,952.37,26.0,16.0,-996.0,-1.0
1634974379.369858,1.0,0.0,0.0,0.0,0.0,0.0,48.0,80.0,49.0,952.35,29.0,3.0,-989.0,-1.0
1634974379.467079,1.0,0.0,0.0,0.0,0.0,0.0,48.0,80.0,49.0,952.32,23.0,14.0,-996.0,-1.0
1634974379.580517,1.0,0.0,0.0,0.0,0.0,0.0,48.0,80.0,49.0,952.35,22.0,17.0,-991.0,-1.0
1634974379.68398,1.0,0.0,0.0,0.0,0.0,0.0,48.0,80.0,49.0,952.39,8.0,20.0,-1008.0,-1.0
1634974379.77972,1.0,0.0,0.0,0.0,0.0,0.0,48.0,80.0,49.0,952.36,25.0,13.0,-994.0,-1.0
1634974379.876836,1.0,0.0,0.0,0.0,0.0,0.0,48.0,80.0,49.0,952.36,41.0,7.0,-1000.0,-1.0
1634974379.985209,1.0,0.0,0.0,0.0,0.0,0.0,48.0,80.0,49.0,952.34,19.0,17.0,-992.0,-1.0
1634974380.087073,1.0,0.0,0.0,0.0,0.0,0.0,48.0,80.0,49.0,952.3,14.0,17.0,-1003.0,-1.0
1634974380.19013,1.0,0.0,0.0,0.0,0.0,0.0,48.0,80.0,49.0,952.36,22.0,15.0,-985.0,-1.0
1634974380.286436,1.0,0.0,0.0,0.0,0.0,0.0,48.0,80.0,49.0,952.36,38.0,3.0,-1008.0,-1.0
1634974380.399963,1.0,0.0,0.0,0.0,0.0,0.0,48.0,80.0,49.0,952.34,19.0,16.0,-995.0,-1.0
1634974380.49539,0.0,0.0,0.0,0.0,0.0,0.0,48.0,80.0,49.0,952.35,5.0,23.0,-1012.0,-1.0
1634974380.603525,0.0,0.0,0.0,0.0,0.0,0.0,48.0,80.0,49.0,952.36,12.0,10.0,-1000.0,-1.0
1634974380.649398,0.0,0.0,0.0,0.0,0.0,0.0,48.0,80.0,49.0,952.32,11.0,14.0,-994.0,-1.0
1634974380.744668,0.0,0.0,0.0,0.0,0.0,0.0,48.0,80.0,49.0,952.34,23.0,11.0,-984.0,-1.0
1634974380.850306,0.0,0.0,0.0,0.0,0.0,0.0,48.0,80.0,49.0,952.31,17.0,3.0,-987.0,-1.0
1634974380.953842,0.0,0.0,0.0,0.0,0.0,0.0,48.0,80.0,49.0,952.3,17.0,8.0,-994.0,-1.0
1634974381.107159,0.0,0.0,0.0,0.0,0.0,0.0,49.0,80.0,49.0,952.32,24.0,9.0,-993.0,-1.0
1634974381.21051,0.0,0.0,0.0,0.0,0.0,0.0,49.0,80.0,49.0,952.38,26.0,9.0,-994.0,-1.0
1634974381.265294,0.0,0.0,0.0,0.0,0.0,0.0,49.0,80.0,48.0,952.3,31.0,2.0,-986.0,-1.0
1634974381.358545,0.0,0.0,0.0,0.0,0.0,0.0,49.0,80.0,48.0,952.29,19.0,2.0,-996.0,-1.0
1634974381.464821,1.0,0.0,0.0,0.0,0.0,0.0,49.0,80.0,48.0,952.39,21.0,9.0,-992.0,-1.0
1634974381.559017,0.0,0.0,0.0,0.0,0.0,0.0,49.0,80.0,48.0,952.37,13.0,10.0,-1004.0,-1.0
1634974381.662889,0.0,0.0,0.0,0.0,0.0,0.0,49.0,80.0,48.0,952.25,21.0,3.0,-996.0,-1.0
1634974381.772048,0.0,0.0,0.0,0.0,0.0,0.0,49.0,80.0,48.0,952.28,-1.0,9.0,-1006.0,-1.0
1634974381.867989,0.0,0.0,0.0,0.0,0.0,0.0,49.0,80.0,48.0,952.33,19.0,11.0,-992.0,-1.0
1634974382.034561,0.0,0.0,0.0,0.0,0.0,0.0,49.0,80.0,48.0,952.38,19.0,8.0,-998.0,-1.0
1634974382.164877,1.0,0.0,0.0,0.0,0.0,0.0,49.0,80.0,48.0,952.36,12.0,2.0,-991.0,-1.0
1634974382.1805,1.0,0.0,0.0,0.0,0.0,0.0,49.0,80.0,48.0,952.34,38.0,-5.0,-1000.0,-1.0
1634974382.393839,0.0,0.0,0.0,0.0,0.0,0.0,49.0,80.0,48.0,952.44,9.0,-1.0,-1010.0,-1.0
1634974382.393839,0.0,0.0,0.0,0.0,0.0,0.0,49.0,80.0,48.0,952.33,27.0,6.0,-1006.0,-1.0
1634974382.508661,0.0,0.0,0.0,0.0,0.0,0.0,49.0,80.0,48.0,952.33,22.0,-4.0,-993.0,-1.0
1634974382.675233,0.0,0.0,0.0,0.0,0.0,0.0,49.0,80.0,48.0,952.37,12.0,-1.0,-1018.0,-1.0
1634974382.69451,0.0,0.0,0.0,0.0,0.0,0.0,49.0,80.0,48.0,952.36,3.0,3.0,-995.0,-1.0
1634974382.783907,0.0,0.0,0.0,0.0,0.0,0.0,49.0,80.0,48.0,952.37,22.0,2.0,-1003.0,-1.0
1634974382.920086,0.0,0.0,0.0,0.0,0.0,0.0,49.0,80.0,48.0,952.37,22.0,1.0,-985.0,-1.0
1634974383.031914,0.0,0.0,0.0,0.0,0.0,0.0,49.0,80.0,48.0,952.36,21.0,4.0,-1001.0,-1.0
1634974383.097704,1.0,0.0,0.0,0.0,0.0,0.0,50.0,80.0,48.0,952.36,10.0,4.0,-1005.0,-1.0
1634974383.222064,1.0,0.0,0.0,0.0,0.0,0.0,50.0,80.0,48.0,952.33,22.0,12.0,-999.0,-1.0
1634974383.230564,1.0,0.0,0.0,0.0,0.0,0.0,50.0,80.0,48.0,952.33,22.0,12.0,-999.0,-1.0
1634974383.306312,1.0,0.0,0.0,0.0,0.0,0.0,50.0,80.0,47.0,952.41,26.0,0.0,-976.0,-1.0
1634974383.40856,1.0,0.0,0.0,0.0,0.0,0.0,50.0,80.0,47.0,952.4,30.0,0.0,-979.0,-1.0
1634974383.570795,1.0,0.0,0.0,0.0,0.0,0.0,50.0,80.0,47.0,952.35,21.0,3.0,-999.0,-1.0
1634974383.725972,1.0,0.0,0.0,0.0,0.0,0.0,50.0,80.0,47.0,952.33,26.0,-2.0,-1001.0,-1.0
1634974383.725972,1.0,0.0,0.0,0.0,0.0,0.0,50.0,80.0,47.0,952.35,25.0,5.0,-1000.0,-1.0
1634974383.815013,1.0,0.0,0.0,0.0,0.0,0.0,50.0,80.0,47.0,952.45,26.0,3.0,-996.0,-1.0
1634974383.915489,1.0,0.0,0.0,0.0,0.0,0.0,50.0,80.0,47.0,952.44,19.0,6.0,-990.0,-1.0
1634974384.012685,1.0,0.0,0.0,0.0,0.0,0.0,50.0,80.0,47.0,952.35,19.0,6.0,-990.0,-1.0
1634974384.115868,1.0,0.0,0.0,0.0,0.0,0.0,50.0,80.0,47.0,952.39,25.0,-4.0,-996.0,-1.0
1634974384.211014,1.0,0.0,0.0,0.0,0.0,0.0,50.0,80.0,47.0,952.35,18.0,0.0,-1000.0,-1.0
1634974384.321327,1.0,0.0,0.0,0.0,0.0,0.0,50.0,80.0,47.0,952.35,11.0,10.0,-1004.0,-1.0
1634974384.423057,1.0,0.0,0.0,0.0,0.0,0.0,50.0,80.0,47.0,952.39,31.0,-4.0,-1001.0,-1.0
1634974384.518598,1.0,0.0,0.0,0.0,0.0,0.0,50.0,80.0,47.0,952.34,-18.0,16.0,-1008.0,-1.0
1634974384.624289,1.0,0.0,0.0,0.0,0.0,0.0,50.0,80.0,47.0,952.28,26.0,-7.0,-985.0,-1.0
1634974384.672941,0.0,0.0,0.0,0.0,0.0,0.0,50.0,80.0,47.0,952.38,12.0,1.0,-988.0,-1.0
1634974384.786535,0.0,0.0,0.0,0.0,0.0,0.0,50.0,80.0,47.0,952.43,15.0,0.0,-992.0,-1.0
1634974384.876069,0.0,0.0,0.0,0.0,0.0,0.0,50.0,80.0,47.0,952.45,-2.0,8.0,-1001.0,-1.0
1634974384.985227,0.0,0.0,0.0,0.0,0.0,0.0,50.0,80.0,47.0,952.36,21.0,10.0,-971.0,-1.0
1634974385.078952,0.0,0.0,0.0,0.0,0.0,0.0,50.0,80.0,47.0,952.33,11.0,-3.0,-991.0,-1.0
1634974385.182319,0.0,0.0,0.0,0.0,0.0,0.0,50.0,80.0,47.0,952.31,20.0,-2.0,-990.0,-1.0
1634974385.29338,0.0,0.0,0.0,0.0,0.0,0.0,50.0,80.0,46.0,952.29,-10.0,4.0,-991.0,-1.0
1634974385.388757,0.0,0.0,0.0,0.0,0.0,0.0,50.0,80.0,46.0,952.36,4.0,-1.0,-1006.0,-1.0
1634974385.489633,0.0,0.0,0.0,0.0,0.0,0.0,50.0,80.0,46.0,952.33,20.0,4.0,-983.0,-1.0
1634974385.598992,0.0,0.0,0.0,0.0,0.0,0.0,50.0,80.0,46.0,952.32,13.0,-5.0,-996.0,-1.0
1634974385.694368,0.0,0.0,0.0,0.0,0.0,0.0,50.0,80.0,46.0,952.29,5.0,4.0,-991.0,-1.0
1634974385.801537,0.0,0.0,0.0,0.0,0.0,0.0,50.0,80.0,46.0,952.33,-3.0,5.0,-996.0,-1.0
1634974385.904524,0.0,0.0,0.0,0.0,0.0,0.0,50.0,80.0,46.0,952.29,-1.0,0.0,-982.0,-1.0
1634974386.009995,0.0,0.0,0.0,0.0,0.0,0.0,50.0,80.0,46.0,952.41,12.0,10.0,-982.0,-1.0
1634974386.112928,0.0,0.0,0.0,0.0,0.0,0.0,50.0,80.0,46.0,952.34,-8.0,4.0,-1000.0,-1.0
1634974386.209787,0.0,0.0,0.0,0.0,0.0,0.0,50.0,80.0,46.0,952.25,-9.0,9.0,-1013.0,-1.0
1634974386.306947,0.0,0.0,0.0,0.0,0.0,0.0,50.0,80.0,46.0,952.3,-21.0,5.0,-999.0,-1.0
1634974386.413441,0.0,0.0,0.0,0.0,0.0,0.0,50.0,80.0,46.0,952.33,-13.0,0.0,-1016.0,-1.0
1634974386.509044,0.0,0.0,0.0,0.0,0.0,0.0,50.0,80.0,46.0,952.33,-11.0,1.0,-1008.0,-1.0
1634974386.618534,0.0,0.0,0.0,0.0,0.0,0.0,50.0,80.0,46.0,952.29,-16.0,18.0,-998.0,-1.0
1634974386.724649,0.0,0.0,0.0,0.0,0.0,0.0,50.0,80.0,46.0,952.38,1.0,-5.0,-987.0,-1.0
1634974386.826828,0.0,0.0,0.0,0.0,0.0,0.0,50.0,80.0,46.0,952.4,-6.0,7.0,-1009.0,-1.0
1634974386.915871,0.0,0.0,0.0,0.0,0.0,0.0,50.0,80.0,46.0,952.49,9.0,-20.0,-1003.0,-1.0
1634974387.019524,0.0,0.0,0.0,0.0,0.0,0.0,50.0,80.0,46.0,952.51,1.0,-18.0,-951.0,-1.0
1634974387.131774,0.0,0.0,0.0,0.0,0.0,0.0,50.0,80.0,46.0,952.45,-3.0,-9.0,-1008.0,-1.0
1634974387.221741,0.0,0.0,0.0,0.0,0.0,0.0,50.0,80.0,46.0,952.35,3.0,5.0,-1047.0,-1.0
1634974387.324841,0.0,0.0,0.0,0.0,0.0,0.0,50.0,80.0,45.0,952.47,-11.0,9.0,-1003.0,-1.0
1634974387.434862,0.0,0.0,0.0,0.0,0.0,0.0,50.0,80.0,45.0,952.39,-16.0,10.0,-992.0,-1.0
1634974387.533234,0.0,0.0,0.0,0.0,0.0,0.0,50.0,80.0,45.0,952.36,-7.0,0.0,-1035.0,-1.0
1634974387.642944,0.0,0.0,0.0,0.0,0.0,0.0,50.0,80.0,45.0,952.32,3.0,-14.0,-996.0,-1.0
1634974387.741278,0.0,0.0,0.0,0.0,0.0,0.0,50.0,80.0,45.0,952.41,6.0,-17.0,-1004.0,-1.0
1634974387.794495,0.0,0.0,0.0,0.0,0.0,0.0,50.0,80.0,45.0,952.39,5.0,-3.0,-1028.0,-1.0
1634974387.897465,0.0,0.0,0.0,0.0,0.0,0.0,50.0,70.0,45.0,952.4,7.0,-14.0,-1043.0,-1.0
1634974387.998851,0.0,0.0,0.0,0.0,0.0,0.0,50.0,70.0,45.0,952.33,9.0,-18.0,-1025.0,-1.0
1634974388.139954,0.0,0.0,0.0,0.0,0.0,0.0,50.0,70.0,45.0,952.35,-9.0,-25.0,-997.0,-1.0
1634974388.252596,0.0,0.0,0.0,0.0,0.0,0.0,50.0,70.0,45.0,952.34,9.0,-20.0,-1008.0,-1.0
1634974388.350378,0.0,0.0,0.0,0.0,0.0,0.0,50.0,70.0,45.0,952.34,-3.0,13.0,-1028.0,-1.0
1634974388.396384,0.0,0.0,0.0,0.0,0.0,0.0,50.0,70.0,45.0,952.39,6.0,0.0,-1048.0,-1.0
1634974388.510029,0.0,0.0,0.0,0.0,0.0,0.0,50.0,70.0,45.0,952.28,9.0,1.0,-1030.0,-1.0
1634974388.603449,1.0,0.0,0.0,0.0,0.0,0.0,50.0,70.0,45.0,952.34,11.0,-6.0,-998.0,-1.0
1634974388.712536,1.0,0.0,0.0,0.0,0.0,0.0,50.0,70.0,45.0,952.35,5.0,8.0,-1042.0,-1.0
1634974388.813495,0.0,0.0,0.0,0.0,0.0,0.0,50.0,70.0,45.0,952.34,17.0,-8.0,-1031.0,-1.0
1634974388.906974,1.0,0.0,0.0,0.0,0.0,0.0,50.0,70.0,45.0,952.23,15.0,-11.0,-1026.0,-1.0
1634974389.007477,1.0,0.0,0.0,0.0,0.0,0.0,50.0,70.0,45.0,952.3,22.0,0.0,-1004.0,-1.0
1634974389.116838,1.0,0.0,0.0,0.0,0.0,0.0,50.0,70.0,45.0,952.24,-1.0,9.0,-1033.0,-1.0
1634974389.214104,1.0,0.0,0.0,0.0,0.0,0.0,50.0,70.0,45.0,952.21,20.0,-21.0,-1091.0,-1.0
1634974389.321402,0.0,0.0,0.0,0.0,0.0,0.0,50.0,60.0,44.0,952.19,31.0,-14.0,-985.0,-1.0
1634974389.420584,1.0,0.0,0.0,0.0,0.0,0.0,50.0,60.0,44.0,952.18,23.0,-7.0,-1035.0,-1.0
1634974389.514312,1.0,0.0,0.0,0.0,0.0,0.0,50.0,60.0,44.0,952.21,11.0,11.0,-1056.0,-1.0
1634974389.616882,0.0,0.0,0.0,0.0,0.0,0.0,50.0,60.0,44.0,952.23,12.0,8.0,-1020.0,-1.0
1634974389.72982,1.0,0.0,0.0,0.0,0.0,0.0,50.0,60.0,44.0,952.06,11.0,5.0,-1034.0,-1.0
1634974389.825277,1.0,0.0,0.0,0.0,0.0,0.0,50.0,60.0,44.0,952.19,26.0,-16.0,-981.0,-1.0
1634974389.922419,1.0,0.0,0.0,0.0,0.0,0.0,50.0,60.0,44.0,952.16,15.0,-10.0,-958.0,-1.0
1634974390.033231,1.0,0.0,0.0,0.0,0.0,1.0,50.0,60.0,44.0,952.07,12.0,11.0,-968.0,-1.0
1634974390.126966,1.0,0.0,0.0,0.0,0.0,1.0,50.0,50.0,44.0,952.1,13.0,-1.0,-942.0,-1.0
1634974390.24704,0.0,0.0,0.0,0.0,0.0,2.0,50.0,50.0,44.0,952.19,14.0,7.0,-939.0,-1.0
1634974390.34542,0.0,0.0,0.0,0.0,0.0,3.0,50.0,50.0,44.0,952.0,20.0,-2.0,-955.0,-1.0
1634974390.435842,0.0,0.0,0.0,0.0,0.0,3.0,50.0,50.0,44.0,951.96,20.0,-4.0,-987.0,-1.0
1634974390.540132,1.0,0.0,0.0,0.0,0.0,3.0,50.0,40.0,44.0,951.93,17.0,0.0,-986.0,-1.0
1634974390.651699,1.0,0.0,0.0,0.0,0.0,4.0,50.0,40.0,44.0,951.67,7.0,5.0,-1005.0,-1.0
1634974390.746679,1.0,0.0,0.0,0.0,0.0,4.0,50.0,30.0,44.0,951.48,24.0,-5.0,-995.0,-1.0
1634974390.847368,1.0,0.0,0.0,0.0,0.0,3.0,50.0,30.0,44.0,951.1,33.0,-9.0,-1028.0,-1.0
1634974390.95674,1.0,0.0,0.0,0.0,0.0,3.0,50.0,30.0,44.0,950.67,1.0,3.0,-1011.0,-1.0
1634974391.057615,0.0,0.0,0.0,0.0,0.0,3.0,50.0,30.0,44.0,949.68,2.0,24.0,-1049.0,-1.0
1634974391.148348,-3.0,2.0,0.0,0.0,0.0,1.0,51.0,20.0,44.0,949.03,97.0,0.0,-1110.0,-1.0
1634974391.259729,0.0,-1.0,0.0,0.0,0.0,0.0,51.0,20.0,44.0,950.19,-12.0,-35.0,-860.0,-1.0
1634974391.357534,-1.0,2.0,-1.0,0.0,0.0,0.0,51.0,30.0,43.0,950.34,-46.0,15.0,-985.0,-1.0
1634974391.46039,1.0,-2.0,-2.0,0.0,0.0,0.0,51.0,30.0,43.0,950.37,67.0,16.0,-605.0,-1.0
1634974391.559126,-2.0,-7.0,0.0,0.0,0.0,0.0,51.0,30.0,43.0,950.38,37.0,-21.0,-772.0,-1.0
1634974391.656832,-9.0,-15.0,-2.0,0.0,0.0,1.0,51.0,30.0,43.0,950.03,-75.0,124.0,-942.0,-1.0
1634974391.768602,-14.0,-21.0,-5.0,1.0,-2.0,1.0,51.0,30.0,43.0,950.84,-95.0,108.0,-936.0,-1.0
1634974391.815649,-3.0,-3.0,-13.0,2.0,-4.0,4.0,51.0,30.0,43.0,950.29,23.0,2.0,-791.0,-1.0
1634974391.926787,-7.0,-27.0,-1.0,0.0,0.0,11.0,51.0,10.0,43.0,951.24,-386.0,283.0,-1305.0,-1.0
1634974392.020424,0.0,-61.0,0.0,0.0,-1.0,21.0,51.0,-10.0,43.0,951.33,26.0,86.0,-155.0,-1.0
1634974392.115973,8.0,-101.0,-14.0,0.0,-2.0,30.0,51.0,-40.0,43.0,951.33,36.0,119.0,-91.0,-1.0
1634974392.229641,-24.0,177.0,-21.0,0.0,-3.0,37.0,51.0,-70.0,43.0,951.1,2492.0,6557.0,6949.0,-1.0
1634974392.335027,-45.0,174.0,-40.0,-3.0,7.0,21.0,51.0,-100.0,43.0,951.07,-345.0,-283.0,-584.0,-1.0
1634974392.433167,-18.0,153.0,-51.0,-1.0,9.0,16.0,51.0,-100.0,43.0,951.08,-210.0,-381.0,-59.0,-1.0
1634974392.532041,0.0,-154.0,-76.0,0.0,11.0,13.0,51.0,-100.0,43.0,951.07,121.0,496.0,31.0,-1.0
1634974392.629299,2.0,-167.0,-83.0,3.0,15.0,4.0,51.0,-100.0,43.0,950.99,-184.0,-334.0,-318.0,-1.0
1634974392.728392,1.0,-165.0,-84.0,6.0,16.0,3.0,51.0,-100.0,43.0,950.98,155.0,-123.0,1157.0,-1.0
1634974392.84092,1.0,-165.0,-84.0,9.0,17.0,3.0,51.0,-100.0,43.0,950.97,-15.0,-3.0,1026.0,-1.0
1634974392.946898,1.0,-166.0,-84.0,11.0,17.0,3.0,51.0,-110.0,43.0,951.02,-10.0,1.0,1022.0,-1.0
1634974393.046071,1.0,-167.0,-84.0,13.0,18.0,2.0,51.0,-110.0,43.0,950.96,-9.0,1.0,1020.0,-1.0
1634974393.139796,1.0,-168.0,-84.0,15.0,18.0,2.0,51.0,-110.0,43.0,951.0,-10.0,2.0,1018.0,-1.0
1634974393.240727,0.0,-169.0,-84.0,17.0,19.0,2.0,51.0,-110.0,43.0,950.98,-7.0,1.0,1019.0,-1.0
1634974393.351872,0.0,-169.0,-84.0,19.0,19.0,2.0,51.0,0.0,42.0,950.99,-9.0,1.0,1018.0,-1.0
1634974393.443589,0.0,-170.0,-84.0,21.0,19.0,2.0,51.0,0.0,42.0,951.01,-8.0,0.0,1019.0,-1.0
1634974393.556582,0.0,-170.0,-84.0,22.0,20.0,2.0,51.0,0.0,42.0,950.99,-8.0,2.0,1014.0,-1.0
1634974393.65375,0.0,-171.0,-84.0,24.0,20.0,2.0,51.0,0.0,42.0,951.03,-7.0,1.0,1021.0,-1.0
1634974393.749476,0.0,-171.0,-84.0,25.0,20.0,0.0,51.0,0.0,42.0,951.0,-8.0,1.0,1015.0,-1.0
1634974393.860163,0.0,-179.0,-84.0,0.0,0.0,0.0,51.0,0.0,42.0,951.0,-6.0,1.0,1017.0,-1.0
1634974394.013079,0.0,-179.0,-83.0,0.0,0.0,0.0,51.0,0.0,42.0,951.03,-7.0,1.0,1016.0,-1.0
1634974394.14997,0.0,-179.0,-83.0,0.0,0.0,0.0,51.0,0.0,42.0,950.99,-9.0,2.0,1019.0,-1.0
1634974394.165782,0.0,-179.0,-82.0,0.0,0.0,0.0,52.0,0.0,42.0,951.06,-7.0,2.0,1017.0,-1.0
1634974394.387759,0.0,-179.0,-82.0,0.0,0.0,0.0,52.0,0.0,42.0,950.98,-4.0,-1.0,1024.0,-1.0
1634974394.394358,0.0,179.0,-81.0,0.0,0.0,0.0,52.0,0.0,42.0,950.99,1.0,30.0,950.0,-1.0
1634974394.480244,0.0,179.0,-80.0,0.0,0.0,0.0,52.0,0.0,42.0,951.0,-99.0,145.0,1028.0,-1.0
1634974394.545416,0.0,179.0,-80.0,0.0,0.0,0.0,52.0,0.0,42.0,951.0,-99.0,145.0,1028.0,-1.0
1634974394.578464,0.0,179.0,-79.0,0.0,0.0,0.0,52.0,0.0,42.0,950.98,-56.0,-3.0,909.0,-1.0
1634974394.681564,1.0,178.0,-81.0,-1.0,0.0,-1.0,52.0,0.0,42.0,950.98,-94.0,-501.0,953.0,-1.0
1634974394.772096,1.0,168.0,-76.0,0.0,1.0,-5.0,52.0,0.0,42.0,951.03,-14.0,-323.0,1637.0,-1.0
1634974394.910759,5.0,141.0,-52.0,1.0,3.0,-13.0,52.0,0.0,42.0,951.19,-167.0,-1076.0,1563.0,-1.0
1634974394.935084,27.0,91.0,-36.0,-4.0,4.0,-22.0,52.0,20.0,42.0,951.33,358.0,-1214.0,469.0,-1.0
1634974395.026636,32.0,44.0,-44.0,-7.0,2.0,-20.0,52.0,50.0,42.0,951.5,173.0,-365.0,-403.0,-1.0
1634974395.229014,27.0,20.0,-52.0,-6.0,2.0,-14.0,52.0,60.0,42.0,951.62,375.0,72.0,-205.0,-1.0
1634974395.230077,15.0,11.0,-57.0,-3.0,0.0,-6.0,52.0,70.0,41.0,951.72,307.0,-25.0,-54.0,-1.0
1634974395.343274,7.0,14.0,-56.0,-3.0,0.0,0.0,52.0,80.0,41.0,951.77,-88.0,-114.0,-346.0,-1.0
1634974395.535915,-1.0,14.0,-46.0,-5.0,1.0,5.0,52.0,70.0,41.0,951.68,20.0,-271.0,-644.0,-1.0
1634974395.535915,-3.0,11.0,-35.0,-5.0,1.0,4.0,52.0,70.0,41.0,951.61,-269.0,-325.0,-1067.0,-1.0
1634974395.694223,-2.0,3.0,-18.0,0.0,0.0,1.0,52.0,60.0,41.0,951.62,-240.0,-347.0,-1219.0,-1.0
1634974395.73979,-1.0,0.0,-2.0,0.0,0.0,4.0,52.0,60.0,41.0,951.56,69.0,-297.0,-954.0,-1.0
1634974395.83868,-1.0,-3.0,18.0,0.0,0.0,5.0,52.0,60.0,41.0,951.51,-75.0,-355.0,-776.0,-1.0
1634974395.944731,10.0,-3.0,33.0,0.0,0.0,3.0,52.0,50.0,41.0,951.45,389.0,245.0,-1180.0,-1.0
1634974396.057663,7.0,-3.0,40.0,0.0,0.0,0.0,52.0,50.0,41.0,951.52,179.0,70.0,-1048.0,-1.0
1634974396.145856,-1.0,0.0,47.0,0.0,0.0,1.0,52.0,50.0,41.0,951.42,24.0,-49.0,-958.0,-1.0
1634974396.258653,-3.0,0.0,48.0,0.0,0.0,0.0,52.0,50.0,41.0,951.48,-20.0,62.0,-712.0,-1.0
1634974396.360855,-3.0,0.0,48.0,0.0,0.0,0.0,52.0,50.0,41.0,951.46,8.0,87.0,-998.0,-1.0
1634974396.457234,-2.0,1.0,49.0,0.0,0.0,0.0,52.0,0.0,41.0,951.42,-24.0,190.0,-941.0,-1.0
1634974396.562598,-4.0,1.0,49.0,0.0,0.0,0.0,52.0,0.0,41.0,951.46,-20.0,192.0,-1064.0,-1.0
1634974396.666655,-3.0,1.0,46.0,0.0,0.0,1.0,52.0,0.0,41.0,951.5,-423.0,160.0,-1151.0,-1.0
1634974396.762105,0.0,1.0,41.0,0.0,0.0,0.0,52.0,0.0,41.0,951.47,-207.0,-164.0,-970.0,-1.0
1634974396.873189,1.0,0.0,40.0,0.0,0.0,1.0,52.0,0.0,41.0,951.47,396.0,-152.0,-1266.0,-1.0
1634974396.967266,0.0,0.0,40.0,0.0,0.0,1.0,52.0,0.0,41.0,951.44,55.0,-69.0,-1100.0,-1.0
1634974397.077066,0.0,1.0,41.0,0.0,0.0,1.0,52.0,0.0,41.0,951.47,-34.0,-22.0,-1051.0,-1.0
1634974397.173663,0.0,1.0,39.0,0.0,0.0,1.0,52.0,0.0,41.0,951.44,-24.0,-79.0,-928.0,-1.0
1634974397.275932,0.0,0.0,37.0,0.0,0.0,1.0,52.0,0.0,40.0,951.44,-79.0,-218.0,-857.0,-1.0
1634974397.371374,6.0,0.0,38.0,0.0,0.0,0.0,52.0,0.0,40.0,951.51,31.0,2.0,-1288.0,-1.0
1634974397.483808,17.0,0.0,45.0,0.0,0.0,1.0,52.0,0.0,40.0,951.53,246.0,123.0,-665.0,-1.0
1634974397.572663,14.0,1.0,56.0,0.0,0.0,2.0,52.0,0.0,40.0,951.42,238.0,-150.0,-861.0,-1.0
1634974397.688777,8.0,1.0,55.0,0.0,0.0,2.0,52.0,0.0,40.0,951.48,227.0,78.0,-1088.0,-1.0
1634974397.784616,3.0,1.0,54.0,0.0,0.0,2.0,52.0,0.0,40.0,951.51,-22.0,-14.0,-1105.0,-1.0
1634974397.892893,2.0,1.0,52.0,0.0,0.0,1.0,52.0,0.0,40.0,951.48,-23.0,-24.0,-1058.0,-1.0
1634974397.990466,1.0,1.0,50.0,0.0,0.0,1.0,52.0,0.0,40.0,951.45,36.0,-38.0,-990.0,-1.0
1634974398.096859,-1.0,0.0,50.0,0.0,0.0,1.0,52.0,0.0,40.0,951.44,-235.0,-5.0,-541.0,-1.0
1634974398.186837,1.0,1.0,50.0,0.0,0.0,1.0,52.0,0.0,40.0,951.49,100.0,-40.0,-772.0,-1.0
1634974398.301155,1.0,1.0,51.0,0.0,0.0,1.0,52.0,0.0,40.0,951.43,76.0,-47.0,-1105.0,-1.0
1634974398.340281,1.0,1.0,51.0,0.0,0.0,1.0,52.0,0.0,40.0,951.43,-33.0,-26.0,-933.0,-1.0
1634974398.446004,1.0,1.0,51.0,0.0,0.0,1.0,52.0,0.0,40.0,951.49,14.0,-9.0,-975.0,-1.0
1634974398.542417,1.0,1.0,51.0,0.0,0.0,1.0,52.0,0.0,40.0,951.45,20.0,-15.0,-977.0,-1.0
1634974398.653329,1.0,1.0,51.0,0.0,0.0,0.0,52.0,0.0,40.0,951.5,6.0,-24.0,-975.0,-1.0
1634974398.756516,1.0,1.0,51.0,0.0,0.0,0.0,52.0,0.0,40.0,951.47,3.0,-16.0,-988.0,-1.0
1634974398.85452,1.0,1.0,51.0,0.0,0.0,0.0,52.0,0.0,40.0,951.46,-2.0,-21.0,-995.0,-1.0
1634974398.963869,1.0,1.0,51.0,0.0,0.0,0.0,52.0,0.0,40.0,951.5,0.0,-19.0,-1005.0,-1.0
1634974399.063568,1.0,1.0,51.0,0.0,0.0,0.0,52.0,0.0,40.0,951.5,-1.0,-20.0,-1003.0,-1.0
1634974399.155792,1.0,1.0,51.0,0.0,0.0,0.0,53.0,0.0,40.0,951.49,0.0,-22.0,-999.0,-1.0
1634974399.267024,1.0,1.0,51.0,0.0,0.0,0.0,53.0,0.0,39.0,951.51,1.0,-20.0,-993.0,-1.0
1634974399.366441,1.0,1.0,51.0,0.0,0.0,0.0,53.0,0.0,39.0,951.49,1.0,-19.0,-995.0,-1.0
1634974399.468864,1.0,1.0,51.0,0.0,0.0,0.0,53.0,0.0,39.0,951.56,0.0,-20.0,-994.0,-1.0
1634974399.563118,1.0,1.0,51.0,0.0,0.0,0.0,53.0,0.0,39.0,951.53,-1.0,-19.0,-995.0,-1.0
1634974399.6712,1.0,1.0,51.0,0.0,0.0,0.0,53.0,0.0,39.0,951.47,0.0,-19.0,-997.0,-1.0
1634974399.768841,1.0,1.0,51.0,0.0,0.0,0.0,53.0,0.0,39.0,951.48,0.0,-19.0,-995.0,-1.0
1634974399.881602,1.0,1.0,51.0,0.0,0.0,0.0,53.0,0.0,39.0,951.48,0.0,-19.0,-997.0,-1.0
1634974399.983381,1.0,1.0,51.0,0.0,0.0,0.0,53.0,0.0,39.0,951.51,0.0,-20.0,-998.0,-1.0
1634974400.075388,1.0,1.0,51.0,0.0,0.0,0.0,53.0,0.0,39.0,951.42,0.0,-20.0,-999.0,-1.0
1634974400.189953,1.0,1.0,51.0,0.0,0.0,0.0,52.0,0.0,39.0,951.46,0.0,-21.0,-1000.0,-1.0
1634974400.27947,1.0,1.0,51.0,0.0,0.0,0.0,52.0,0.0,39.0,951.53,0.0,-18.0,-997.0,-1.0
1634974400.392089,1.0,1.0,51.0,0.0,0.0,0.0,52.0,0.0,39.0,951.5,0.0,-19.0,-996.0,-1.0
1634974400.485815,1.0,1.0,51.0,0.0,0.0,0.0,52.0,0.0,39.0,951.54,0.0,-20.0,-996.0,-1.0
1634974400.600184,1.0,1.0,51.0,0.0,0.0,0.0,52.0,0.0,39.0,951.5,0.0,-19.0,-999.0,-1.0
1634974400.700301,1.0,1.0,51.0,0.0,0.0,0.0,52.0,0.0,39.0,951.47,1.0,-20.0,-999.0,-1.0
1634974400.796839,1.0,1.0,51.0,0.0,0.0,0.0,52.0,0.0,39.0,951.44,0.0,-20.0,-996.0,-1.0
1634974400.903105,1.0,1.0,51.0,0.0,0.0,0.0,52.0,0.0,39.0,951.54,0.0,-21.0,-997.0,-1.0
1634974401.00531,1.0,1.0,51.0,0.0,0.0,0.0,52.0,0.0,39.0,951.46,1.0,-20.0,-1000.0,-1.0
1634974401.108768,1.0,1.0,51.0,0.0,0.0,0.0,52.0,0.0,39.0,951.48,-1.0,-20.0,-999.0,-1.0
1634974401.20899,1.0,1.0,51.0,0.0,0.0,0.0,53.0,0.0,39.0,951.5,0.0,-20.0,-997.0,-1.0
1634974401.311063,1.0,1.0,51.0,0.0,0.0,0.0,53.0,0.0,38.0,951.55,0.0,-21.0,-996.0,-1.0
1634974401.403153,1.0,1.0,51.0,0.0,0.0,0.0,53.0,0.0,38.0,951.5,1.0,-19.0,-998.0,-1.0
1634974401.502142,1.0,1.0,51.0,0.0,0.0,0.0,53.0,0.0,38.0,951.52,0.0,-21.0,-997.0,-1.0
1634974401.566977,1.0,1.0,51.0,0.0,0.0,0.0,53.0,0.0,38.0,951.47,1.0,-21.0,-1000.0,-1.0
1634974401.671192,1.0,1.0,51.0,0.0,0.0,0.0,53.0,0.0,38.0,951.46,0.0,-19.0,-1000.0,-1.0
1634974601.966021,0.0,0.0,0.0,0.0,0.0,0.0,71.0,0.0,42.0,951.86,16.0,-13.0,-1000.0,-1.0
1634974602.067696,0.0,0.0,0.0,0.0,0.0,0.0,71.0,0.0,42.0,951.86,17.0,-16.0,-1000.0,-1.0
1634974602.169914,0.0,0.0,0.0,0.0,0.0,0.0,71.0,0.0,42.0,951.86,15.0,-15.0,-999.0,-1.0
1634974602.271935,0.0,0.0,0.0,0.0,0.0,0.0,71.0,0.0,42.0,951.86,15.0,-19.0,-1005.0,-1.0
1634976003.701337,0.0,1.0,0.0,0.0,0.0,0.0,50.0,0.0,33.0,950.55,-6.0,-23.0,-999.0,-1.0
1634976003.803631,0.0,1.0,0.0,0.0,0.0,0.0,50.0,0.0,33.0,950.55,-9.0,-22.0,-1004.0,-1.0
1634976003.897514,0.0,1.0,0.0,0.0,0.0,0.0,50.0,0.0,33.0,950.55,0.0,-17.0,-996.0,-1.0
1634976004.007032,0.0,1.0,0.0,0.0,0.0,0.0,50.0,0.0,33.0,950.55,11.0,0.0,-976.0,-1.0
1634976004.109243,0.0,1.0,0.0,0.0,0.0,0.0,51.0,0.0,33.0,950.55,-22.0,-21.0,-1006.0,-1.0
1634976004.204632,0.0,1.0,0.0,0.0,0.0,0.0,51.0,0.0,33.0,950.55,1.0,-25.0,-990.0,-1.0
1634976004.308766,0.0,1.0,1.0,0.0,0.0,0.0,51.0,0.0,33.0,950.55,-26.0,9.0,-990.0,-1.0
1634976004.410935,-1.0,0.0,1.0,0.0,0.0,0.0,51.0,-10.0,33.0,950.55,-3.0,-6.0,-1080.0,-1.0
1634976004.509767,0.0,0.0,1.0,0.0,0.0,0.0,51.0,-10.0,33.0,950.55,-2.0,-7.0,-1224.0,-1.0
1634976004.610047,0.0,-1.0,1.0,0.0,0.0,-2.0,51.0,-10.0,33.0,950.55,-68.0,-17.0,-1251.0,-1.0
1634976004.71439,0.0,0.0,1.0,0.0,0.0,-4.0,51.0,-10.0,33.0,950.62,-76.0,44.0,-1205.0,-1.0
1634976004.822441,-1.0,0.0,1.0,-1.0,0.0,-6.0,51.0,-10.0,33.0,950.74,-70.0,5.0,-1091.0,-1.0
1634976004.916199,-4.0,1.0,1.0,-1.0,0.0,-6.0,51.0,0.0,33.0,950.92,-59.0,6.0,-1025.0,-1.0
1634976004.971809,-4.0,0.0,1.0,-1.0,0.0,-6.0,51.0,0.0,33.0,950.97,-48.0,-4.0,-998.0,-1.0
1634976005.067137,-4.0,0.0,1.0,0.0,0.0,-6.0,51.0,0.0,33.0,950.95,-77.0,14.0,-979.0,-1.0
1634976005.180022,-3.0,0.0,1.0,0.0,0.0,-5.0,51.0,0.0,33.0,951.09,-59.0,-2.0,-938.0,-1.0
1634976005.286352,-3.0,0.0,1.0,0.0,0.0,-4.0,51.0,10.0,33.0,951.2,-29.0,-10.0,-904.0,-1.0
1634976005.388614,-3.0,0.0,1.0,0.0,0.0,-4.0,51.0,10.0,33.0,951.35,-34.0,-15.0,-885.0,-1.0
1634976005.485344,-4.0,0.0,1.0,0.0,0.0,-3.0,51.0,20.0,33.0,951.32,-47.0,-3.0,-892.0,-1.0
1634976005.586128,-3.0,0.0,1.0,0.0,0.0,-2.0,51.0,20.0,33.0,951.43,-50.0,4.0,-887.0,-1.0
1634976005.684681,-4.0,0.0,1.0,0.0,0.0,-1.0,51.0,30.0,33.0,951.53,-36.0,2.0,-872.0,-1.0
1634976005.781772,-4.0,0.0,1.0,0.0,0.0,0.0,51.0,30.0,33.0,951.48,-57.0,0.0,-879.0,-1.0
1634976005.883011,-4.0,0.0,1.0,0.0,0.0,0.0,51.0,30.0,33.0,951.41,-47.0,-6.0,-889.0,-1.0
1634976005.987232,-4.0,0.0,1.0,0.0,0.0,0.0,51.0,40.0,33.0,951.51,-84.0,4.0,-903.0,-1.0
1634976006.098143,-4.0,0.0,1.0,0.0,0.0,1.0,50.0,40.0,32.0,951.57,-66.0,2.0,-887.0,-1.0
1634976006.188205,-4.0,0.0,1.0,0.0,0.0,1.0,50.0,40.0,32.0,951.61,-47.0,-8.0,-913.0,-1.0
1634976006.303147,-4.0,0.0,1.0,0.0,0.0,2.0,50.0,40.0,32.0,951.57,-55.0,-1.0,-946.0,-1.0
1634976006.393756,-4.0,0.0,1.0,0.0,0.0,2.0,50.0,40.0,32.0,951.6,-59.0,-5.0,-950.0,-1.0
1634976006.497365,-4.0,0.0,1.0,0.0,0.0,2.0,50.0,40.0,32.0,951.58,-48.0,-6.0,-953.0,-1.0
1634976006.60482,-3.0,0.0,1.0,0.0,0.0,2.0,50.0,40.0,32.0,951.58,-49.0,-12.0,-969.0,-1.0
1634976006.700655,-3.0,0.0,1.0,0.0,0.0,2.0,50.0,40.0,32.0,951.51,-58.0,-3.0,-985.0,-1.0
1634976006.802877,-3.0,0.0,1.0,0.0,0.0,2.0,50.0,40.0,32.0,951.47,-44.0,-6.0,-967.0,-1.0
1634976006.909011,-3.0,0.0,1.0,0.0,0.0,2.0,50.0,40.0,32.0,951.44,-40.0,-10.0,-996.0,-1.0
1634976007.005287,-3.0,0.0,1.0,0.0,0.0,2.0,50.0,40.0,32.0,951.36,-51.0,-13.0,-985.0,-1.0
1634976007.109892,-3.0,0.0,1.0,0.0,0.0,2.0,51.0,40.0,32.0,951.45,-56.0,1.0,-991.0,-1.0
1634976007.222682,-3.0,0.0,1.0,0.0,0.0,2.0,51.0,40.0,32.0,951.4,-67.0,9.0,-987.0,-1.0
1634976007.315861,-3.0,0.0,1.0,0.0,0.0,2.0,51.0,30.0,32.0,951.29,-66.0,10.0,-1004.0,-1.0
1634976007.420274,-3.0,0.0,1.0,0.0,0.0,2.0,51.0,30.0,32.0,951.34,-77.0,-3.0,-1018.0,-1.0
1634976007.468873,-4.0,0.0,0.0,0.0,0.0,2.0,51.0,30.0,32.0,951.3,-80.0,-13.0,-1013.0,-1.0
1634976007.565406,-4.0,0.0,0.0,0.0,0.0,2.0,51.0,30.0,32.0,951.37,-50.0,-23.0,-998.0,-1.0
1634976007.67043,-3.0,1.0,1.0,0.0,0.0,1.0,51.0,30.0,32.0,951.26,-48.0,-20.0,-1007.0,-1.0
1634976007.779919,-3.0,1.0,1.0,0.0,0.0,1.0,51.0,30.0,32.0,951.27,-45.0,-17.0,-1006.0,-1.0
1634976007.882404,-3.0,1.0,1.0,0.0,0.0,1.0,51.0,30.0,32.0,951.32,-65.0,-6.0,-1022.0,-1.0
1634976007.988554,-3.0,1.0,1.0,0.0,0.0,1.0,51.0,20.0,32.0,951.27,-56.0,-17.0,-1019.0,-1.0
1634976008.085155,-3.0,0.0,1.0,0.0,0.0,1.0,51.0,20.0,31.0,951.35,-49.0,-11.0,-1003.0,-1.0
1634976008.184233,-3.0,0.0,1.0,0.0,0.0,1.0,51.0,20.0,31.0,951.28,-57.0,-11.0,-1008.0,-1.0
1634976008.279402,-3.0,0.0,1.0,0.0,0.0,1.0,51.0,20.0,31.0,951.26,-66.0,-6.0,-1015.0,-1.0
1634976008.389138,-3.0,1.0,1.0,0.0,0.0,0.0,51.0,20.0,31.0,951.27,-56.0,-16.0,-1017.0,-1.0
1634976008.484665,-3.0,1.0,1.0,0.0,0.0,0.0,51.0,20.0,31.0,951.27,-71.0,3.0,-1024.0,-1.0
1634976008.587014,-3.0,1.0,1.0,0.0,0.0,0.0,51.0,20.0,31.0,951.12,-66.0,-6.0,-1017.0,-1.0
1634976008.693469,-3.0,0.0,1.0,0.0,0.0,0.0,51.0,20.0,31.0,951.17,-74.0,-6.0,-1003.0,-1.0
1634976008.802812,-3.0,0.0,1.0,0.0,0.0,0.0,51.0,20.0,31.0,951.24,-65.0,-9.0,-998.0,-1.0
1634976008.899356,-3.0,0.0,1.0,0.0,0.0,0.0,51.0,20.0,31.0,951.16,-52.0,-9.0,-1017.0,-1.0
1634976008.994742,-3.0,1.0,1.0,0.0,0.0,0.0,51.0,20.0,31.0,951.18,-49.0,-8.0,-1017.0,-1.0
1634976009.105637,-3.0,1.0,1.0,0.0,0.0,0.0,51.0,20.0,31.0,951.07,-41.0,-14.0,-1016.0,-1.0
1634976009.211708,-3.0,1.0,1.0,0.0,0.0,0.0,51.0,20.0,31.0,951.16,-55.0,-10.0,-1003.0,-1.0
1634976009.299335,-3.0,1.0,1.0,0.0,0.0,0.0,51.0,20.0,31.0,951.1,-55.0,-15.0,-998.0,-1.0
1634976009.417356,-3.0,1.0,1.0,0.0,0.0,0.0,51.0,20.0,31.0,951.14,-55.0,-16.0,-986.0,-1.0
1634976009.518982,-3.0,0.0,1.0,0.0,0.0,0.0,51.0,20.0,31.0,951.18,-49.0,-22.0,-996.0,-1.0
1634976009.617557,-3.0,0.0,1.0,0.0,0.0,0.0,51.0,20.0,31.0,951.2,-40.0,-23.0,-996.0,-1.0
1634976009.712749,-3.0,1.0,1.0,0.0,0.0,0.0,51.0,20.0,31.0,951.21,-68.0,-22.0,-1000.0,-1.0
1634976009.813987,-3.0,1.0,1.0,0.0,0.0,0.0,51.0,20.0,31.0,951.21,-42.0,-38.0,-978.0,-1.0
1634976009.921709,-3.0,1.0,1.0,0.0,0.0,0.0,51.0,20.0,31.0,951.3,-40.0,-41.0,-1000.0,-1.0
1634976010.028243,-3.0,1.0,1.0,0.0,0.0,0.0,51.0,20.0,31.0,951.31,-51.0,-37.0,-996.0,-1.0
1634976010.072504,-3.0,1.0,0.0,0.0,0.0,0.0,51.0,20.0,30.0,951.29,-40.0,-29.0,-1000.0,-1.0
1634976010.169629,-3.0,1.0,1.0,0.0,0.0,0.0,51.0,20.0,30.0,951.27,-55.0,-31.0,-1009.0,-1.0
1634976010.28177,-2.0,2.0,1.0,0.0,0.0,0.0,51.0,20.0,30.0,951.19,-51.0,-38.0,-1020.0,-1.0
1634976010.372389,-2.0,2.0,1.0,0.0,0.0,0.0,51.0,20.0,30.0,951.28,-49.0,-25.0,-1014.0,-1.0
1634976010.4867,-3.0,2.0,1.0,0.0,0.0,0.0,51.0,20.0,30.0,951.27,-59.0,-34.0,-985.0,-1.0
1634976010.581638,-3.0,2.0,1.0,0.0,0.0,0.0,51.0,20.0,30.0,951.19,-41.0,-47.0,-1008.0,-1.0
1634976010.679048,-3.0,2.0,1.0,0.0,0.0,0.0,51.0,20.0,30.0,951.21,-37.0,-46.0,-986.0,-1.0
1634976010.79251,-2.0,2.0,1.0,0.0,0.0,0.0,51.0,20.0,30.0,951.26,-47.0,-38.0,-991.0,-1.0
1634976010.898895,-2.0,2.0,1.0,0.0,0.0,0.0,51.0,20.0,30.0,951.26,-38.0,-50.0,-996.0,-1.0
1634976010.989032,-2.0,2.0,1.0,0.0,0.0,0.0,51.0,20.0,30.0,951.27,-47.0,-47.0,-1000.0,-1.0
1634976011.088898,-2.0,2.0,1.0,0.0,0.0,0.0,51.0,20.0,30.0,951.19,-34.0,-45.0,-982.0,-1.0
1634976011.193194,-3.0,2.0,1.0,0.0,0.0,0.0,51.0,20.0,30.0,951.1,-46.0,-45.0,-1000.0,-1.0
1634976011.294978,-3.0,2.0,1.0,0.0,0.0,0.0,51.0,20.0,30.0,951.09,-74.0,-28.0,-1008.0,-1.0
1634976011.405492,-3.0,2.0,1.0,0.0,0.0,0.0,51.0,20.0,30.0,951.21,-35.0,-57.0,-997.0,-1.0
1634976011.491669,-3.0,3.0,1.0,0.0,0.0,0.0,51.0,20.0,30.0,951.18,-53.0,-48.0,-997.0,-1.0
1634976011.602862,-2.0,3.0,1.0,0.0,0.0,0.0,51.0,20.0,30.0,951.28,-41.0,-55.0,-982.0,-1.0
1634976011.70583,-3.0,3.0,1.0,0.0,0.0,0.0,51.0,20.0,30.0,951.17,-44.0,-58.0,-988.0,-1.0
1634976011.809608,-3.0,3.0,1.0,0.0,0.0,0.0,51.0,20.0,30.0,951.18,-34.0,-56.0,-984.0,-1.0
1634976011.905249,-2.0,3.0,1.0,0.0,0.0,0.0,51.0,20.0,30.0,951.12,-41.0,-61.0,-994.0,-1.0
1634976012.012746,-2.0,2.0,1.0,0.0,0.0,0.0,51.0,20.0,30.0,951.24,-65.0,-56.0,-999.0,-1.0
1634976012.112657,-3.0,2.0,1.0,0.0,0.0,0.0,51.0,20.0,29.0,951.17,-64.0,-42.0,-990.0,-1.0
1634976012.208034,-3.0,3.0,1.0,0.0,0.0,0.0,51.0,20.0,29.0,951.06,-75.0,-34.0,-983.0,-1.0
1634976012.30924,-4.0,3.0,1.0,0.0,0.0,0.0,51.0,20.0,29.0,951.27,-54.0,-59.0,-984.0,-1.0
1634976012.41737,-3.0,3.0,1.0,0.0,0.0,0.0,51.0,20.0,29.0,951.2,-63.0,-48.0,-1002.0,-1.0
1634976012.524946,-3.0,3.0,1.0,0.0,0.0,0.0,51.0,20.0,29.0,951.27,-55.0,-68.0,-1001.0,-1.0
1634976012.524946,-3.0,3.0,1.0,0.0,0.0,0.0,51.0,20.0,29.0,951.27,-55.0,-68.0,-1001.0,-1.0
1634976012.620082,-3.0,3.0,1.0,0.0,0.0,0.0,51.0,20.0,29.0,951.16,-64.0,-46.0,-1005.0,-1.0
1634976012.7175,-3.0,2.0,1.0,0.0,0.0,0.0,51.0,20.0,29.0,951.3,-56.0,-49.0,-982.0,-1.0
1634976012.828438,-3.0,3.0,1.0,0.0,0.0,0.0,51.0,20.0,29.0,951.26,-54.0,-62.0,-1008.0,-1.0
1634976012.878675,-3.0,3.0,1.0,0.0,0.0,0.0,51.0,20.0,29.0,951.3,-72.0,-53.0,-986.0,-1.0
1634976012.97393,-3.0,3.0,1.0,0.0,0.0,0.0,51.0,20.0,29.0,951.34,-70.0,-64.0,-1003.0,-1.0
1634976013.130001,-4.0,3.0,1.0,0.0,0.0,0.0,51.0,20.0,29.0,951.29,-69.0,-53.0,-979.0,-1.0
1634976013.231174,-4.0,2.0,0.0,0.0,0.0,0.0,51.0,20.0,29.0,951.18,-79.0,-47.0,-987.0,-1.0
1634976013.343471,-4.0,2.0,1.0,0.0,0.0,0.0,51.0,20.0,29.0,951.23,-90.0,-35.0,-984.0,-1.0
1634976013.437164,-4.0,3.0,1.0,0.0,0.0,0.0,51.0,20.0,29.0,951.08,-95.0,-39.0,-1006.0,-1.0
1634976013.495006,-4.0,3.0,1.0,0.0,0.0,0.0,51.0,20.0,29.0,951.15,-95.0,-26.0,-996.0,-1.0
1634976013.596332,-4.0,2.0,1.0,0.0,0.0,0.0,51.0,20.0,29.0,951.18,-80.0,-53.0,-999.0,-1.0
1634976013.738564,-5.0,2.0,1.0,0.0,0.0,0.0,51.0,20.0,29.0,951.17,-65.0,-47.0,-996.0,-1.0
1634976013.879708,-5.0,1.0,1.0,0.0,0.0,0.0,51.0,20.0,29.0,951.24,-74.0,-41.0,-1001.0,-1.0
1634976013.900547,-4.0,1.0,1.0,0.0,0.0,0.0,51.0,20.0,29.0,951.2,-67.0,-44.0,-985.0,-1.0
1634976014.02941,-4.0,2.0,0.0,0.0,0.0,0.0,51.0,20.0,29.0,951.24,-90.0,-51.0,-1010.0,-1.0
1634976014.181956,-4.0,2.0,1.0,0.0,0.0,0.0,51.0,20.0,28.0,951.16,-55.0,-53.0,-1001.0,-1.0
1634976014.260747,-4.0,2.0,1.0,0.0,0.0,0.0,51.0,20.0,28.0,951.18,-68.0,-38.0,-993.0,-1.0
1634976014.304003,-3.0,3.0,1.0,0.0,0.0,0.0,51.0,20.0,28.0,951.24,-73.0,-42.0,-1029.0,-1.0
1634976014.481863,-3.0,3.0,1.0,0.0,0.0,0.0,51.0,20.0,28.0,951.15,-78.0,-33.0,-1002.0,-1.0
1634976014.549245,-3.0,3.0,1.0,0.0,0.0,0.0,51.0,20.0,28.0,951.08,-70.0,-34.0,-1000.0,-1.0
1634976014.61434,-4.0,2.0,1.0,0.0,0.0,0.0,51.0,20.0,28.0,951.07,-100.0,-15.0,-970.0,-1.0
1634976014.782631,-4.0,1.0,1.0,0.0,0.0,0.0,51.0,20.0,28.0,951.06,-73.0,-30.0,-980.0,-1.0
1634976014.822586,-4.0,1.0,1.0,0.0,0.0,0.0,51.0,20.0,28.0,951.04,-78.0,-33.0,-998.0,-1.0
1634976014.924212,-4.0,1.0,1.0,0.0,0.0,0.0,51.0,20.0,28.0,951.05,-60.0,-40.0,-984.0,-1.0
1634976015.022294,-3.0,1.0,1.0,0.0,0.0,0.0,51.0,20.0,28.0,951.02,-73.0,-16.0,-992.0,-1.0
1634976015.124644,-4.0,1.0,1.0,0.0,0.0,0.0,52.0,20.0,28.0,951.11,-74.0,-7.0,-991.0,-1.0
1634976015.231036,-3.0,1.0,1.0,0.0,0.0,0.0,52.0,20.0,28.0,951.12,-79.0,-19.0,-979.0,-1.0
1634976015.318173,-4.0,0.0,1.0,0.0,0.0,0.0,52.0,20.0,28.0,951.05,-94.0,-6.0,-988.0,-1.0
1634976015.432106,-4.0,0.0,1.0,0.0,0.0,0.0,52.0,20.0,28.0,951.08,-77.0,-26.0,-1003.0,-1.0
1634976015.522178,-4.0,0.0,1.0,0.0,0.0,0.0,52.0,20.0,28.0,951.07,-74.0,-23.0,-1000.0,-1.0
1634976015.623951,-4.0,1.0,1.0,0.0,0.0,0.0,52.0,20.0,28.0,951.11,-66.0,-41.0,-993.0,-1.0
1634976015.740636,-4.0,1.0,1.0,0.0,0.0,0.0,52.0,20.0,28.0,951.2,-62.0,-32.0,-995.0,-1.0
1634976015.827843,-3.0,1.0,1.0,0.0,0.0,0.0,52.0,20.0,28.0,951.24,-72.0,-18.0,-998.0,-1.0
1634976015.93855,-3.0,1.0,1.0,0.0,0.0,0.0,52.0,20.0,28.0,951.16,-60.0,-31.0,-989.0,-1.0
1634976016.037836,-3.0,1.0,1.0,0.0,0.0,0.0,52.0,20.0,28.0,951.13,-64.0,-21.0,-992.0,-1.0
1634976016.148941,-3.0,1.0,1.0,0.0,0.0,0.0,52.0,20.0,27.0,951.13,-65.0,-22.0,-986.0,-1.0
1634976016.24777,-3.0,1.0,1.0,0.0,0.0,0.0,52.0,20.0,27.0,951.13,-72.0,-25.0,-984.0,-1.0
1634976016.350356,-3.0,1.0,1.0,0.0,0.0,0.0,52.0,20.0,27.0,951.13,-57.0,-28.0,-1002.0,-1.0
1634976016.453516,-3.0,1.0,1.0,0.0,0.0,0.0,52.0,20.0,27.0,951.16,-71.0,-24.0,-1019.0,-1.0
1634976016.544603,-3.0,1.0,1.0,0.0,0.0,0.0,52.0,20.0,27.0,951.16,-45.0,-43.0,-1005.0,-1.0
1634976016.646377,-3.0,1.0,1.0,0.0,0.0,0.0,52.0,20.0,27.0,951.19,-47.0,-45.0,-996.0,-1.0
1634976016.746885,-3.0,1.0,1.0,0.0,0.0,0.0,52.0,20.0,27.0,951.2,-67.0,-24.0,-985.0,-1.0
1634976016.860324,-3.0,1.0,1.0,0.0,0.0,0.0,52.0,20.0,27.0,951.21,-81.0,-17.0,-1019.0,-1.0
1634976016.950618,-3.0,1.0,1.0,0.0,0.0,0.0,52.0,20.0,27.0,951.21,-67.0,-5.0,-998.0,-1.0
1634976017.058295,-3.0,1.0,1.0,0.0,0.0,0.0,52.0,20.0,27.0,951.27,-62.0,-27.0,-992.0,-1.0
1634976017.153718,-3.0,1.0,1.0,0.0,0.0,0.0,53.0,20.0,27.0,951.16,-77.0,-19.0,-993.0,-1.0
1634976017.256117,-3.0,1.0,1.0,0.0,0.0,0.0,53.0,20.0,27.0,951.25,-72.0,-27.0,-993.0,-1.0
1634976017.365534,-3.0,1.0,1.0,0.0,0.0,0.0,53.0,20.0,27.0,951.23,-61.0,-26.0,-1001.0,-1.0
1634976017.424616,-3.0,1.0,1.0,0.0,0.0,0.0,53.0,20.0,27.0,951.3,-72.0,-29.0,-1015.0,-1.0
1634976017.518198,-3.0,1.0,1.0,0.0,0.0,0.0,53.0,20.0,27.0,951.19,-91.0,-16.0,-1007.0,-1.0
1634976017.61495,-2.0,1.0,1.0,0.0,0.0,0.0,53.0,20.0,27.0,951.24,-61.0,-22.0,-1022.0,-1.0
1634976017.717322,-3.0,1.0,1.0,0.0,0.0,0.0,53.0,20.0,27.0,951.27,-87.0,-2.0,-1011.0,-1.0
1634976017.81981,-3.0,1.0,1.0,0.0,0.0,0.0,53.0,20.0,27.0,951.25,-69.0,-27.0,-1003.0,-1.0
1634976017.929319,-3.0,0.0,1.0,0.0,0.0,0.0,53.0,20.0,27.0,951.29,-90.0,-22.0,-1024.0,-1.0
1634976018.024717,-3.0,1.0,1.0,0.0,0.0,0.0,53.0,20.0,27.0,951.23,-74.0,-24.0,-980.0,-1.0
1634976018.125718,-4.0,1.0,1.0,0.0,0.0,0.0,53.0,20.0,26.0,951.21,-58.0,-41.0,-976.0,-1.0
1634976018.229358,-3.0,2.0,1.0,0.0,0.0,0.0,53.0,20.0,26.0,951.19,-60.0,-42.0,-1001.0,-1.0
1634976018.336893,-3.0,2.0,1.0,0.0,0.0,0.0,53.0,20.0,26.0,951.19,-58.0,-39.0,-983.0,-1.0
1634976018.437564,-3.0,2.0,1.0,0.0,0.0,0.0,53.0,20.0,26.0,951.18,-63.0,-40.0,-991.0,-1.0
1634976018.535002,-3.0,2.0,1.0,0.0,0.0,0.0,53.0,20.0,26.0,951.15,-48.0,-56.0,-983.0,-1.0
1634976018.643104,-2.0,3.0,1.0,0.0,0.0,0.0,53.0,20.0,26.0,951.15,-62.0,-39.0,-994.0,-1.0
1634976018.743574,-3.0,3.0,1.0,0.0,0.0,0.0,53.0,20.0,26.0,951.18,-60.0,-39.0,-1009.0,-1.0
1634976018.837302,-3.0,3.0,1.0,0.0,0.0,0.0,53.0,20.0,26.0,951.14,-49.0,-54.0,-985.0,-1.0
1634976018.951166,-3.0,3.0,1.0,0.0,0.0,0.0,53.0,20.0,26.0,951.14,-48.0,-50.0,-997.0,-1.0
1634976019.056113,-2.0,3.0,1.0,0.0,0.0,0.0,53.0,20.0,26.0,951.18,-56.0,-44.0,-993.0,-1.0
1634976019.151192,-2.0,3.0,1.0,0.0,0.0,0.0,52.0,20.0,26.0,951.25,-58.0,-50.0,-987.0,-1.0
1634976019.245019,-2.0,3.0,1.0,0.0,0.0,0.0,52.0,20.0,26.0,951.3,-63.0,-39.0,-1007.0,-1.0
1634976019.352344,-3.0,3.0,1.0,0.0,0.0,0.0,52.0,20.0,26.0,951.22,-55.0,-43.0,-992.0,-1.0
1634976019.463826,-2.0,3.0,1.0,0.0,0.0,0.0,52.0,20.0,26.0,951.22,-65.0,-50.0,-995.0,-1.0
1634976019.560674,-2.0,3.0,1.0,0.0,0.0,0.0,52.0,20.0,26.0,951.21,-45.0,-51.0,-984.0,-1.0
1634976019.654965,-2.0,3.0,1.0,0.0,0.0,0.0,52.0,20.0,26.0,951.26,-32.0,-69.0,-971.0,-1.0
1634976019.765996,-2.0,3.0,1.0,0.0,0.0,0.0,52.0,20.0,26.0,951.22,-38.0,-63.0,-988.0,-1.0
1634976019.862566,-2.0,3.0,1.0,0.0,0.0,0.0,52.0,20.0,26.0,951.32,-43.0,-51.0,-988.0,-1.0
1634976019.965448,-2.0,3.0,1.0,0.0,0.0,1.0,52.0,20.0,26.0,951.35,-67.0,-49.0,-973.0,-1.0
1634976020.075692,-3.0,3.0,1.0,0.0,0.0,1.0,52.0,20.0,26.0,951.37,-41.0,-63.0,-934.0,-1.0
1634976020.173419,-3.0,3.0,1.0,0.0,0.0,2.0,52.0,10.0,25.0,951.35,-44.0,-76.0,-906.0,-1.0
1634976020.26871,-3.0,3.0,1.0,0.0,0.0,3.0,52.0,10.0,25.0,951.32,-35.0,-77.0,-925.0,-1.0
1634976020.379766,-3.0,4.0,1.0,0.0,0.0,3.0,52.0,10.0,25.0,951.36,-69.0,-56.0,-957.0,-1.0
1634976020.470389,-3.0,4.0,1.0,0.0,0.0,4.0,52.0,0.0,25.0,951.38,-67.0,-73.0,-962.0,-1.0
1634976020.586143,-3.0,4.0,1.0,0.0,0.0,4.0,52.0,0.0,25.0,951.34,-57.0,-88.0,-948.0,-1.0
1634976020.676952,-3.0,4.0,1.0,0.0,0.0,4.0,52.0,0.0,25.0,951.24,-80.0,-82.0,-965.0,-1.0
1634976020.77765,-3.0,4.0,1.0,0.0,0.0,4.0,52.0,0.0,25.0,951.16,-74.0,-69.0,-982.0,-1.0
1634976020.888678,-4.0,3.0,1.0,0.0,0.0,4.0,52.0,0.0,25.0,951.18,-66.0,-85.0,-992.0,-1.0
1634976020.989577,-3.0,4.0,1.0,0.0,0.0,4.0,52.0,-10.0,25.0,951.14,-76.0,-76.0,-1011.0,-1.0
1634976021.042953,-4.0,4.0,1.0,0.0,0.0,4.0,52.0,-10.0,25.0,951.14,-68.0,-71.0,-1007.0,-1.0
1634976021.187474,-4.0,4.0,1.0,0.0,0.0,4.0,54.0,-20.0,25.0,951.05,-50.0,-88.0,-993.0,-1.0
1634976021.292602,-3.0,4.0,1.0,0.0,0.0,4.0,54.0,-20.0,25.0,950.95,-73.0,-66.0,-1000.0,-1.0
1634976021.399518,-3.0,4.0,1.0,0.0,0.0,4.0,54.0,-20.0,25.0,950.85,-75.0,-75.0,-994.0,-1.0
1634976021.49325,-4.0,4.0,1.0,0.0,0.0,4.0,54.0,-30.0,25.0,950.92,-80.0,-73.0,-993.0,-1.0
1634976021.548058,-4.0,4.0,1.0,0.0,0.0,4.0,54.0,-30.0,25.0,950.84,-105.0,-64.0,-1014.0,-1.0
1634976021.64759,-5.0,4.0,1.0,0.0,0.0,4.0,54.0,-40.0,25.0,950.74,-99.0,-59.0,-992.0,-1.0
1634976021.757113,4.0,-11.0,0.0,0.0,0.0,2.0,54.0,-40.0,25.0,950.74,-59.0,59.0,-1422.0,-1.0
1634976021.846619,5.0,-40.0,-2.0,-2.0,-5.0,2.0,54.0,-40.0,25.0,950.49,-48.0,-83.0,-1065.0,-1.0
1634976021.957535,2.0,-30.0,-1.0,-4.0,-11.0,4.0,54.0,-50.0,25.0,950.43,-75.0,21.0,-1117.0,-1.0
1634976022.054354,0.0,-10.0,0.0,-5.0,-16.0,4.0,54.0,-50.0,25.0,950.5,-55.0,54.0,-1062.0,-1.0
1634976022.155719,-4.0,8.0,1.0,-5.0,-16.0,4.0,53.0,-60.0,24.0,950.52,-21.0,84.0,-960.0,-1.0
1634976022.269368,-5.0,10.0,1.0,-4.0,-14.0,4.0,53.0,-60.0,24.0,950.36,-13.0,63.0,-960.0,-1.0
1634976022.364475,-5.0,9.0,1.0,-3.0,-11.0,5.0,53.0,-70.0,24.0,949.91,24.0,10.0,-963.0,-1.0
1634976022.469213,-3.0,7.0,1.0,-2.0,-10.0,5.0,53.0,-70.0,24.0,947.33,-11.0,2.0,-1119.0,-1.0
1634976022.56661,2.0,4.0,2.0,-2.0,-9.0,10.0,53.0,-80.0,24.0,947.8,-62.0,-186.0,294.0,-1.0
1634976022.674437,15.0,-3.0,0.0,-3.0,-10.0,13.0,53.0,-90.0,24.0,949.17,411.0,949.0,-2409.0,-1.0
1634976022.768309,1.0,1.0,-7.0,-3.0,-7.0,12.0,53.0,-100.0,24.0,949.55,160.0,22.0,-427.0,-1.0
1634976022.870114,1.0,1.0,-6.0,-1.0,-5.0,9.0,53.0,-100.0,24.0,949.82,15.0,-31.0,-987.0,-1.0
1634976022.982758,1.0,1.0,-6.0,-1.0,-5.0,11.0,53.0,-120.0,24.0,949.97,32.0,-8.0,-1002.0,-1.0
1634976023.083508,1.0,1.0,-6.0,-1.0,-5.0,12.0,53.0,-140.0,24.0,950.08,35.0,-6.0,-997.0,-1.0
1634976023.179804,1.0,1.0,-6.0,-1.0,-5.0,11.0,52.0,-150.0,24.0,950.15,36.0,-6.0,-1000.0,-1.0
1634976023.276903,1.0,1.0,-6.0,-1.0,-5.0,11.0,52.0,-150.0,24.0,950.22,35.0,-2.0,-1002.0,-1.0
1634976023.381325,1.0,1.0,-6.0,-1.0,-5.0,10.0,52.0,-160.0,24.0,950.29,30.0,-17.0,-1000.0,-1.0
1634976023.489727,1.0,1.0,-6.0,-1.0,-5.0,9.0,52.0,-160.0,24.0,950.25,39.0,-2.0,-1000.0,-1.0
1634976023.585237,1.0,1.0,-6.0,0.0,-4.0,8.0,52.0,-170.0,24.0,950.27,46.0,0.0,-1007.0,-1.0
1634976023.63768,1.0,1.0,-6.0,0.0,-4.0,8.0,52.0,-170.0,24.0,950.27,46.0,0.0,-1007.0,-1.0
1634976023.689469,1.0,1.0,-6.0,0.0,-4.0,7.0,52.0,-170.0,24.0,950.21,38.0,-4.0,-1001.0,-1.0
1634976023.799011,1.0,1.0,-6.0,0.0,-4.0,6.0,52.0,-170.0,24.0,950.21,33.0,-7.0,-1002.0,-1.0
1634976023.904242,1.0,0.0,-6.0,0.0,0.0,0.0,52.0,-160.0,24.0,950.2,33.0,-10.0,-1002.0,-1.0
1634976023.995438,1.0,0.0,-6.0,0.0,0.0,0.0,52.0,-160.0,24.0,950.19,32.0,-8.0,-1001.0,-1.0
1634976024.092017,1.0,0.0,-6.0,0.0,0.0,0.0,52.0,-160.0,24.0,950.21,34.0,-7.0,-998.0,-1.0
1634976024.207147,1.0,0.0,-6.0,0.0,0.0,0.0,53.0,-150.0,23.0,950.2,33.0,-7.0,-999.0,-1.0
1634976024.312602,1.0,0.0,-6.0,0.0,0.0,0.0,53.0,-150.0,23.0,950.19,32.0,-7.0,-998.0,-1.0
1634976024.40933,1.0,0.0,-6.0,0.0,0.0,0.0,53.0,0.0,23.0,950.17,34.0,-7.0,-998.0,-1.0
1634976024.505532,1.0,0.0,-6.0,0.0,0.0,0.0,53.0,0.0,23.0,950.19,33.0,-7.0,-998.0,-1.0
1634976024.600934,1.0,0.0,-6.0,0.0,0.0,0.0,53.0,0.0,23.0,950.25,36.0,-5.0,-989.0,-1.0
1634976024.708861,1.0,0.0,-6.0,0.0,0.0,0.0,53.0,0.0,23.0,950.2,35.0,-8.0,-996.0,-1.0
1634976024.811099,1.0,0.0,-6.0,0.0,0.0,0.0,53.0,0.0,23.0,950.29,34.0,-8.0,-996.0,-1.0
1634976024.856043,1.0,0.0,-6.0,0.0,0.0,0.0,53.0,0.0,23.0,950.3,34.0,-8.0,-994.0,-1.0
1634976024.968655,2.0,1.0,-5.0,0.0,0.0,0.0,53.0,0.0,23.0,950.26,81.0,155.0,-1218.0,-1.0
1634976025.069708,-9.0,11.0,-4.0,0.0,0.0,-5.0,53.0,0.0,23.0,950.38,6.0,-83.0,-1416.0,-1.0
1634976025.164972,-13.0,15.0,0.0,1.0,1.0,-7.0,53.0,0.0,23.0,950.51,-239.0,-242.0,-1297.0,-1.0
1634976025.278857,-7.0,11.0,5.0,2.0,1.0,-12.0,53.0,20.0,23.0,950.68,-138.0,-396.0,-1450.0,-1.0
1634976025.36623,-6.0,11.0,9.0,3.0,0.0,-16.0,53.0,40.0,23.0,950.82,-130.0,-328.0,-1200.0,-1.0
1634976025.477207,-5.0,10.0,11.0,2.0,0.0,-18.0,53.0,60.0,23.0,950.88,-68.0,-87.0,-1045.0,-1.0
1634976025.572535,-4.0,7.0,13.0,3.0,0.0,-16.0,53.0,80.0,23.0,950.93,-27.0,30.0,-462.0,-1.0
1634976025.680917,0.0,2.0,15.0,3.0,1.0,-10.0,53.0,100.0,23.0,950.93,-79.0,-40.0,-176.0,-1.0
1634976025.77825,0.0,3.0,16.0,2.0,0.0,-3.0,53.0,110.0,23.0,950.87,-117.0,-34.0,-428.0,-1.0
1634976025.888994,0.0,10.0,20.0,1.0,0.0,0.0,53.0,110.0,23.0,950.81,-41.0,129.0,-1092.0,-1.0
1634976025.991351,-2.0,14.0,20.0,0.0,4.0,0.0,53.0,110.0,23.0,950.78,100.0,99.0,-1122.0,-1.0
1634976026.086713,-2.0,11.0,15.0,0.0,8.0,0.0,53.0,110.0,22.0,950.76,-88.0,-70.0,-895.0,-1.0
1634976026.194419,-2.0,10.0,7.0,0.0,9.0,0.0,53.0,110.0,22.0,950.79,23.0,-106.0,-1177.0,-1.0
1634976026.298734,-2.0,10.0,1.0,0.0,11.0,-4.0,53.0,0.0,22.0,950.88,179.0,104.0,-1588.0,-1.0
1634976026.395568,4.0,4.0,-3.0,3.0,13.0,-10.0,53.0,0.0,22.0,951.09,378.0,-55.0,-1664.0,-1.0
1634976026.490874,13.0,-6.0,-7.0,4.0,13.0,-15.0,53.0,20.0,22.0,951.25,239.0,-89.0,-1225.0,-1.0
1634976026.601938,24.0,-23.0,-8.0,3.0,10.0,-15.0,53.0,30.0,22.0,951.27,71.0,-65.0,-676.0,-1.0
1634976026.699203,30.0,-39.0,-10.0,1.0,9.0,-8.0,53.0,40.0,22.0,951.3,-95.0,101.0,-89.0,-1.0
1634976026.794897,25.0,-43.0,-8.0,1.0,11.0,1.0,53.0,50.0,22.0,951.23,-33.0,177.0,94.0,-1.0
1634976026.898906,14.0,-40.0,-2.0,0.0,12.0,11.0,53.0,40.0,22.0,951.21,-214.0,5.0,-48.0,-1.0
1634976027.008309,1.0,-28.0,2.0,-1.0,9.0,21.0,53.0,20.0,22.0,950.99,-213.0,-392.0,-1001.0,-1.0
1634976027.102042,-10.0,-4.0,2.0,-1.0,4.0,13.0,53.0,0.0,22.0,950.88,-241.0,372.0,-2110.0,-1.0
1634976027.20749,-6.0,0.0,-1.0,0.0,4.0,3.0,54.0,0.0,22.0,950.88,-30.0,-59.0,-1349.0,-1.0
1634976027.318691,-1.0,2.0,-1.0,0.0,2.0,3.0,54.0,0.0,22.0,950.9,-105.0,-363.0,-862.0,-1.0
1634976027.420715,-2.0,5.0,1.0,0.0,0.0,3.0,54.0,0.0,22.0,950.95,-65.0,-126.0,-1085.0,-1.0
1634976027.509898,0.0,1.0,4.0,0.0,0.0,-2.0,54.0,0.0,22.0,950.85,-261.0,-99.0,-1825.0,-1.0
1634976027.620237,0.0,1.0,4.0,0.0,0.0,-1.0,54.0,0.0,22.0,950.86,-276.0,-121.0,-1366.0,-1.0
1634976027.719773,0.0,1.0,4.0,0.0,0.0,-1.0,54.0,0.0,22.0,950.82,-146.0,-113.0,-1278.0,-1.0
1634976027.822295,0.0,1.0,4.0,0.0,0.0,-1.0,54.0,0.0,22.0,950.84,-4.0,-81.0,-1185.0,-1.0
1634976027.919307,0.0,1.0,4.0,0.0,0.0,-1.0,54.0,0.0,22.0,950.84,-39.0,-29.0,-1096.0,-1.0
1634976028.032377,0.0,1.0,4.0,0.0,0.0,-1.0,54.0,0.0,22.0,950.82,-21.0,-28.0,-1051.0,-1.0
1634976028.073831,0.0,1.0,4.0,0.0,0.0,-1.0,54.0,0.0,21.0,950.81,-1.0,-33.0,-1029.0,-1.0
1634976028.226536,0.0,1.0,4.0,0.0,0.0,-1.0,53.0,0.0,21.0,950.84,0.0,-17.0,-989.0,-1.0
1634976028.33834,0.0,1.0,4.0,0.0,0.0,-1.0,53.0,0.0,21.0,950.86,-5.0,-18.0,-987.0,-1.0
1634976028.436162,0.0,1.0,4.0,0.0,0.0,-1.0,53.0,0.0,21.0,950.86,-5.0,-16.0,-986.0,-1.0
1634976028.483211,0.0,1.0,4.0,0.0,0.0,-1.0,53.0,0.0,21.0,950.86,-3.0,-16.0,-988.0,-1.0
1634976028.587784,0.0,1.0,4.0,0.0,1.0,-1.0,53.0,0.0,21.0,950.87,-4.0,-20.0,-992.0,-1.0
1634976028.695447,0.0,1.0,4.0,0.0,1.0,-1.0,53.0,0.0,21.0,950.85,-6.0,-17.0,-996.0,-1.0
1634976028.788461,0.0,1.0,4.0,0.0,1.0,-1.0,53.0,0.0,21.0,950.84,-7.0,-19.0,-996.0,-1.0
1634976028.893244,0.0,1.0,4.0,0.0,1.0,-1.0,53.0,0.0,21.0,950.87,-6.0,-18.0,-994.0,-1.0
1634976028.993575,0.0,1.0,4.0,0.0,1.0,-1.0,53.0,0.0,21.0,950.81,-5.0,-20.0,-995.0,-1.0
1634976029.102922,0.0,1.0,4.0,0.0,1.0,0.0,53.0,0.0,21.0,950.88,-6.0,-23.0,-992.0,-1.0
1634976029.189898,0.0,1.0,4.0,0.0,1.0,0.0,54.0,0.0,21.0,950.84,-8.0,-18.0,-1004.0,-1.0
1634976029.307863,0.0,1.0,4.0,0.0,1.0,0.0,54.0,0.0,21.0,950.85,-9.0,-21.0,-998.0,-1.0
1634976029.40284,0.0,1.0,4.0,0.0,0.0,0.0,54.0,0.0,21.0,950.87,-4.0,-20.0,-1001.0,-1.0
1634976029.504143,0.0,1.0,4.0,0.0,1.0,0.0,54.0,0.0,21.0,950.84,-6.0,-19.0,-998.0,-1.0
1634976029.600926,0.0,1.0,4.0,0.0,0.0,0.0,54.0,0.0,21.0,950.91,-8.0,-19.0,-995.0,-1.0
1634976029.712315,0.0,1.0,4.0,0.0,0.0,0.0,54.0,0.0,21.0,950.87,-3.0,-22.0,-990.0,-1.0
1634976029.814743,0.0,1.0,4.0,0.0,0.0,0.0,54.0,0.0,21.0,950.81,-6.0,-18.0,-993.0,-1.0
1634976029.910225,0.0,1.0,4.0,0.0,0.0,0.0,54.0,0.0,21.0,950.86,-7.0,-16.0,-998.0,-1.0
1634976030.006643,0.0,1.0,4.0,0.0,0.0,0.0,54.0,0.0,21.0,950.82,-7.0,-22.0,-997.0,-1.0
1634976030.12129,0.0,1.0,4.0,0.0,0.0,0.0,54.0,0.0,20.0,950.9,-7.0,-19.0,-999.0,-1.0
1634976030.222911,0.0,1.0,4.0,0.0,0.0,0.0,54.0,0.0,20.0,950.86,-6.0,-22.0,-1000.0,-1.0
1634976030.328102,0.0,1.0,4.0,0.0,0.0,0.0,54.0,0.0,20.0,950.86,-7.0,-19.0,-1002.0,-1.0
1634976030.428736,0.0,1.0,4.0,0.0,0.0,0.0,54.0,0.0,20.0,950.93,-9.0,-22.0,-1004.0,-1.0
1634976030.517292,0.0,1.0,4.0,0.0,0.0,0.0,54.0,0.0,20.0,950.85,-8.0,-22.0,-1000.0,-1.0
1634976030.634132,0.0,1.0,4.0,0.0,0.0,0.0,54.0,0.0,20.0,950.81,-5.0,-23.0,-1005.0,-1.0
1634976030.724123,0.0,1.0,4.0,0.0,0.0,0.0,54.0,0.0,20.0,950.84,-9.0,-24.0,-1004.0,-1.0
1634976030.830062,0.0,1.0,4.0,0.0,0.0,0.0,54.0,0.0,20.0,950.91,-7.0,-18.0,-998.0,-1.0
1634976030.939346,0.0,1.0,4.0,0.0,0.0,0.0,54.0,0.0,20.0,950.94,-3.0,-20.0,-994.0,-1.0
1634976031.031528,0.0,1.0,4.0,0.0,0.0,0.0,54.0,0.0,20.0,950.91,-5.0,-16.0,-995.0,-1.0
1634976031.140799,0.0,1.0,4.0,0.0,0.0,0.0,54.0,0.0,20.0,950.93,-7.0,-20.0,-1001.0,-1.0
1634976031.235979,0.0,1.0,4.0,0.0,0.0,0.0,54.0,0.0,20.0,950.89,-7.0,-23.0,-999.0,-1.0
1634976031.337369,0.0,1.0,4.0,0.0,0.0,0.0,54.0,0.0,20.0,950.95,-7.0,-21.0,-997.0,-1.0
1634976031.450035,0.0,1.0,4.0,0.0,0.0,0.0,54.0,0.0,20.0,950.92,-6.0,-19.0,-1001.0,-1.0
1634976031.547006,0.0,1.0,4.0,0.0,0.0,0.0,54.0,0.0,20.0,950.93,-7.0,-21.0,-1003.0,-1.0
1634976031.602423,0.0,1.0,4.0,0.0,0.0,0.0,54.0,0.0,20.0,950.88,-6.0,-19.0,-1009.0,-1.0
1634976031.70364,0.0,1.0,4.0,0.0,0.0,0.0,54.0,0.0,20.0,950.9,-10.0,-25.0,-1007.0,-1.0
1634976031.801842,0.0,1.0,4.0,0.0,0.0,0.0,54.0,0.0,20.0,950.86,-10.0,-23.0,-1005.0,-1.0
1634976031.901727,0.0,1.0,4.0,0.0,0.0,0.0,54.0,0.0,20.0,950.86,-1.0,-16.0,-1003.0,-1.0
1634976031.99728,0.0,1.0,4.0,0.0,0.0,0.0,54.0,0.0,20.0,950.9,-4.0,-19.0,-1005.0,-1.0
1634976032.106626,0.0,1.0,4.0,0.0,0.0,0.0,54.0,0.0,19.0,950.9,-8.0,-23.0,-1004.0,-1.0
1634976032.207818,0.0,1.0,4.0,0.0,0.0,0.0,54.0,0.0,19.0,950.96,-5.0,-10.0,-1009.0,-1.0
1634976032.317456,0.0,1.0,4.0,0.0,0.0,0.0,54.0,0.0,19.0,950.91,-7.0,-23.0,-996.0,-1.0
1634976032.418265,0.0,1.0,4.0,0.0,0.0,0.0,54.0,0.0,19.0,950.98,-8.0,-19.0,-986.0,-1.0
1634976032.509264,0.0,1.0,4.0,0.0,0.0,0.0,54.0,0.0,19.0,950.88,0.0,-19.0,-991.0,-1.0
1634976032.612382,0.0,1.0,4.0,0.0,0.0,0.0,54.0,0.0,19.0,950.87,-11.0,-19.0,-983.0,-1.0
1634976032.723752,0.0,1.0,4.0,0.0,0.0,0.0,54.0,0.0,19.0,950.83,0.0,-19.0,-986.0,-1.0
1634976032.815352,0.0,1.0,4.0,0.0,0.0,0.0,54.0,0.0,19.0,950.87,-8.0,-19.0,-994.0,-1.0
1634976032.922588,0.0,1.0,4.0,0.0,0.0,0.0,54.0,0.0,19.0,950.86,-6.0,-20.0,-1005.0,-1.0
1634976033.016314,0.0,1.0,4.0,0.0,0.0,0.0,54.0,0.0,19.0,950.92,-9.0,-20.0,-1001.0,-1.0
1634976033.118888,0.0,1.0,4.0,0.0,0.0,0.0,54.0,0.0,19.0,950.94,-1.0,-20.0,-996.0,-1.0
1634976033.221463,0.0,1.0,4.0,0.0,0.0,0.0,54.0,0.0,19.0,950.96,-7.0,-21.0,-1000.0,-1.0
1634976033.337536,0.0,1.0,4.0,0.0,0.0,0.0,54.0,0.0,19.0,950.93,-8.0,-16.0,-1003.0,-1.0
1634976033.432702,0.0,1.0,4.0,0.0,0.0,0.0,54.0,0.0,19.0,950.89,-7.0,-28.0,-1000.0,-1.0
1634976033.530617,0.0,1.0,4.0,0.0,0.0,0.0,54.0,0.0,19.0,950.88,-6.0,-22.0,-1000.0,-1.0
1634976033.641476,0.0,1.0,4.0,0.0,0.0,0.0,54.0,0.0,19.0,950.95,-8.0,-17.0,-996.0,-1.0
1634976033.745225,0.0,1.0,4.0,0.0,0.0,0.0,54.0,0.0,19.0,950.94,-6.0,-22.0,-997.0,-1.0
1634976033.837873,0.0,1.0,4.0,0.0,0.0,0.0,54.0,0.0,19.0,950.86,-9.0,-19.0,-1005.0,-1.0
1634976033.942064,0.0,1.0,4.0,0.0,0.0,0.0,54.0,0.0,19.0,950.95,-8.0,-18.0,-1015.0,-1.0
1634976034.037417,0.0,1.0,4.0,0.0,0.0,0.0,54.0,0.0,19.0,950.87,-13.0,-15.0,-1004.0,-1.0
1634976034.146693,0.0,1.0,4.0,0.0,0.0,0.0,54.0,0.0,18.0,950.91,-3.0,-20.0,-999.0,-1.0
1634976034.252593,0.0,1.0,4.0,0.0,0.0,0.0,54.0,0.0,18.0,950.93,-7.0,-23.0,-999.0,-1.0
1634976034.345178,0.0,1.0,4.0,0.0,0.0,0.0,54.0,0.0,18.0,950.92,-7.0,-17.0,-1004.0,-1.0
1634976034.458844,0.0,1.0,4.0,0.0,0.0,0.0,54.0,0.0,18.0,950.93,-9.0,-19.0,-1011.0,-1.0
1634976034.559893,0.0,1.0,4.0,0.0,0.0,0.0,54.0,0.0,18.0,950.9,-9.0,-25.0,-998.0,-1.0
1634976034.654766,0.0,1.0,4.0,0.0,0.0,0.0,54.0,0.0,18.0,950.92,-4.0,-14.0,-998.0,-1.0
1634976034.76493,0.0,1.0,4.0,0.0,0.0,0.0,54.0,0.0,18.0,950.92,-4.0,-21.0,-999.0,-1.0
1634976034.866959,0.0,1.0,4.0,0.0,0.0,0.0,54.0,0.0,18.0,950.9,-7.0,-22.0,-998.0,-1.0
1634976034.953637,0.0,1.0,4.0,0.0,0.0,0.0,54.0,0.0,18.0,950.93,-7.0,-18.0,-998.0,-1.0
1634976035.018198,0.0,1.0,4.0,0.0,0.0,0.0,54.0,0.0,18.0,950.87,-7.0,-26.0,-996.0,-1.0
1634976035.12024,0.0,1.0,4.0,0.0,0.0,0.0,54.0,0.0,18.0,950.84,-5.0,-14.0,-977.0,-1.0
1634976035.223941,0.0,1.0,4.0,0.0,0.0,0.0,55.0,0.0,18.0,950.88,0.0,-12.0,-985.0,-1.0
1634976035.326298,0.0,1.0,4.0,0.0,0.0,0.0,55.0,0.0,18.0,950.91,-8.0,-17.0,-1000.0,-1.0
1634976035.413129,0.0,1.0,4.0,0.0,0.0,0.0,55.0,0.0,18.0,950.88,-15.0,-27.0,-1018.0,-1.0
1634976035.524328,0.0,1.0,4.0,0.0,0.0,0.0,55.0,0.0,18.0,950.96,-10.0,-25.0,-1014.0,-1.0
1634976035.623186,0.0,1.0,4.0,0.0,0.0,0.0,55.0,0.0,18.0,950.86,-7.0,-19.0,-976.0,-1.0
1634976035.727413,0.0,1.0,4.0,0.0,0.0,0.0,55.0,0.0,18.0,950.87,-1.0,-16.0,-978.0,-1.0
1634976035.824035,0.0,1.0,4.0,0.0,0.0,0.0,55.0,0.0,18.0,950.9,-3.0,-14.0,-984.0,-1.0
1634976035.923915,0.0,1.0,4.0,0.0,0.0,0.0,55.0,0.0,18.0,950.92,-6.0,-18.0,-992.0,-1.0
1634976036.034848,0.0,1.0,4.0,0.0,0.0,0.0,55.0,0.0,18.0,950.94,-4.0,-19.0,-987.0,-1.0
1634976036.130166,0.0,1.0,4.0,0.0,0.0,0.0,55.0,0.0,17.0,950.9,-6.0,-17.0,-1004.0,-1.0
1634976036.241889,0.0,1.0,4.0,0.0,0.0,0.0,54.0,0.0,17.0,950.97,-7.0,-19.0,-995.0,-1.0
1634976036.339889,0.0,1.0,4.0,0.0,0.0,0.0,54.0,0.0,17.0,950.91,-3.0,-21.0,-998.0,-1.0
1634976036.441278,0.0,1.0,4.0,0.0,0.0,0.0,54.0,0.0,17.0,950.89,-5.0,-15.0,-992.0,-1.0
1634976036.542995,0.0,1.0,4.0,0.0,0.0,0.0,54.0,0.0,17.0,950.93,-4.0,-16.0,-996.0,-1.0
1634976036.638566,0.0,1.0,4.0,0.0,0.0,0.0,54.0,0.0,17.0,950.94,-6.0,-23.0,-1000.0,-1.0
1634976036.741975,0.0,1.0,4.0,0.0,0.0,0.0,54.0,0.0,17.0,950.91,-4.0,-20.0,-995.0,-1.0
1634976036.855902,0.0,1.0,4.0,0.0,0.0,0.0,54.0,0.0,17.0,950.96,-5.0,-15.0,-1000.0,-1.0
1634976036.948069,0.0,1.0,4.0,0.0,0.0,0.0,54.0,0.0,17.0,950.92,-6.0,-25.0,-996.0,-1.0
1634976037.058714,0.0,1.0,4.0,0.0,0.0,0.0,54.0,0.0,17.0,950.96,-4.0,-19.0,-1006.0,-1.0
1634976037.161368,0.0,1.0,4.0,0.0,0.0,0.0,54.0,0.0,17.0,950.92,-8.0,-20.0,-984.0,-1.0
1634976037.256862,0.0,1.0,4.0,0.0,0.0,0.0,54.0,0.0,17.0,950.95,-3.0,-25.0,-989.0,-1.0
1634976037.356931,0.0,1.0,4.0,0.0,0.0,0.0,54.0,0.0,17.0,950.97,-6.0,-17.0,-994.0,-1.0
1634976037.464503,0.0,1.0,4.0,0.0,0.0,0.0,54.0,0.0,17.0,950.99,-8.0,-19.0,-999.0,-1.0
1634976037.561697,0.0,1.0,4.0,0.0,0.0,0.0,54.0,0.0,17.0,950.9,-8.0,-23.0,-995.0,-1.0
1634976037.657238,0.0,1.0,4.0,0.0,0.0,0.0,54.0,0.0,17.0,950.81,-5.0,-16.0,-999.0,-1.0
1634976037.772171,0.0,1.0,4.0,0.0,0.0,0.0,54.0,0.0,17.0,950.93,-7.0,-18.0,-996.0,-1.0
1634976037.876386,0.0,1.0,4.0,0.0,0.0,0.0,54.0,0.0,17.0,950.93,-4.0,-21.0,-994.0,-1.0
1634976037.966774,0.0,1.0,4.0,0.0,0.0,0.0,54.0,0.0,17.0,950.96,-8.0,-20.0,-988.0,-1.0
1634976038.069071,0.0,1.0,4.0,0.0,0.0,0.0,54.0,0.0,17.0,950.91,-4.0,-19.0,-1003.0,-1.0
1634976038.119022,0.0,1.0,4.0,0.0,0.0,0.0,54.0,0.0,16.0,950.94,-13.0,-23.0,-988.0,-1.0
1634976038.27721,0.0,1.0,4.0,0.0,0.0,0.0,54.0,0.0,16.0,950.89,-6.0,-19.0,-994.0,-1.0
1634976038.335731,0.0,1.0,4.0,0.0,0.0,0.0,54.0,0.0,16.0,950.94,-6.0,-21.0,-1014.0,-1.0
1634976038.433628,0.0,1.0,4.0,0.0,0.0,0.0,54.0,0.0,16.0,950.91,-12.0,-22.0,-1011.0,-1.0
1634976038.533542,0.0,1.0,4.0,0.0,0.0,0.0,54.0,0.0,16.0,950.94,-4.0,-20.0,-1013.0,-1.0
1634976038.640734,0.0,1.0,4.0,0.0,0.0,0.0,54.0,0.0,16.0,950.92,-6.0,-20.0,-1007.0,-1.0
1634976038.741787,0.0,1.0,4.0,0.0,0.0,0.0,54.0,0.0,16.0,950.97,-8.0,-17.0,-994.0,-1.0
1634976038.836833,0.0,1.0,4.0,0.0,0.0,0.0,54.0,0.0,16.0,950.96,0.0,-8.0,-986.0,-1.0
1634976038.938168,0.0,1.0,4.0,0.0,0.0,0.0,54.0,0.0,16.0,950.94,-7.0,-21.0,-981.0,-1.0
1634976039.033468,0.0,1.0,4.0,0.0,0.0,0.0,54.0,0.0,16.0,950.95,-7.0,-27.0,-987.0,-1.0
1634976039.148127,0.0,1.0,4.0,0.0,0.0,0.0,54.0,0.0,16.0,950.87,-4.0,-9.0,-991.0,-1.0
1634976039.25244,0.0,1.0,4.0,0.0,0.0,0.0,54.0,0.0,16.0,950.97,-10.0,-23.0,-1001.0,-1.0
1634976039.355361,0.0,1.0,4.0,0.0,0.0,0.0,54.0,0.0,16.0,950.95,-7.0,-21.0,-1003.0,-1.0
1634976039.448795,0.0,1.0,4.0,0.0,0.0,0.0,54.0,0.0,16.0,951.0,-5.0,-15.0,-1002.0,-1.0
1634976039.558066,0.0,1.0,4.0,0.0,0.0,0.0,54.0,0.0,16.0,950.95,-10.0,-20.0,-1013.0,-1.0
1634976039.653516,0.0,1.0,4.0,0.0,0.0,0.0,54.0,0.0,16.0,950.86,-4.0,-23.0,-1006.0,-1.0
1634976039.766113,0.0,1.0,4.0,0.0,0.0,0.0,54.0,0.0,16.0,950.96,-10.0,-20.0,-1018.0,-1.0
1634976039.854521,0.0,1.0,4.0,0.0,0.0,0.0,54.0,0.0,16.0,950.95,-9.0,-18.0,-1010.0,-1.0
1634976039.960919,0.0,1.0,4.0,0.0,0.0,0.0,54.0,0.0,16.0,950.97,-11.0,-23.0,-1008.0,-1.0
1634976040.063207,0.0,1.0,4.0,0.0,0.0,0.0,54.0,0.0,16.0,950.93,-6.0,-19.0,-998.0,-1.0
1634976040.156254,0.0,1.0,4.0,0.0,0.0,0.0,54.0,0.0,15.0,950.89,-6.0,-16.0,-999.0,-1.0
1634976040.265627,0.0,1.0,4.0,0.0,0.0,0.0,55.0,0.0,15.0,950.91,-5.0,-20.0,-988.0,-1.0
1634976040.374981,0.0,1.0,4.0,0.0,0.0,0.0,55.0,0.0,15.0,950.9,-3.0,-16.0,-996.0,-1.0
1634976040.475954,0.0,1.0,4.0,0.0,0.0,0.0,55.0,0.0,15.0,950.93,-6.0,-19.0,-990.0,-1.0
1634976040.573557,0.0,1.0,4.0,0.0,0.0,0.0,55.0,0.0,15.0,950.97,-9.0,-20.0,-992.0,-1.0
1634976040.680791,0.0,1.0,4.0,0.0,0.0,0.0,55.0,0.0,15.0,950.9,-6.0,-19.0,-1001.0,-1.0
1634976040.777736,0.0,1.0,4.0,0.0,0.0,0.0,55.0,0.0,15.0,950.94,-7.0,-19.0,-994.0,-1.0
1634976040.873031,0.0,1.0,4.0,0.0,0.0,0.0,55.0,0.0,15.0,950.93,-6.0,-15.0,-988.0,-1.0
1634976040.974495,0.0,1.0,4.0,0.0,0.0,0.0,55.0,0.0,15.0,950.94,-1.0,-20.0,-987.0,-1.0
1634976041.083539,0.0,1.0,4.0,0.0,0.0,0.0,55.0,0.0,15.0,950.94,-5.0,-23.0,-980.0,-1.0
1634976041.179152,0.0,1.0,4.0,0.0,0.0,0.0,55.0,0.0,15.0,950.97,-4.0,-17.0,-997.0,-1.0
1634976041.283383,0.0,1.0,4.0,0.0,0.0,0.0,55.0,0.0,15.0,950.94,-4.0,-19.0,-1000.0,-1.0
1634976041.386932,0.0,1.0,4.0,0.0,0.0,0.0,55.0,0.0,15.0,950.97,-12.0,-20.0,-988.0,-1.0
1634976041.496882,0.0,1.0,4.0,0.0,0.0,0.0,55.0,0.0,15.0,951.01,3.0,-19.0,-992.0,-1.0
1634976041.597599,0.0,1.0,4.0,0.0,0.0,0.0,55.0,0.0,15.0,951.0,-12.0,-22.0,-994.0,-1.0
1634976041.694879,0.0,1.0,4.0,0.0,0.0,0.0,55.0,0.0,15.0,951.0,-5.0,-13.0,-999.0,-1.0
1634976041.802314,0.0,1.0,4.0,0.0,0.0,0.0,55.0,0.0,15.0,950.91,-7.0,-21.0,-1004.0,-1.0
1634976041.90361,0.0,1.0,4.0,0.0,0.0,0.0,55.0,0.0,15.0,950.99,-10.0,-24.0,-1012.0,-1.0
1634976041.954972,0.0,1.0,4.0,0.0,0.0,0.0,55.0,0.0,15.0,950.98,-7.0,-19.0,-1025.0,-1.0
1634976042.057007,0.0,1.0,4.0,0.0,0.0,0.0,55.0,0.0,15.0,950.97,-11.0,-30.0,-1018.0,-1.0
1634976042.152816,0.0,1.0,4.0,0.0,0.0,0.0,55.0,0.0,14.0,950.92,-12.0,-18.0,-1005.0,-1.0
1634976042.263376,0.0,1.0,4.0,0.0,0.0,0.0,55.0,0.0,14.0,951.09,-6.0,-16.0,-996.0,-1.0
1634976042.363777,0.0,1.0,4.0,0.0,0.0,0.0,55.0,0.0,14.0,951.0,-4.0,-20.0,-999.0,-1.0
1634976042.464497,0.0,1.0,4.0,0.0,0.0,0.0,55.0,0.0,14.0,950.98,-7.0,-19.0,-988.0,-1.0
1634976042.566694,0.0,1.0,4.0,0.0,0.0,0.0,55.0,0.0,14.0,951.0,-2.0,-18.0,-996.0,-1.0
1634976042.669407,0.0,1.0,4.0,0.0,0.0,0.0,55.0,0.0,14.0,950.96,-8.0,-24.0,-992.0,-1.0
1634976042.768695,0.0,1.0,4.0,0.0,0.0,0.0,55.0,0.0,14.0,950.98,-8.0,-20.0,-1010.0,-1.0
1634976042.873052,0.0,1.0,4.0,0.0,0.0,0.0,55.0,0.0,14.0,950.96,-9.0,-23.0,-991.0,-1.0
1634976042.975456,0.0,1.0,4.0,0.0,0.0,0.0,55.0,0.0,14.0,950.94,-8.0,-21.0,-991.0,-1.0
1634976043.077285,0.0,1.0,4.0,0.0,0.0,0.0,55.0,0.0,14.0,950.97,-6.0,-14.0,-993.0,-1.0
1634976043.17686,0.0,1.0,4.0,0.0,0.0,0.0,55.0,0.0,14.0,950.94,-8.0,-17.0,-1001.0,-1.0
1634976043.269332,0.0,1.0,4.0,0.0,0.0,0.0,55.0,0.0,14.0,950.95,-6.0,-22.0,-992.0,-1.0
1634976043.382648,0.0,1.0,4.0,0.0,0.0,0.0,55.0,0.0,14.0,950.93,-5.0,-18.0,-987.0,-1.0
1634976043.485442,0.0,1.0,4.0,0.0,0.0,0.0,55.0,0.0,14.0,950.98,-7.0,-21.0,-997.0,-1.0
1634976043.579555,0.0,1.0,4.0,0.0,0.0,0.0,55.0,0.0,14.0,950.94,-9.0,-23.0,-977.0,-1.0
1634976043.689464,0.0,1.0,4.0,0.0,0.0,0.0,55.0,0.0,14.0,950.99,-4.0,-12.0,-993.0,-1.0
1634976043.785707,0.0,1.0,4.0,0.0,0.0,0.0,55.0,0.0,14.0,951.0,-3.0,-11.0,-987.0,-1.0
1634976043.879607,0.0,1.0,4.0,0.0,0.0,0.0,55.0,0.0,14.0,950.92,-3.0,-23.0,-989.0,-1.0
1634976043.99516,0.0,1.0,4.0,0.0,0.0,0.0,55.0,0.0,14.0,950.53,-2.0,-23.0,-984.0,-1.0
