timestamp	pitch	roll	yaw	vgx	vgy	vgz	templ	temph	tof	h	bat	baro	time	agx	agy	agz	
1636893281.912565	
1636893281.961361	-1.0	0.0	-170.0	0.0	0.0	0.0	58.0	61.0	156.0	150.0	34.0	960.74	145.0	-69.0	0.0	-978.0	
1636893282.06479	5.0	0.0	-171.0	1.0	0.0	0.0	58.0	60.0	160.0	150.0	34.0	960.89	145.0	-88.0	-1.0	-1027.0	
1636893282.167777	7.0	0.0	-170.0	2.0	0.0	0.0	58.0	60.0	156.0	150.0	34.0	960.98	145.0	-49.0	-15.0	-1026.0	
1636893282.269735	7.0	0.0	-170.0	4.0	0.0	0.0	58.0	60.0	158.0	150.0	34.0	960.91	145.0	-36.0	-7.0	-1035.0	
1636893282.368959	6.0	0.0	-170.0	6.0	1.0	0.0	58.0	60.0	157.0	150.0	34.0	960.91	145.0	-42.0	-6.0	-1049.0	
1636893282.471618	0.0	0.0	-170.0	7.0	1.0	0.0	58.0	60.0	157.0	150.0	34.0	960.81	145.0	-3.0	-15.0	-1017.0	
1636893282.574274	-3.0	0.0	-170.0	7.0	1.0	0.0	58.0	60.0	158.0	150.0	34.0	960.85	145.0	10.0	-15.0	-1003.0	
1636893282.677783	-4.0	0.0	-171.0	7.0	1.0	0.0	58.0	60.0	159.0	150.0	34.0	960.92	145.0	-13.0	-5.0	-992.0	
1636893282.777769	-5.0	0.0	-171.0	6.0	1.0	0.0	58.0	60.0	160.0	150.0	34.0	960.86	146.0	-14.0	-11.0	-999.0	
1636893282.881622	-5.0	0.0	-171.0	5.0	1.0	0.0	58.0	60.0	159.0	150.0	34.0	961.0	146.0	-6.0	-28.0	-986.0	
1636893282.983504	-2.0	0.0	-171.0	5.0	1.0	0.0	58.0	60.0	160.0	150.0	34.0	961.04	146.0	-4.0	-31.0	-965.0	
1636893283.086202	4.0	1.0	-171.0	5.0	1.0	0.0	59.0	60.0	160.0	150.0	34.0	960.95	146.0	-19.0	-18.0	-988.0	
1636893283.186877	7.0	0.0	-171.0	6.0	1.0	0.0	59.0	60.0	163.0	150.0	34.0	961.06	146.0	-18.0	-11.0	-998.0	
1636893283.28988	7.0	0.0	-171.0	8.0	1.0	0.0	59.0	60.0	161.0	150.0	34.0	960.95	146.0	-16.0	11.0	-1027.0	
1636893283.390658	7.0	0.0	-171.0	9.0	1.0	0.0	59.0	60.0	162.0	150.0	34.0	960.92	146.0	18.0	-7.0	-1000.0	
1636893283.493013	7.0	0.0	-171.0	10.0	1.0	0.0	59.0	60.0	164.0	150.0	34.0	960.98	146.0	1.0	9.0	-995.0	
1636893283.594683	7.0	0.0	-171.0	12.0	2.0	0.0	59.0	60.0	162.0	150.0	34.0	960.96	146.0	31.0	-13.0	-986.0	
1636893283.694831	7.0	0.0	-171.0	13.0	2.0	0.0	59.0	60.0	162.0	150.0	34.0	960.98	146.0	27.0	1.0	-990.0	
1636893283.796959	7.0	0.0	-171.0	14.0	2.0	0.0	59.0	60.0	163.0	150.0	34.0	961.1	147.0	21.0	6.0	-997.0	
1636893283.900826	7.0	0.0	-171.0	15.0	2.0	0.0	59.0	60.0	161.0	150.0	33.0	961.08	147.0	44.0	12.0	-1003.0	
1636893284.001225	7.0	0.0	-171.0	16.0	2.0	0.0	59.0	60.0	162.0	150.0	33.0	961.02	147.0	66.0	3.0	-986.0	
1636893284.102059	7.0	0.0	-171.0	16.0	2.0	0.0	59.0	60.0	161.0	150.0	33.0	961.08	147.0	62.0	7.0	-996.0	
1636893284.205548	7.0	0.0	-171.0	17.0	2.0	0.0	59.0	60.0	158.0	150.0	33.0	961.04	147.0	62.0	-3.0	-992.0	
1636893284.308505	7.0	0.0	-171.0	18.0	2.0	0.0	59.0	60.0	159.0	150.0	33.0	961.1	147.0	74.0	2.0	-1005.0	
1636893284.411096	7.0	0.0	-171.0	19.0	2.0	0.0	59.0	60.0	160.0	150.0	33.0	961.11	147.0	53.0	8.0	-1016.0	
1636893284.512648	7.0	0.0	-171.0	20.0	2.0	0.0	59.0	60.0	158.0	150.0	33.0	961.08	147.0	66.0	10.0	-1029.0	
1636893284.615781	7.0	0.0	-170.0	20.0	2.0	0.0	59.0	60.0	160.0	150.0	33.0	960.99	147.0	72.0	11.0	-995.0	
1636893284.716299	7.0	0.0	-170.0	21.0	2.0	0.0	59.0	60.0	159.0	150.0	33.0	960.99	147.0	85.0	2.0	-1006.0	
1636893284.81785	7.0	0.0	-170.0	21.0	3.0	0.0	59.0	60.0	159.0	150.0	33.0	961.02	148.0	90.0	-2.0	-976.0	
1636893284.92111	7.0	0.0	-170.0	22.0	3.0	0.0	59.0	60.0	158.0	150.0	33.0	961.01	148.0	103.0	-8.0	-1008.0	
1636893285.020261	7.0	0.0	-170.0	22.0	3.0	0.0	59.0	60.0	160.0	150.0	33.0	961.0	148.0	103.0	1.0	-998.0	
1636893285.124945	7.0	-1.0	-170.0	23.0	3.0	0.0	59.0	61.0	159.0	150.0	33.0	960.94	148.0	105.0	0.0	-1005.0	
1636893285.22751	0.0	0.0	-170.0	23.0	3.0	0.0	59.0	61.0	159.0	150.0	33.0	961.14	148.0	107.0	19.0	-1008.0	
1636893285.326998	-5.0	-1.0	-170.0	21.0	3.0	0.0	59.0	61.0	157.0	150.0	33.0	960.97	148.0	105.0	29.0	-980.0	
1636893285.428843	-6.0	-1.0	-170.0	20.0	2.0	0.0	59.0	61.0	159.0	150.0	33.0	961.06	148.0	88.0	12.0	-1009.0	
1636893285.53139	-7.0	-1.0	-170.0	18.0	2.0	0.0	59.0	61.0	158.0	150.0	33.0	961.03	148.0	81.0	19.0	-1015.0	
1636893285.631976	-7.0	-1.0	-170.0	16.0	2.0	0.0	59.0	61.0	160.0	150.0	33.0	961.0	148.0	66.0	10.0	-1009.0	
1636893285.737291	-7.0	0.0	-170.0	14.0	2.0	0.0	59.0	61.0	160.0	150.0	33.0	961.0	149.0	59.0	5.0	-1014.0	
1636893285.836829	-6.0	0.0	-170.0	13.0	2.0	0.0	59.0	61.0	159.0	150.0	33.0	960.94	149.0	39.0	-1.0	-1012.0	
1636893285.890765	-6.0	0.0	-170.0	11.0	2.0	0.0	59.0	61.0	159.0	150.0	33.0	961.01	149.0	24.0	8.0	-1031.0	
1636893285.992517	-6.0	0.0	-170.0	10.0	1.0	0.0	59.0	61.0	159.0	150.0	33.0	960.98	149.0	19.0	15.0	-1025.0	
1636893286.090948	-5.0	0.0	-170.0	9.0	1.0	0.0	59.0	61.0	158.0	150.0	33.0	961.03	149.0	10.0	0.0	-1004.0	
1636893286.193525	-5.0	0.0	-170.0	8.0	1.0	0.0	59.0	61.0	158.0	150.0	33.0	961.03	149.0	-2.0	7.0	-1006.0	
1636893286.298126	-5.0	0.0	-170.0	7.0	1.0	0.0	59.0	61.0	159.0	150.0	33.0	961.06	149.0	-1.0	7.0	-988.0	
1636893286.399362	-5.0	0.0	-170.0	6.0	1.0	0.0	59.0	61.0	159.0	150.0	33.0	961.02	149.0	-13.0	12.0	-1009.0	
1636893286.502143	-5.0	0.0	-170.0	6.0	0.0	0.0	59.0	61.0	160.0	150.0	33.0	961.05	149.0	-16.0	6.0	-999.0	
1636893286.605013	-4.0	0.0	-170.0	5.0	0.0	0.0	59.0	61.0	160.0	150.0	33.0	960.99	149.0	-25.0	7.0	-998.0	
1636893286.703928	-4.0	0.0	-170.0	4.0	0.0	0.0	59.0	61.0	160.0	150.0	33.0	961.09	150.0	-16.0	6.0	-1008.0	
1636893286.807683	-4.0	0.0	-170.0	4.0	0.0	0.0	59.0	61.0	159.0	150.0	33.0	961.01	150.0	-24.0	7.0	-986.0	
1636893286.914812	-4.0	0.0	-170.0	3.0	0.0	0.0	59.0	61.0	160.0	150.0	33.0	961.03	150.0	-36.0	8.0	-1000.0	
1636893287.010691	-4.0	0.0	-170.0	3.0	0.0	0.0	59.0	61.0	159.0	150.0	33.0	961.04	150.0	-22.0	8.0	-999.0	
1636893287.114015	-3.0	0.0	-170.0	3.0	0.0	0.0	58.0	60.0	160.0	150.0	33.0	961.03	150.0	-30.0	15.0	-1003.0	
1636893287.216406	-3.0	0.0	-170.0	2.0	0.0	0.0	58.0	60.0	160.0	150.0	33.0	961.07	150.0	-38.0	14.0	-1003.0	
1636893287.318478	-4.0	0.0	-170.0	2.0	0.0	0.0	58.0	60.0	161.0	150.0	33.0	961.02	150.0	-44.0	16.0	-1004.0	
1636893287.418508	-7.0	0.0	-170.0	2.0	0.0	0.0	58.0	60.0	161.0	150.0	33.0	961.02	150.0	-34.0	7.0	-990.0	
1636893287.524519	-7.0	0.0	-170.0	1.0	0.0	0.0	58.0	60.0	162.0	150.0	33.0	960.97	150.0	-53.0	19.0	-1016.0	
1636893287.623949	-7.0	0.0	-170.0	0.0	0.0	0.0	58.0	60.0	163.0	150.0	33.0	960.98	150.0	-55.0	15.0	-1017.0	
1636893287.722883	-7.0	0.0	-170.0	0.0	0.0	0.0	58.0	60.0	164.0	150.0	33.0	961.02	151.0	-57.0	16.0	-999.0	
1636893287.826505	-7.0	0.0	-170.0	-1.0	0.0	0.0	58.0	60.0	163.0	150.0	33.0	960.94	151.0	-56.0	12.0	-1005.0	
1636893287.928326	-7.0	0.0	-170.0	-1.0	0.0	0.0	58.0	60.0	161.0	150.0	33.0	960.94	151.0	-65.0	22.0	-985.0	
1636893288.029761	-7.0	0.0	-171.0	-2.0	0.0	0.0	58.0	60.0	164.0	150.0	33.0	960.95	151.0	-71.0	19.0	-978.0	
1636893288.136023	-7.0	0.0	-171.0	-3.0	0.0	0.0	59.0	61.0	162.0	150.0	33.0	960.84	151.0	-70.0	1.0	-1016.0	
1636893288.238107	-7.0	0.0	-171.0	-3.0	0.0	0.0	59.0	61.0	162.0	150.0	33.0	960.78	151.0	-89.0	12.0	-1006.0	
1636893288.334804	-7.0	0.0	-171.0	-4.0	-1.0	0.0	59.0	61.0	164.0	150.0	33.0	960.86	151.0	-81.0	-4.0	-965.0	
1636893288.439742	-7.0	0.0	-171.0	-4.0	0.0	0.0	59.0	61.0	164.0	150.0	33.0	960.68	151.0	-69.0	-36.0	-972.0	
1636893288.539164	-7.0	0.0	-171.0	-5.0	0.0	0.0	59.0	61.0	165.0	150.0	33.0	960.75	151.0	-93.0	-14.0	-998.0	
1636893288.642318	-7.0	0.0	-171.0	-6.0	0.0	0.0	59.0	61.0	163.0	150.0	33.0	960.69	151.0	-95.0	-23.0	-1009.0	
1636893288.744824	-7.0	0.0	-171.0	-6.0	0.0	0.0	59.0	61.0	165.0	150.0	33.0	960.62	152.0	-91.0	-19.0	-1026.0	
1636893288.848649	-7.0	0.0	-171.0	-7.0	0.0	0.0	59.0	61.0	164.0	150.0	33.0	960.59	152.0	-115.0	-9.0	-1019.0	
1636893288.948845	-7.0	0.0	-171.0	-7.0	0.0	0.0	59.0	61.0	164.0	150.0	32.0	960.58	152.0	-114.0	-8.0	-977.0	
1636893289.051711	-7.0	0.0	-171.0	-7.0	0.0	0.0	59.0	61.0	163.0	150.0	32.0	960.66	152.0	-109.0	-12.0	-990.0	
1636893289.154276	-7.0	1.0	-171.0	-7.0	0.0	0.0	58.0	61.0	164.0	150.0	32.0	960.75	152.0	-127.0	9.0	-996.0	
1636893289.253546	-6.0	1.0	-171.0	-7.0	0.0	0.0	58.0	61.0	165.0	150.0	32.0	960.66	152.0	-108.0	10.0	-992.0	
1636893289.356134	-4.0	0.0	-171.0	-7.0	-1.0	0.0	58.0	61.0	162.0	150.0	32.0	960.6	152.0	-136.0	4.0	-1010.0	
1636893289.460645	-6.0	0.0	-171.0	-7.0	-1.0	0.0	58.0	61.0	164.0	150.0	32.0	960.62	152.0	-109.0	3.0	-968.0	
1636893289.559901	-7.0	0.0	-170.0	-7.0	-1.0	0.0	58.0	61.0	164.0	150.0	32.0	960.68	152.0	-105.0	-6.0	-982.0	
1636893289.662177	-7.0	0.0	-170.0	-7.0	0.0	0.0	58.0	61.0	162.0	150.0	32.0	960.52	152.0	-113.0	-20.0	-998.0	
1636893289.715544	-7.0	0.0	-170.0	-7.0	0.0	0.0	58.0	61.0	164.0	150.0	32.0	960.61	153.0	-118.0	-21.0	-989.0	
1636893289.817543	-7.0	0.0	-170.0	-8.0	0.0	0.0	58.0	61.0	163.0	150.0	32.0	960.47	153.0	-123.0	0.0	-971.0	
1636893289.918995	-7.0	0.0	-170.0	-8.0	0.0	0.0	58.0	61.0	165.0	150.0	32.0	960.48	153.0	-118.0	-8.0	-980.0	
1636893290.019118	-7.0	0.0	-170.0	-8.0	0.0	0.0	58.0	61.0	164.0	150.0	32.0	960.49	153.0	-127.0	3.0	-987.0	
1636893290.12383	-7.0	0.0	-170.0	-8.0	0.0	0.0	58.0	61.0	164.0	150.0	32.0	960.51	153.0	-144.0	5.0	-990.0	
1636893290.225355	-7.0	0.0	-170.0	-8.0	-1.0	0.0	58.0	61.0	165.0	150.0	32.0	960.6	153.0	-125.0	4.0	-1001.0	
1636893290.326357	-7.0	0.0	-171.0	-8.0	-1.0	0.0	58.0	61.0	165.0	150.0	32.0	960.54	153.0	-137.0	-2.0	-983.0	
1636893290.4279	-8.0	0.0	-171.0	-8.0	0.0	0.0	58.0	61.0	166.0	150.0	32.0	960.54	153.0	-118.0	-22.0	-997.0	
1636893290.530015	-7.0	0.0	-170.0	-9.0	0.0	0.0	58.0	61.0	164.0	150.0	32.0	960.45	153.0	-119.0	-19.0	-984.0	
1636893290.631132	-7.0	0.0	-170.0	-9.0	0.0	0.0	58.0	61.0	165.0	150.0	32.0	960.52	153.0	-112.0	-16.0	-1000.0	
1636893290.73269	-7.0	0.0	-170.0	-9.0	0.0	0.0	58.0	61.0	164.0	150.0	32.0	960.43	154.0	-127.0	-6.0	-991.0	
1636893290.835613	-7.0	0.0	-170.0	-9.0	0.0	0.0	58.0	61.0	164.0	150.0	32.0	960.53	154.0	-147.0	-1.0	-1006.0	
1636893290.939142	-7.0	0.0	-170.0	-9.0	0.0	0.0	58.0	61.0	163.0	150.0	32.0	960.55	154.0	-119.0	-19.0	-970.0	
1636893291.040559	-7.0	0.0	-170.0	-9.0	0.0	0.0	58.0	61.0	164.0	150.0	32.0	960.48	154.0	-126.0	-29.0	-1003.0	
1636893291.143874	-7.0	0.0	-170.0	-9.0	0.0	0.0	58.0	61.0	162.0	150.0	32.0	960.43	154.0	-135.0	4.0	-973.0	
1636893291.244318	-7.0	0.0	-171.0	-9.0	0.0	0.0	58.0	61.0	162.0	150.0	32.0	960.36	154.0	-132.0	-8.0	-1018.0	
1636893291.346369	-7.0	0.0	-170.0	-9.0	0.0	0.0	58.0	61.0	164.0	150.0	32.0	960.38	154.0	-118.0	-27.0	-1003.0	
1636893291.448367	-7.0	0.0	-170.0	-10.0	0.0	0.0	58.0	61.0	162.0	150.0	32.0	960.35	154.0	-135.0	-13.0	-983.0	
1636893291.550552	-7.0	0.0	-171.0	-10.0	0.0	0.0	58.0	61.0	163.0	150.0	32.0	960.47	154.0	-134.0	-11.0	-978.0	
1636893291.650904	-7.0	0.0	-171.0	-10.0	0.0	0.0	58.0	61.0	163.0	150.0	32.0	960.43	154.0	-139.0	-14.0	-979.0	
1636893291.754956	-7.0	0.0	-171.0	-10.0	0.0	0.0	58.0	61.0	163.0	150.0	32.0	960.45	155.0	-148.0	-21.0	-1008.0	
1636893291.856453	-7.0	1.0	-170.0	-10.0	0.0	0.0	58.0	61.0	162.0	150.0	31.0	960.36	155.0	-160.0	12.0	-963.0	
1636893291.957791	-7.0	1.0	-171.0	-10.0	0.0	0.0	58.0	61.0	162.0	150.0	31.0	960.29	155.0	-146.0	0.0	-984.0	
1636893292.062049	-7.0	0.0	-171.0	-10.0	0.0	0.0	58.0	61.0	161.0	150.0	31.0	960.31	155.0	-132.0	3.0	-986.0	
1636893292.164783	-7.0	0.0	-171.0	-10.0	0.0	0.0	59.0	61.0	161.0	150.0	31.0	960.28	155.0	-131.0	0.0	-1016.0	
1636893292.265481	-7.0	0.0	-171.0	-10.0	0.0	0.0	59.0	61.0	162.0	150.0	31.0	960.34	155.0	-130.0	-14.0	-1003.0	
1636893292.365038	-7.0	0.0	-170.0	-10.0	0.0	0.0	59.0	61.0	162.0	150.0	31.0	960.3	155.0	-132.0	-3.0	-1003.0	
1636893292.470996	-7.0	0.0	-171.0	-10.0	0.0	0.0	59.0	61.0	161.0	150.0	31.0	960.26	155.0	-143.0	1.0	-1006.0	
1636893292.571527	-7.0	0.0	-171.0	-10.0	0.0	0.0	59.0	61.0	161.0	150.0	31.0	960.29	155.0	-141.0	-6.0	-1009.0	
1636893292.674247	-6.0	0.0	-171.0	-10.0	0.0	0.0	59.0	61.0	162.0	150.0	31.0	960.36	155.0	-140.0	-13.0	-1017.0	
1636893292.773462	-7.0	0.0	-171.0	-10.0	0.0	0.0	59.0	61.0	161.0	150.0	31.0	960.54	156.0	-147.0	-29.0	-997.0	
1636893292.874891	-7.0	0.0	-170.0	-10.0	0.0	0.0	59.0	61.0	162.0	150.0	31.0	960.16	156.0	-150.0	-15.0	-1023.0	
1636893292.979663	-7.0	0.0	-170.0	-10.0	0.0	0.0	59.0	61.0	163.0	150.0	31.0	960.37	156.0	-148.0	-22.0	-952.0	
1636893293.078915	-7.0	0.0	-171.0	-9.0	0.0	0.0	59.0	61.0	165.0	150.0	31.0	960.27	156.0	-185.0	-16.0	-994.0	
1636893293.181152	-7.0	1.0	-171.0	-9.0	0.0	0.0	59.0	61.0	164.0	150.0	31.0	960.38	156.0	-155.0	8.0	-981.0	
1636893293.2844	-7.0	1.0	-171.0	-9.0	0.0	0.0	59.0	61.0	162.0	150.0	31.0	960.19	156.0	-156.0	9.0	-980.0	
1636893293.387076	-8.0	1.0	-171.0	-9.0	0.0	0.0	59.0	61.0	166.0	150.0	31.0	960.34	156.0	-144.0	13.0	-977.0	
1636893293.486845	-8.0	0.0	-171.0	-9.0	0.0	0.0	59.0	61.0	163.0	150.0	31.0	960.34	156.0	-155.0	-9.0	-1006.0	
1636893293.590499	-8.0	0.0	-171.0	-9.0	0.0	0.0	59.0	61.0	163.0	150.0	31.0	960.32	156.0	-137.0	-29.0	-1011.0	
1636893293.694106	-8.0	0.0	-170.0	-9.0	0.0	0.0	59.0	61.0	164.0	150.0	31.0	960.37	156.0	-136.0	-14.0	-996.0	
1636893293.79602	-8.0	0.0	-171.0	-9.0	0.0	0.0	59.0	61.0	164.0	150.0	31.0	960.41	157.0	-137.0	-12.0	-993.0	
1636893293.899703	-8.0	0.0	-171.0	-9.0	0.0	0.0	59.0	61.0	161.0	150.0	31.0	960.42	157.0	-136.0	-21.0	-993.0	
1636893294.00087	-7.0	0.0	-170.0	-9.0	0.0	0.0	59.0	61.0	163.0	150.0	31.0	960.29	157.0	-155.0	-9.0	-1020.0	
1636893294.048853	-7.0	0.0	-170.0	-9.0	0.0	0.0	59.0	61.0	162.0	150.0	31.0	960.3	157.0	-156.0	-22.0	-986.0	
1636893294.202256	-7.0	0.0	-170.0	-9.0	0.0	0.0	59.0	61.0	164.0	150.0	31.0	960.41	157.0	-157.0	-24.0	-1011.0	
1636893294.25418	-7.0	1.0	-170.0	-9.0	0.0	0.0	59.0	61.0	161.0	150.0	31.0	960.49	157.0	-156.0	-25.0	-968.0	
1636893294.357265	-7.0	2.0	-171.0	-9.0	0.0	0.0	59.0	61.0	163.0	150.0	31.0	960.46	157.0	-130.0	-24.0	-988.0	
1636893294.457066	-7.0	2.0	-171.0	-8.0	0.0	0.0	59.0	61.0	161.0	150.0	31.0	960.47	157.0	-132.0	-28.0	-1026.0	
1636893294.558485	-7.0	3.0	-171.0	-8.0	0.0	0.0	59.0	61.0	162.0	150.0	31.0	960.41	157.0	-125.0	-27.0	-977.0	
1636893294.65958	-2.0	3.0	-171.0	-8.0	0.0	0.0	59.0	61.0	161.0	150.0	31.0	960.35	157.0	-117.0	-32.0	-998.0	
1636893294.763488	7.0	2.0	-170.0	-7.0	0.0	0.0	59.0	61.0	160.0	150.0	31.0	960.45	158.0	-131.0	-30.0	-1039.0	
1636893294.867241	7.0	0.0	-170.0	-5.0	0.0	0.0	59.0	61.0	162.0	150.0	31.0	960.55	158.0	-107.0	-42.0	-1002.0	
1636893294.965643	7.0	1.0	-170.0	-2.0	0.0	0.0	59.0	61.0	160.0	150.0	31.0	960.5	158.0	-103.0	-22.0	-988.0	
1636893295.067633	6.0	0.0	-170.0	0.0	1.0	0.0	59.0	61.0	161.0	150.0	31.0	960.53	158.0	-81.0	-29.0	-1005.0	
1636893295.173401	6.0	0.0	-170.0	1.0	1.0	0.0	59.0	60.0	158.0	150.0	31.0	960.73	158.0	-59.0	-34.0	-1006.0	
1636893295.27379	6.0	1.0	-170.0	2.0	2.0	0.0	59.0	60.0	159.0	150.0	31.0	960.71	158.0	-51.0	-24.0	-1018.0	
1636893295.375833	6.0	1.0	-170.0	4.0	2.0	0.0	59.0	60.0	157.0	150.0	31.0	960.76	158.0	-30.0	-35.0	-1042.0	
1636893295.479038	6.0	2.0	-170.0	6.0	2.0	0.0	59.0	60.0	158.0	150.0	31.0	960.77	158.0	-23.0	-28.0	-1021.0	
1636893295.578598	6.0	3.0	-170.0	7.0	2.0	0.0	59.0	60.0	157.0	150.0	31.0	960.74	158.0	-9.0	-26.0	-1013.0	
1636893295.683115	4.0	4.0	-170.0	8.0	2.0	0.0	59.0	60.0	158.0	150.0	31.0	960.76	158.0	1.0	-22.0	-1016.0	
1636893295.782694	0.0	3.0	-171.0	9.0	2.0	0.0	59.0	60.0	159.0	150.0	31.0	960.84	159.0	6.0	-21.0	-1012.0	
1636893295.884829	-3.0	2.0	-171.0	9.0	1.0	0.0	59.0	60.0	159.0	150.0	31.0	960.95	159.0	11.0	-18.0	-1002.0	
1636893295.990044	-4.0	1.0	-171.0	8.0	1.0	0.0	59.0	60.0	160.0	150.0	31.0	960.96	159.0	4.0	-30.0	-1002.0	
1636893296.091887	-5.0	1.0	-171.0	7.0	1.0	0.0	59.0	60.0	160.0	150.0	31.0	960.97	159.0	-8.0	-27.0	-1016.0	
1636893296.192383	-5.0	1.0	-170.0	7.0	1.0	0.0	57.0	61.0	159.0	150.0	31.0	961.01	159.0	-10.0	-11.0	-1013.0	
1636893296.295841	-5.0	1.0	-170.0	6.0	0.0	0.0	57.0	61.0	159.0	150.0	31.0	960.92	159.0	-20.0	-11.0	-991.0	
1636893296.397536	-5.0	1.0	-170.0	5.0	0.0	0.0	57.0	61.0	160.0	150.0	31.0	960.86	159.0	-29.0	-4.0	-1000.0	
1636893296.499387	-5.0	0.0	-170.0	5.0	0.0	0.0	57.0	61.0	158.0	150.0	31.0	960.84	159.0	-39.0	4.0	-1007.0	
1636893296.602046	-5.0	0.0	-170.0	4.0	0.0	0.0	57.0	61.0	160.0	150.0	31.0	960.92	159.0	-46.0	9.0	-998.0	
1636893296.702978	-5.0	0.0	-170.0	4.0	0.0	0.0	57.0	61.0	158.0	150.0	31.0	960.78	159.0	-36.0	-5.0	-1021.0	
1636893296.806317	-5.0	0.0	-171.0	3.0	0.0	0.0	57.0	61.0	159.0	150.0	31.0	960.86	160.0	-46.0	0.0	-1012.0	
1636893296.906542	-5.0	0.0	-171.0	3.0	0.0	0.0	57.0	61.0	161.0	150.0	31.0	960.86	160.0	-42.0	-7.0	-1009.0	
1636893297.008849	-5.0	0.0	-171.0	2.0	0.0	0.0	57.0	61.0	159.0	150.0	31.0	960.84	160.0	-42.0	-1.0	-1018.0	
1636893297.060778	-4.0	0.0	-171.0	2.0	0.0	0.0	57.0	61.0	158.0	150.0	31.0	960.81	160.0	-47.0	-13.0	-1023.0	
1636893297.212736	-2.0	0.0	-171.0	1.0	0.0	0.0	59.0	61.0	160.0	150.0	31.0	960.83	160.0	-39.0	-12.0	-1013.0	
1636893297.316211	4.0	0.0	-171.0	2.0	0.0	0.0	59.0	61.0	162.0	150.0	31.0	960.89	160.0	-29.0	-15.0	-993.0	
1636893297.418027	7.0	0.0	-171.0	3.0	0.0	0.0	59.0	61.0	163.0	150.0	31.0	960.94	160.0	-42.0	-25.0	-979.0	
1636893297.520278	7.0	0.0	-171.0	5.0	0.0	0.0	59.0	61.0	162.0	150.0	31.0	960.95	160.0	-46.0	-9.0	-1021.0	
1636893297.620673	7.0	0.0	-171.0	6.0	1.0	0.0	59.0	61.0	163.0	150.0	31.0	960.96	160.0	-38.0	-17.0	-1002.0	
1636893297.722065	7.0	0.0	-171.0	8.0	1.0	0.0	59.0	61.0	159.0	150.0	31.0	960.99	160.0	-28.0	-18.0	-993.0	
1636893297.825593	7.0	1.0	-171.0	9.0	1.0	0.0	59.0	61.0	161.0	150.0	31.0	961.06	161.0	-5.0	-14.0	-1021.0	
1636893297.874003	1.0	1.0	-171.0	10.0	1.0	0.0	59.0	61.0	161.0	150.0	31.0	961.05	161.0	-18.0	-14.0	-1016.0	
1636893297.9757	-2.0	1.0	-171.0	10.0	1.0	0.0	59.0	61.0	159.0	150.0	31.0	960.92	161.0	-8.0	1.0	-1025.0	
1636893298.077622	-4.0	1.0	-171.0	9.0	1.0	0.0	59.0	61.0	161.0	150.0	31.0	960.93	161.0	9.0	-17.0	-1012.0	
1636893298.231747	-5.0	0.0	-170.0	8.0	1.0	0.0	59.0	62.0	162.0	150.0	31.0	961.02	161.0	6.0	-21.0	-993.0	
1636893298.333685	-5.0	0.0	-170.0	7.0	1.0	0.0	59.0	62.0	162.0	150.0	31.0	961.05	161.0	-16.0	-12.0	-1001.0	
1636893298.383803	-5.0	0.0	-171.0	6.0	1.0	0.0	59.0	62.0	160.0	150.0	31.0	961.03	161.0	-21.0	-18.0	-971.0	
1636893298.489183	-5.0	0.0	-171.0	6.0	0.0	0.0	59.0	62.0	161.0	150.0	31.0	961.05	161.0	-32.0	-20.0	-999.0	
1636893298.58956	-4.0	0.0	-171.0	5.0	0.0	0.0	59.0	62.0	162.0	150.0	31.0	961.04	161.0	-37.0	0.0	-977.0	
1636893298.690124	1.0	0.0	-171.0	5.0	0.0	0.0	59.0	62.0	158.0	150.0	31.0	961.02	162.0	-14.0	-42.0	-983.0	
1636893298.792453	7.0	0.0	-171.0	6.0	1.0	0.0	59.0	62.0	163.0	150.0	31.0	961.0	162.0	-40.0	-16.0	-1004.0	
1636893298.896887	7.0	0.0	-171.0	7.0	1.0	0.0	59.0	62.0	162.0	150.0	31.0	960.95	162.0	-12.0	-39.0	-1002.0	
1636893298.995429	7.0	0.0	-171.0	9.0	1.0	0.0	59.0	62.0	159.0	150.0	31.0	960.96	162.0	-13.0	-28.0	-1029.0	
1636893299.097806	7.0	0.0	-171.0	10.0	2.0	0.0	59.0	62.0	161.0	150.0	31.0	961.02	162.0	-13.0	-18.0	-1027.0	
1636893299.200285	7.0	0.0	-171.0	11.0	2.0	0.0	59.0	60.0	160.0	150.0	31.0	961.08	162.0	-12.0	-3.0	-1016.0	
1636893299.3052	7.0	1.0	-171.0	12.0	2.0	0.0	59.0	60.0	160.0	150.0	31.0	960.99	162.0	28.0	-26.0	-996.0	
1636893299.40401	7.0	1.0	-171.0	13.0	2.0	0.0	59.0	60.0	159.0	150.0	31.0	960.97	162.0	10.0	8.0	-985.0	
1636893299.507877	7.0	0.0	-170.0	15.0	2.0	0.0	59.0	60.0	159.0	150.0	31.0	961.06	162.0	17.0	6.0	-992.0	
1636893299.607637	7.0	0.0	-170.0	15.0	2.0	0.0	59.0	60.0	158.0	150.0	31.0	961.07	162.0	29.0	0.0	-1005.0	
1636893299.710383	7.0	0.0	-170.0	16.0	2.0	0.0	59.0	60.0	159.0	150.0	31.0	961.05	163.0	35.0	0.0	-1022.0	
1636893299.814764	7.0	0.0	-170.0	17.0	2.0	0.0	59.0	60.0	159.0	150.0	31.0	961.06	163.0	29.0	3.0	-1014.0	
1636893299.913959	7.0	0.0	-170.0	18.0	2.0	0.0	59.0	60.0	158.0	150.0	30.0	961.07	163.0	49.0	0.0	-995.0	
1636893300.016166	7.0	0.0	-170.0	19.0	3.0	0.0	59.0	60.0	157.0	150.0	30.0	960.94	163.0	65.0	-25.0	-1002.0	
1636893300.120715	7.0	0.0	-170.0	19.0	3.0	0.0	59.0	60.0	159.0	150.0	30.0	961.08	163.0	59.0	-10.0	-994.0	
1636893300.221501	7.0	1.0	-170.0	20.0	3.0	0.0	58.0	61.0	157.0	150.0	30.0	961.02	163.0	66.0	-11.0	-1013.0	
1636893300.324691	0.0	1.0	-170.0	20.0	3.0	0.0	58.0	61.0	157.0	150.0	30.0	961.0	163.0	75.0	-8.0	-997.0	
1636893300.425651	-5.0	1.0	-171.0	19.0	3.0	0.0	58.0	61.0	153.0	150.0	30.0	961.03	163.0	79.0	-16.0	-1004.0	
1636893300.527098	-7.0	1.0	-171.0	18.0	2.0	0.0	58.0	61.0	151.0	140.0	30.0	960.96	163.0	54.0	-11.0	-1009.0	
1636893300.630764	-7.0	0.0	-171.0	16.0	2.0	0.0	58.0	61.0	159.0	140.0	30.0	960.97	163.0	47.0	-21.0	-1016.0	
1636893300.732534	-7.0	0.0	-171.0	15.0	2.0	0.0	58.0	61.0	157.0	140.0	30.0	960.98	164.0	20.0	-4.0	-1035.0	
1636893300.833447	-7.0	0.0	-171.0	13.0	2.0	0.0	58.0	61.0	157.0	140.0	30.0	960.92	164.0	6.0	-8.0	-1019.0	
1636893300.936623	-6.0	0.0	-171.0	12.0	1.0	0.0	58.0	61.0	158.0	140.0	30.0	961.0	164.0	-9.0	13.0	-1030.0	
1636893301.037877	-6.0	0.0	-171.0	11.0	1.0	0.0	58.0	61.0	155.0	140.0	30.0	960.95	164.0	0.0	0.0	-1022.0	
1636893301.142769	-7.0	0.0	-171.0	10.0	1.0	0.0	58.0	61.0	158.0	140.0	30.0	960.99	164.0	-13.0	-14.0	-991.0	
1636893301.242277	-7.0	0.0	-171.0	9.0	1.0	0.0	58.0	61.0	157.0	140.0	30.0	961.02	164.0	-8.0	-15.0	-985.0	
1636893301.349381	-7.0	0.0	-171.0	8.0	1.0	0.0	58.0	61.0	156.0	140.0	30.0	961.03	164.0	-29.0	0.0	-1003.0	
1636893301.443482	-7.0	0.0	-171.0	7.0	0.0	0.0	58.0	61.0	156.0	150.0	30.0	960.98	164.0	-36.0	-6.0	-1010.0	
1636893301.547385	-7.0	0.0	-171.0	6.0	0.0	0.0	58.0	61.0	158.0	150.0	30.0	960.91	164.0	-53.0	9.0	-1015.0	
1636893301.650205	-7.0	0.0	-171.0	5.0	0.0	0.0	58.0	61.0	156.0	150.0	30.0	960.94	164.0	-19.0	-20.0	-997.0	
1636893301.701471	-6.0	0.0	-171.0	5.0	0.0	0.0	58.0	61.0	157.0	140.0	30.0	960.92	165.0	-48.0	-7.0	-999.0	
1636893301.801308	-5.0	0.0	-171.0	4.0	0.0	0.0	58.0	61.0	156.0	150.0	30.0	960.95	165.0	-47.0	-5.0	-1005.0	
1636893301.903447	-5.0	0.0	-171.0	4.0	0.0	0.0	58.0	61.0	156.0	150.0	30.0	960.84	165.0	-66.0	-2.0	-1008.0	
1636893302.00669	-5.0	0.0	-171.0	3.0	0.0	0.0	58.0	61.0	158.0	150.0	30.0	960.83	165.0	-46.0	-5.0	-988.0	
1636893302.110042	-5.0	0.0	-170.0	3.0	0.0	0.0	58.0	61.0	155.0	150.0	30.0	960.85	165.0	-63.0	-1.0	-1012.0	
1636893302.260913	-5.0	0.0	-170.0	3.0	0.0	0.0	59.0	61.0	156.0	150.0	30.0	960.91	165.0	-56.0	0.0	-1008.0	
1636893302.362481	-4.0	0.0	-170.0	2.0	0.0	0.0	59.0	61.0	157.0	150.0	30.0	960.95	165.0	-58.0	-4.0	-990.0	
1636893302.412775	-4.0	0.0	-170.0	2.0	0.0	0.0	59.0	61.0	159.0	150.0	30.0	960.86	165.0	-64.0	10.0	-1011.0	
1636893302.515579	-4.0	0.0	-170.0	2.0	0.0	0.0	59.0	61.0	157.0	150.0	30.0	960.89	165.0	-62.0	-4.0	-990.0	
1636893302.619375	-4.0	0.0	-170.0	2.0	0.0	0.0	59.0	61.0	158.0	150.0	30.0	960.92	165.0	-67.0	3.0	-999.0	
1636893302.720747	-4.0	0.0	-170.0	1.0	0.0	0.0	59.0	61.0	157.0	150.0	30.0	960.88	166.0	-66.0	0.0	-1002.0	
1636893302.822067	-6.0	0.0	-170.0	1.0	0.0	0.0	59.0	61.0	156.0	150.0	30.0	960.93	166.0	-60.0	-5.0	-995.0	
1636893302.923926	-6.0	0.0	-170.0	0.0	0.0	0.0	59.0	61.0	158.0	150.0	29.0	960.84	166.0	-69.0	-3.0	-1003.0	
1636893303.025657	-5.0	0.0	-170.0	0.0	0.0	0.0	59.0	61.0	156.0	150.0	29.0	960.74	166.0	-81.0	-6.0	-1015.0	
1636893303.127268	-5.0	0.0	-171.0	0.0	0.0	0.0	59.0	61.0	156.0	150.0	29.0	960.69	166.0	-88.0	-9.0	-992.0	
1636893303.231444	-4.0	0.0	-171.0	0.0	0.0	0.0	59.0	60.0	157.0	150.0	29.0	960.67	166.0	-73.0	-11.0	-983.0	
1636893303.332435	-4.0	0.0	-171.0	0.0	0.0	0.0	59.0	60.0	156.0	150.0	29.0	960.7	166.0	-79.0	-11.0	-989.0	
1636893303.434643	-4.0	0.0	-171.0	0.0	0.0	0.0	59.0	60.0	158.0	150.0	29.0	960.75	166.0	-85.0	-16.0	-1004.0	
1636893303.534016	-7.0	0.0	-171.0	0.0	0.0	0.0	59.0	60.0	158.0	150.0	29.0	960.79	166.0	-52.0	-24.0	-963.0	
1636893303.638597	-7.0	0.0	-170.0	-1.0	0.0	0.0	59.0	60.0	158.0	150.0	29.0	960.73	166.0	-77.0	-24.0	-1018.0	
1636893303.738463	-7.0	0.0	-170.0	-1.0	0.0	0.0	59.0	60.0	158.0	150.0	29.0	960.67	167.0	-86.0	-11.0	-1008.0	
1636893303.841892	-7.0	0.0	-170.0	-2.0	0.0	0.0	59.0	60.0	158.0	150.0	29.0	960.7	167.0	-88.0	-8.0	-997.0	
1636893303.942594	-7.0	0.0	-170.0	-2.0	0.0	0.0	59.0	60.0	158.0	150.0	29.0	960.64	167.0	-94.0	0.0	-1020.0	
1636893304.04787	-7.0	0.0	-170.0	-3.0	0.0	0.0	59.0	60.0	157.0	150.0	29.0	960.63	167.0	-93.0	-2.0	-989.0	
1636893304.149757	-7.0	0.0	-170.0	-3.0	0.0	0.0	59.0	60.0	159.0	150.0	29.0	960.72	167.0	-91.0	-2.0	-1018.0	
1636893304.251231	-7.0	0.0	-170.0	-4.0	0.0	0.0	58.0	61.0	159.0	150.0	29.0	960.71	167.0	-103.0	0.0	-1012.0	
1636893304.352874	-7.0	0.0	-170.0	-4.0	0.0	0.0	58.0	61.0	159.0	150.0	29.0	960.64	167.0	-106.0	1.0	-996.0	
1636893304.456293	-7.0	0.0	-170.0	-5.0	0.0	0.0	58.0	61.0	160.0	150.0	29.0	960.6	167.0	-109.0	5.0	-1000.0	
1636893304.557684	-7.0	0.0	-170.0	-5.0	0.0	0.0	58.0	61.0	160.0	150.0	29.0	960.59	167.0	-114.0	0.0	-1011.0	
1636893304.659818	-7.0	0.0	-170.0	-5.0	0.0	0.0	58.0	61.0	159.0	150.0	29.0	960.63	167.0	-124.0	17.0	-1000.0	
1636893304.760814	-7.0	0.0	-171.0	-5.0	0.0	0.0	58.0	61.0	160.0	150.0	29.0	960.67	168.0	-124.0	14.0	-997.0	
1636893304.863901	-7.0	0.0	-171.0	-6.0	0.0	0.0	58.0	61.0	160.0	150.0	29.0	960.6	168.0	-126.0	7.0	-989.0	
1636893304.962555	-7.0	0.0	-170.0	-6.0	0.0	0.0	58.0	61.0	160.0	150.0	29.0	960.56	168.0	-132.0	-11.0	-1006.0	
1636893305.067096	-7.0	0.0	-170.0	-6.0	0.0	0.0	58.0	61.0	160.0	150.0	29.0	960.54	168.0	-117.0	-4.0	-984.0	
1636893305.169717	-7.0	0.0	-170.0	-6.0	0.0	0.0	58.0	61.0	159.0	150.0	29.0	960.61	168.0	-137.0	5.0	-1002.0	
1636893305.269559	-7.0	0.0	-170.0	-6.0	0.0	0.0	59.0	60.0	161.0	150.0	29.0	960.44	168.0	-121.0	0.0	-989.0	
1636893305.373423	-7.0	0.0	-170.0	-6.0	0.0	0.0	59.0	60.0	159.0	150.0	29.0	960.33	168.0	-138.0	5.0	-975.0	
1636893305.487242	-7.0	0.0	-170.0	-6.0	0.0	0.0	59.0	60.0	160.0	150.0	29.0	960.53	168.0	-135.0	-15.0	-993.0	
1636893305.576484	-7.0	0.0	-170.0	-6.0	0.0	0.0	59.0	60.0	160.0	150.0	29.0	960.41	168.0	-127.0	-10.0	-1006.0	
1636893305.679703	-7.0	0.0	-170.0	-7.0	0.0	0.0	59.0	60.0	161.0	150.0	29.0	960.37	168.0	-141.0	0.0	-991.0	
1636893305.784152	-7.0	0.0	-170.0	-7.0	0.0	0.0	59.0	60.0	162.0	150.0	29.0	960.44	169.0	-139.0	-1.0	-989.0	
1636893305.883723	-7.0	0.0	-170.0	-7.0	0.0	0.0	59.0	60.0	163.0	150.0	29.0	960.32	169.0	-148.0	-4.0	-1012.0	
1636893305.933451	-7.0	0.0	-170.0	-7.0	0.0	0.0	59.0	60.0	164.0	150.0	29.0	960.34	169.0	-136.0	4.0	-991.0	
1636893306.03765	-7.0	0.0	-170.0	-7.0	0.0	0.0	59.0	60.0	164.0	150.0	29.0	960.6	169.0	-138.0	13.0	-997.0	
1636893306.135856	-7.0	0.0	-170.0	-7.0	0.0	0.0	59.0	60.0	164.0	150.0	29.0	960.49	169.0	-132.0	8.0	-970.0	
1636893306.240258	-7.0	0.0	-170.0	-7.0	-1.0	0.0	59.0	61.0	161.0	150.0	29.0	960.39	169.0	-135.0	9.0	-970.0	
1636893306.341475	-7.0	0.0	-171.0	-7.0	-1.0	0.0	59.0	61.0	160.0	150.0	29.0	960.47	169.0	-138.0	1.0	-967.0	
1636893306.443977	-7.0	0.0	-171.0	-7.0	-1.0	0.0	59.0	61.0	157.0	150.0	29.0	960.4	169.0	-132.0	12.0	-992.0	
1636893306.545461	-7.0	0.0	-171.0	-7.0	-1.0	0.0	59.0	61.0	159.0	150.0	29.0	960.45	169.0	-134.0	2.0	-996.0	
1636893306.647319	-7.0	0.0	-170.0	-7.0	-1.0	0.0	59.0	61.0	163.0	150.0	29.0	960.47	169.0	-144.0	-7.0	-1023.0	
1636893306.752701	-7.0	0.0	-170.0	-7.0	0.0	0.0	59.0	61.0	164.0	150.0	29.0	960.48	170.0	-141.0	-13.0	-1006.0	
1636893306.852574	-7.0	0.0	-170.0	-7.0	0.0	0.0	59.0	61.0	164.0	150.0	29.0	960.39	170.0	-137.0	-19.0	-981.0	
1636893306.954142	-7.0	0.0	-170.0	-7.0	0.0	0.0	59.0	61.0	167.0	150.0	29.0	960.36	170.0	-145.0	-6.0	-991.0	
1636893307.054948	-7.0	0.0	-170.0	-7.0	0.0	0.0	59.0	61.0	165.0	150.0	29.0	960.36	170.0	-148.0	8.0	-1000.0	
1636893307.16044	-7.0	0.0	-170.0	-7.0	0.0	0.0	59.0	61.0	165.0	150.0	29.0	960.45	170.0	-159.0	5.0	-1003.0	
1636893307.258837	-7.0	0.0	-171.0	-7.0	-1.0	0.0	58.0	61.0	169.0	150.0	29.0	960.45	170.0	-142.0	-5.0	-984.0	
1636893307.360591	-7.0	0.0	-171.0	-7.0	0.0	0.0	58.0	61.0	168.0	150.0	29.0	960.42	170.0	-148.0	-3.0	-1002.0	
1636893307.46208	-7.0	0.0	-170.0	-7.0	0.0	0.0	58.0	61.0	170.0	150.0	29.0	960.48	170.0	-141.0	4.0	-971.0	
1636893307.565855	-7.0	0.0	-170.0	-7.0	0.0	0.0	58.0	61.0	168.0	150.0	29.0	960.36	170.0	-141.0	-4.0	-979.0	
1636893307.668225	-7.0	0.0	-170.0	-7.0	0.0	0.0	58.0	61.0	168.0	150.0	29.0	960.47	170.0	-139.0	-12.0	-976.0	
1636893307.769722	-8.0	0.0	-170.0	-8.0	0.0	0.0	58.0	61.0	167.0	150.0	29.0	960.54	171.0	-145.0	6.0	-970.0	
1636893307.873708	-8.0	0.0	-171.0	-8.0	0.0	0.0	58.0	61.0	169.0	150.0	28.0	960.23	171.0	-139.0	4.0	-985.0	
1636893307.974863	-8.0	0.0	-171.0	-8.0	0.0	0.0	58.0	61.0	165.0	150.0	28.0	960.43	171.0	-123.0	-21.0	-994.0	
1636893308.074156	-8.0	0.0	-170.0	-8.0	0.0	0.0	58.0	61.0	166.0	150.0	28.0	960.41	171.0	-146.0	-17.0	-988.0	
1636893308.177133	-7.0	0.0	-170.0	-8.0	0.0	0.0	58.0	61.0	166.0	150.0	28.0	960.5	171.0	-128.0	-12.0	-1010.0	
1636893308.277846	-7.0	0.0	-170.0	-8.0	0.0	0.0	58.0	61.0	167.0	150.0	28.0	960.44	171.0	-159.0	-8.0	-982.0	
1636893308.381117	-7.0	0.0	-170.0	-8.0	0.0	0.0	58.0	61.0	166.0	150.0	28.0	960.24	171.0	-135.0	-21.0	-1003.0	
1636893308.4828	-7.0	0.0	-170.0	-8.0	0.0	0.0	58.0	61.0	162.0	150.0	28.0	960.45	171.0	-140.0	-10.0	-1018.0	
1636893308.584088	-7.0	0.0	-170.0	-8.0	0.0	0.0	58.0	61.0	165.0	150.0	28.0	960.25	171.0	-136.0	-5.0	-1034.0	
1636893308.685987	-7.0	0.0	-170.0	-8.0	0.0	0.0	58.0	61.0	167.0	150.0	28.0	960.23	171.0	-156.0	-1.0	-985.0	
1636893308.790331	-7.0	0.0	-170.0	-8.0	0.0	0.0	58.0	61.0	165.0	150.0	28.0	960.28	172.0	-150.0	-6.0	-980.0	
1636893308.892141	-7.0	0.0	-171.0	-8.0	0.0	0.0	58.0	61.0	165.0	150.0	28.0	960.42	172.0	-143.0	-9.0	-1022.0	
1636893308.993741	-7.0	0.0	-171.0	-8.0	0.0	0.0	58.0	61.0	166.0	150.0	28.0	960.47	172.0	-133.0	-5.0	-983.0	
1636893309.093999	-8.0	0.0	-171.0	-8.0	0.0	0.0	58.0	61.0	165.0	150.0	28.0	960.31	172.0	-155.0	-4.0	-979.0	
1636893309.196598	-7.0	0.0	-171.0	-8.0	0.0	0.0	58.0	61.0	164.0	150.0	28.0	960.32	172.0	-151.0	-1.0	-968.0	
1636893309.297864	-7.0	0.0	-171.0	-8.0	0.0	0.0	58.0	61.0	164.0	150.0	28.0	960.21	172.0	-156.0	0.0	-991.0	
1636893309.401624	-7.0	0.0	-171.0	-8.0	0.0	0.0	58.0	61.0	165.0	150.0	28.0	960.31	172.0	-163.0	-9.0	-961.0	
1636893309.504868	-7.0	0.0	-171.0	-8.0	0.0	0.0	58.0	61.0	165.0	150.0	28.0	960.28	172.0	-154.0	-6.0	-1018.0	
1636893309.607945	-7.0	0.0	-171.0	-8.0	0.0	0.0	58.0	61.0	165.0	150.0	28.0	960.28	172.0	-132.0	10.0	-1030.0	
1636893309.658911	-7.0	0.0	-171.0	-8.0	0.0	0.0	58.0	61.0	164.0	150.0	28.0	960.27	172.0	-146.0	14.0	-1011.0	
1636893309.759668	-7.0	0.0	-171.0	-8.0	0.0	0.0	58.0	61.0	165.0	150.0	28.0	960.3	173.0	-135.0	-8.0	-985.0	
1636893309.859535	-8.0	0.0	-171.0	-8.0	0.0	0.0	58.0	61.0	165.0	150.0	28.0	960.35	173.0	-132.0	7.0	-949.0	
1636893309.96279	-7.0	0.0	-171.0	-8.0	0.0	0.0	58.0	61.0	166.0	150.0	28.0	960.3	173.0	-141.0	19.0	-959.0	
1636893310.065553	-7.0	0.0	-171.0	-8.0	0.0	0.0	58.0	61.0	166.0	150.0	28.0	960.29	173.0	-130.0	7.0	-1016.0	
1636893310.168997	-7.0	0.0	-171.0	-8.0	0.0	0.0	58.0	61.0	164.0	150.0	28.0	960.43	173.0	-151.0	1.0	-962.0	
1636893310.320295	-8.0	0.0	-171.0	-8.0	0.0	0.0	59.0	61.0	164.0	150.0	28.0	960.36	173.0	-133.0	-8.0	-996.0	
1636893310.42185	-8.0	0.0	-171.0	-8.0	0.0	0.0	59.0	61.0	163.0	150.0	28.0	960.34	173.0	-128.0	-3.0	-939.0	
1636893310.472837	-7.0	0.0	-171.0	-8.0	0.0	0.0	59.0	61.0	161.0	150.0	28.0	960.31	173.0	-151.0	5.0	-968.0	
1636893310.575402	-7.0	0.0	-171.0	-8.0	0.0	0.0	59.0	61.0	165.0	150.0	28.0	960.25	173.0	-148.0	6.0	-1027.0	
1636893310.678567	-7.0	0.0	-171.0	-8.0	0.0	0.0	59.0	61.0	162.0	150.0	28.0	960.29	173.0	-163.0	11.0	-981.0	
1636893310.778597	-7.0	0.0	-171.0	-8.0	0.0	0.0	59.0	61.0	163.0	150.0	28.0	960.23	174.0	-148.0	-3.0	-984.0	
1636893310.879561	-7.0	0.0	-171.0	-8.0	0.0	0.0	59.0	61.0	163.0	150.0	28.0	960.22	174.0	-129.0	0.0	-1004.0	
1636893310.982404	-7.0	0.0	-171.0	-8.0	0.0	0.0	59.0	61.0	163.0	150.0	28.0	960.24	174.0	-142.0	7.0	-992.0	
1636893311.082952	-7.0	0.0	-171.0	-8.0	0.0	0.0	59.0	61.0	162.0	150.0	28.0	960.35	174.0	-147.0	-11.0	-1006.0	
1636893311.188016	-8.0	0.0	-171.0	-8.0	0.0	0.0	59.0	61.0	163.0	150.0	28.0	960.25	174.0	-151.0	-9.0	-983.0	
1636893311.288458	-8.0	0.0	-171.0	-8.0	0.0	0.0	59.0	62.0	161.0	150.0	28.0	960.28	174.0	-142.0	-20.0	-961.0	
1636893311.478705	-7.0	1.0	-171.0	-8.0	0.0	0.0	59.0	62.0	160.0	150.0	28.0	960.19	174.0	-133.0	-34.0	-983.0	
1636893311.490692	-7.0	1.0	-171.0	-8.0	0.0	0.0	59.0	62.0	160.0	150.0	28.0	960.15	174.0	-132.0	-25.0	-997.0	
1636893311.637044	-7.0	2.0	-171.0	-8.0	0.0	0.0	59.0	62.0	160.0	150.0	28.0	960.13	174.0	-133.0	-22.0	-1035.0	
1636893311.770839	-5.0	2.0	-171.0	-8.0	0.0	0.0	59.0	62.0	160.0	150.0	28.0	960.41	174.0	-133.0	-28.0	-992.0	
1636893311.798164	-3.0	1.0	-171.0	-8.0	0.0	0.0	59.0	62.0	161.0	150.0	28.0	960.29	175.0	-127.0	-19.0	-982.0	
1636893311.941276	-2.0	1.0	-171.0	-7.0	0.0	0.0	59.0	62.0	161.0	150.0	28.0	960.33	175.0	-129.0	-35.0	-1022.0	
1636893312.090621	-2.0	1.0	-170.0	-6.0	0.0	0.0	59.0	62.0	158.0	150.0	28.0	960.39	175.0	-124.0	-34.0	-988.0	
1636893312.104147	-2.0	1.0	-170.0	-5.0	0.0	0.0	59.0	62.0	162.0	150.0	28.0	960.42	175.0	-136.0	-28.0	-956.0	
1636893312.250946	-3.0	1.0	-171.0	-5.0	0.0	0.0	59.0	62.0	162.0	150.0	28.0	960.33	175.0	-118.0	-11.0	-982.0	
1636893312.309125	-3.0	1.0	-171.0	-4.0	0.0	0.0	59.0	61.0	162.0	150.0	28.0	960.47	175.0	-111.0	-21.0	-976.0	
1636893312.413442	-3.0	1.0	-171.0	-3.0	0.0	0.0	59.0	61.0	160.0	150.0	28.0	960.41	175.0	-114.0	-32.0	-988.0	
1636893312.525781	-3.0	1.0	-171.0	-3.0	0.0	0.0	59.0	61.0	160.0	150.0	28.0	960.46	175.0	-106.0	-25.0	-1010.0	
1636893312.66598	-3.0	1.0	-171.0	-2.0	0.0	0.0	59.0	61.0	159.0	150.0	28.0	960.31	175.0	-105.0	-22.0	-1015.0	
1636893312.719465	-3.0	1.0	-171.0	-2.0	0.0	0.0	59.0	61.0	158.0	150.0	28.0	960.35	176.0	-92.0	-33.0	-1000.0	
1636893312.86999	-3.0	1.0	-170.0	-1.0	0.0	0.0	59.0	61.0	159.0	150.0	28.0	960.49	176.0	-92.0	-13.0	-988.0	
1636893312.922831	-4.0	0.0	-170.0	-1.0	0.0	0.0	59.0	61.0	161.0	150.0	28.0	960.65	176.0	-94.0	-11.0	-968.0	
1636893313.024646	-3.0	0.0	-170.0	-1.0	0.0	0.0	59.0	61.0	160.0	150.0	28.0	960.59	176.0	-99.0	-7.0	-994.0	
1636893313.123933	-2.0	0.0	-171.0	-1.0	0.0	0.0	59.0	61.0	160.0	150.0	28.0	960.49	176.0	-78.0	-11.0	-967.0	
1636893313.229958	-1.0	0.0	-171.0	0.0	0.0	0.0	59.0	61.0	159.0	150.0	28.0	960.43	176.0	-78.0	-20.0	-1018.0	
1636893313.328442	-2.0	0.0	-171.0	0.0	0.0	0.0	59.0	61.0	159.0	150.0	28.0	960.54	176.0	-85.0	4.0	-1018.0	
1636893313.433361	-3.0	0.0	-171.0	0.0	0.0	0.0	59.0	61.0	159.0	150.0	28.0	960.5	176.0	-69.0	-21.0	-985.0	
1636893313.535429	-4.0	0.0	-171.0	0.0	0.0	0.0	59.0	61.0	159.0	150.0	28.0	960.58	176.0	-93.0	9.0	-1012.0	
1636893313.637029	-4.0	0.0	-171.0	0.0	0.0	0.0	59.0	61.0	159.0	150.0	28.0	960.71	176.0	-70.0	-3.0	-981.0	
1636893313.738731	-4.0	0.0	-171.0	0.0	0.0	0.0	59.0	61.0	158.0	150.0	28.0	960.56	177.0	-80.0	3.0	-1006.0	
1636893313.839277	-4.0	0.0	-171.0	0.0	0.0	0.0	59.0	61.0	156.0	150.0	28.0	960.67	177.0	-94.0	23.0	-1007.0	
1636893313.889045	-1.0	0.0	-171.0	0.0	0.0	0.0	59.0	61.0	157.0	150.0	28.0	960.7	177.0	-57.0	-10.0	-969.0	
1636893313.992906	5.0	0.0	-171.0	1.0	0.0	0.0	59.0	61.0	156.0	150.0	28.0	960.66	177.0	-44.0	-22.0	-989.0	
1636893314.096561	6.0	0.0	-171.0	3.0	0.0	0.0	59.0	61.0	159.0	150.0	28.0	960.74	177.0	-59.0	11.0	-1013.0	
1636893314.199001	7.0	0.0	-171.0	4.0	0.0	0.0	59.0	61.0	158.0	150.0	28.0	960.58	177.0	-49.0	7.0	-1030.0	
1636893314.299162	6.0	0.0	-171.0	6.0	0.0	0.0	59.0	61.0	158.0	150.0	28.0	960.73	177.0	-39.0	-34.0	-1016.0	
1636893314.40056	6.0	0.0	-171.0	7.0	1.0	0.0	59.0	61.0	157.0	150.0	28.0	960.63	177.0	-9.0	1.0	-1037.0	
1636893314.50484	6.0	0.0	-171.0	9.0	1.0	0.0	59.0	61.0	156.0	150.0	28.0	960.74	177.0	-13.0	-8.0	-1002.0	
1636893314.604332	7.0	0.0	-171.0	10.0	1.0	0.0	59.0	61.0	157.0	150.0	28.0	960.77	177.0	5.0	-6.0	-983.0	
1636893314.709026	6.0	0.0	-170.0	11.0	1.0	0.0	59.0	61.0	158.0	150.0	28.0	960.91	178.0	30.0	-10.0	-987.0	
1636893314.808967	6.0	0.0	-170.0	12.0	1.0	0.0	59.0	61.0	156.0	150.0	28.0	961.12	178.0	28.0	-2.0	-976.0	
1636893314.910421	6.0	0.0	-170.0	13.0	1.0	0.0	59.0	61.0	158.0	150.0	28.0	961.23	178.0	40.0	-3.0	-1005.0	
1636893315.015054	7.0	0.0	-170.0	14.0	2.0	0.0	59.0	61.0	156.0	150.0	28.0	960.92	178.0	40.0	6.0	-1058.0	
1636893315.114556	7.0	0.0	-170.0	15.0	2.0	0.0	59.0	61.0	156.0	150.0	28.0	960.9	178.0	68.0	-29.0	-1055.0	
1636893315.218049	7.0	0.0	-170.0	16.0	2.0	0.0	59.0	61.0	157.0	150.0	28.0	961.01	178.0	49.0	-12.0	-992.0	
1636893315.319784	7.0	0.0	-170.0	16.0	2.0	0.0	59.0	62.0	155.0	150.0	28.0	960.94	178.0	43.0	-11.0	-988.0	
1636893315.419831	7.0	0.0	-170.0	17.0	3.0	0.0	59.0	62.0	159.0	150.0	28.0	960.98	178.0	80.0	-38.0	-1010.0	
1636893315.524133	7.0	0.0	-170.0	18.0	3.0	0.0	59.0	62.0	158.0	150.0	28.0	961.03	178.0	69.0	-19.0	-1027.0	
1636893315.626391	7.0	0.0	-170.0	18.0	3.0	0.0	59.0	62.0	159.0	150.0	28.0	961.05	178.0	59.0	6.0	-999.0	
1636893315.726135	7.0	0.0	-171.0	19.0	3.0	0.0	59.0	62.0	160.0	150.0	28.0	961.01	179.0	87.0	-20.0	-977.0	
1636893315.830348	7.0	1.0	-171.0	20.0	3.0	0.0	59.0	62.0	162.0	150.0	28.0	961.0	179.0	83.0	-16.0	-971.0	
1636893315.929889	7.0	1.0	-171.0	20.0	3.0	0.0	59.0	62.0	162.0	150.0	28.0	961.05	179.0	93.0	3.0	-962.0	
1636893316.034578	7.0	0.0	-171.0	21.0	3.0	0.0	59.0	62.0	158.0	150.0	28.0	961.01	179.0	69.0	-5.0	-995.0	
1636893316.133948	7.0	0.0	-171.0	21.0	3.0	0.0	59.0	62.0	161.0	150.0	28.0	960.99	179.0	76.0	1.0	-988.0	
1636893316.239619	7.0	0.0	-171.0	22.0	3.0	0.0	59.0	62.0	159.0	150.0	28.0	961.04	179.0	101.0	-5.0	-991.0	
1636893316.338206	7.0	0.0	-171.0	22.0	3.0	0.0	58.0	60.0	161.0	150.0	28.0	961.0	179.0	102.0	-6.0	-973.0	
1636893316.443257	7.0	0.0	-171.0	22.0	3.0	0.0	58.0	60.0	157.0	150.0	28.0	961.1	179.0	107.0	8.0	-1005.0	
1636893316.5428	7.0	0.0	-171.0	23.0	3.0	0.0	58.0	60.0	158.0	150.0	28.0	961.06	179.0	98.0	10.0	-1007.0	
1636893316.644254	7.0	0.0	-171.0	23.0	3.0	0.0	58.0	60.0	158.0	150.0	28.0	961.02	179.0	103.0	0.0	-1012.0	
1636893316.747674	7.0	0.0	-171.0	23.0	3.0	0.0	58.0	60.0	159.0	150.0	28.0	961.07	180.0	120.0	-19.0	-984.0	
1636893316.848414	7.0	0.0	-171.0	23.0	3.0	0.0	58.0	60.0	156.0	150.0	28.0	961.02	180.0	99.0	-4.0	-991.0	
1636893316.950113	5.0	0.0	-170.0	23.0	3.0	0.0	58.0	60.0	158.0	150.0	28.0	961.18	180.0	85.0	-16.0	-1064.0	
1636893317.054833	-2.0	0.0	-170.0	23.0	3.0	0.0	58.0	60.0	156.0	150.0	28.0	961.02	180.0	106.0	-1.0	-1001.0	
1636893317.153312	-6.0	0.0	-170.0	21.0	2.0	0.0	58.0	60.0	157.0	140.0	28.0	960.97	180.0	121.0	-5.0	-977.0	
1636893317.259017	-7.0	-1.0	-170.0	19.0	2.0	0.0	58.0	60.0	160.0	140.0	28.0	960.99	180.0	88.0	0.0	-1002.0	
1636893317.360446	-7.0	-1.0	-170.0	17.0	2.0	0.0	59.0	61.0	157.0	140.0	28.0	960.92	180.0	62.0	2.0	-1027.0	
1636893317.464234	-6.0	0.0	-170.0	16.0	2.0	0.0	59.0	61.0	156.0	140.0	28.0	961.12	180.0	39.0	11.0	-1029.0	
1636893317.565001	-6.0	0.0	-171.0	14.0	2.0	0.0	59.0	61.0	157.0	140.0	28.0	960.98	180.0	29.0	13.0	-1022.0	
1636893317.663573	-6.0	0.0	-171.0	13.0	1.0	0.0	59.0	61.0	157.0	140.0	28.0	961.02	180.0	28.0	0.0	-1017.0	
1636893317.765903	-6.0	0.0	-171.0	11.0	1.0	0.0	59.0	61.0	160.0	140.0	28.0	961.01	181.0	9.0	14.0	-1009.0	
1636893317.869073	-6.0	0.0	-170.0	10.0	1.0	0.0	59.0	61.0	162.0	140.0	28.0	960.96	181.0	4.0	-4.0	-1007.0	
1636893317.972937	-6.0	0.0	-170.0	9.0	1.0	0.0	59.0	61.0	161.0	150.0	28.0	961.0	181.0	-7.0	5.0	-1012.0	
1636893318.075285	-6.0	0.0	-170.0	8.0	1.0	0.0	59.0	61.0	160.0	150.0	28.0	961.01	181.0	-7.0	2.0	-1008.0	
1636893318.177296	-6.0	0.0	-170.0	7.0	0.0	0.0	59.0	61.0	161.0	150.0	28.0	961.1	181.0	-7.0	7.0	-1002.0	
1636893318.276268	-5.0	0.0	-170.0	6.0	0.0	0.0	59.0	61.0	160.0	150.0	28.0	961.09	181.0	-17.0	6.0	-988.0	
1636893318.377452	-5.0	0.0	-170.0	6.0	0.0	0.0	59.0	62.0	164.0	150.0	28.0	961.03	181.0	-20.0	2.0	-997.0	
1636893318.481783	-5.0	0.0	-170.0	5.0	0.0	0.0	59.0	62.0	161.0	150.0	28.0	961.04	181.0	-16.0	7.0	-994.0	
1636893318.584881	-4.0	0.0	-170.0	4.0	0.0	0.0	59.0	62.0	161.0	150.0	28.0	961.01	181.0	-17.0	6.0	-998.0	
1636893318.685944	-4.0	0.0	-170.0	4.0	0.0	0.0	59.0	62.0	161.0	150.0	28.0	961.06	181.0	-32.0	10.0	-989.0	
1636893318.785755	-4.0	0.0	-170.0	3.0	0.0	0.0	59.0	62.0	163.0	150.0	28.0	961.05	182.0	-5.0	-6.0	-1000.0	
1636893318.837102	-3.0	0.0	-170.0	3.0	0.0	0.0	59.0	62.0	161.0	150.0	28.0	961.06	182.0	-14.0	-11.0	-1002.0	
1636893318.93956	-3.0	0.0	-170.0	3.0	0.0	0.0	59.0	62.0	162.0	150.0	28.0	961.08	182.0	-25.0	0.0	-1012.0	
1636893319.042959	-3.0	0.0	-170.0	2.0	0.0	0.0	59.0	62.0	161.0	150.0	28.0	961.09	182.0	-21.0	7.0	-1024.0	
1636893319.146355	-3.0	0.0	-170.0	2.0	0.0	0.0	59.0	62.0	163.0	150.0	28.0	961.07	182.0	-32.0	0.0	-988.0	
1636893319.248419	-3.0	0.0	-170.0	2.0	0.0	0.0	59.0	62.0	161.0	150.0	28.0	960.98	182.0	-39.0	8.0	-1031.0	
1636893319.353521	-7.0	0.0	-170.0	1.0	0.0	0.0	59.0	61.0	163.0	150.0	28.0	960.93	182.0	-47.0	22.0	-1006.0	
1636893319.452523	-7.0	0.0	-170.0	1.0	0.0	0.0	59.0	61.0	164.0	150.0	28.0	960.94	182.0	-44.0	1.0	-1015.0	
1636893319.554461	-7.0	0.0	-170.0	0.0	0.0	0.0	59.0	61.0	169.0	150.0	28.0	960.86	182.0	-58.0	2.0	-1004.0	
1636893319.652985	-7.0	0.0	-170.0	0.0	0.0	0.0	59.0	61.0	167.0	150.0	28.0	960.85	182.0	-52.0	-4.0	-1007.0	
1636893319.757818	-7.0	0.0	-171.0	0.0	0.0	0.0	59.0	61.0	166.0	150.0	28.0	960.81	183.0	-64.0	-4.0	-987.0	
1636893319.857542	-7.0	0.0	-171.0	-1.0	0.0	0.0	59.0	61.0	166.0	150.0	27.0	960.79	183.0	-72.0	0.0	-992.0	
1636893319.961407	-7.0	0.0	-171.0	-2.0	-1.0	0.0	59.0	61.0	165.0	150.0	27.0	960.78	183.0	-71.0	0.0	-1005.0	
1636893320.062401	-7.0	0.0	-171.0	-2.0	-1.0	0.0	59.0	61.0	166.0	150.0	27.0	960.92	183.0	-77.0	-12.0	-990.0	
1636893320.166194	-7.0	0.0	-171.0	-3.0	-1.0	0.0	59.0	61.0	163.0	150.0	27.0	960.81	183.0	-70.0	1.0	-984.0	
1636893320.267696	-7.0	0.0	-171.0	-3.0	-1.0	0.0	59.0	61.0	166.0	150.0	27.0	960.83	183.0	-74.0	13.0	-1003.0	
1636893320.370171	-7.0	0.0	-171.0	-4.0	-1.0	0.0	59.0	61.0	167.0	150.0	27.0	960.83	183.0	-95.0	8.0	-996.0	
1636893320.470045	-7.0	0.0	-171.0	-5.0	-1.0	0.0	59.0	61.0	165.0	150.0	27.0	960.7	183.0	-93.0	-6.0	-986.0	
1636893320.571645	-7.0	0.0	-171.0	-5.0	-1.0	0.0	59.0	61.0	163.0	150.0	27.0	960.68	183.0	-101.0	-8.0	-979.0	
1636893320.673399	-7.0	0.0	-171.0	-5.0	-1.0	0.0	59.0	61.0	168.0	150.0	27.0	960.64	183.0	-106.0	0.0	-981.0	
1636893320.776681	-7.0	0.0	-171.0	-6.0	-1.0	0.0	59.0	61.0	164.0	150.0	27.0	960.74	184.0	-104.0	3.0	-997.0	
1636893320.879771	-7.0	0.0	-171.0	-6.0	-1.0	0.0	59.0	61.0	165.0	150.0	27.0	960.73	184.0	-103.0	-4.0	-1007.0	
1636893320.983638	-7.0	0.0	-171.0	-6.0	-1.0	0.0	59.0	61.0	162.0	150.0	27.0	960.61	184.0	-126.0	-8.0	-988.0	
1636893321.080869	-7.0	0.0	-171.0	-6.0	-1.0	0.0	59.0	61.0	163.0	150.0	27.0	960.64	184.0	-119.0	3.0	-1024.0	
1636893321.182574	-7.0	0.0	-171.0	-6.0	-1.0	0.0	59.0	61.0	163.0	150.0	27.0	960.61	184.0	-128.0	5.0	-988.0	
1636893321.287865	-7.0	0.0	-171.0	-6.0	-1.0	0.0	59.0	61.0	163.0	150.0	27.0	960.6	184.0	-117.0	3.0	-970.0	
1636893321.386962	-7.0	0.0	-171.0	-7.0	-1.0	0.0	59.0	61.0	160.0	150.0	27.0	960.68	184.0	-122.0	-5.0	-1009.0	
1636893321.492215	-7.0	0.0	-171.0	-7.0	-1.0	0.0	59.0	61.0	162.0	150.0	27.0	960.63	184.0	-126.0	3.0	-991.0	
1636893321.593862	-7.0	0.0	-171.0	-7.0	-1.0	0.0	59.0	61.0	163.0	150.0	27.0	960.53	184.0	-114.0	-12.0	-998.0	
1636893321.696131	-7.0	0.0	-171.0	-7.0	-1.0	0.0	59.0	61.0	164.0	150.0	27.0	960.53	184.0	-130.0	0.0	-1001.0	
1636893321.797516	-7.0	0.0	-171.0	-7.0	-1.0	0.0	59.0	61.0	164.0	150.0	27.0	960.49	185.0	-134.0	5.0	-992.0	
1636893321.899983	-7.0	0.0	-171.0	-7.0	-1.0	0.0	59.0	61.0	161.0	150.0	27.0	960.51	185.0	-137.0	0.0	-985.0	
1636893321.999193	-7.0	0.0	-171.0	-7.0	-1.0	0.0	59.0	61.0	164.0	150.0	27.0	960.61	185.0	-139.0	7.0	-977.0	
1636893322.104647	-8.0	0.0	-171.0	-7.0	-1.0	0.0	59.0	61.0	165.0	150.0	27.0	960.54	185.0	-133.0	10.0	-967.0	
1636893322.202549	-8.0	0.0	-171.0	-7.0	-1.0	0.0	59.0	61.0	163.0	150.0	27.0	960.51	185.0	-137.0	0.0	-1014.0	
1636893322.306409	-8.0	0.0	-170.0	-7.0	-1.0	0.0	59.0	61.0	164.0	150.0	27.0	960.52	185.0	-116.0	1.0	-995.0	
1636893322.406958	-8.0	0.0	-171.0	-7.0	-1.0	0.0	59.0	61.0	165.0	150.0	27.0	960.48	185.0	-120.0	2.0	-990.0	
1636893322.510419	-8.0	0.0	-171.0	-8.0	-1.0	0.0	59.0	61.0	164.0	150.0	27.0	960.64	185.0	-122.0	-11.0	-976.0	
1636893322.612316	-8.0	0.0	-171.0	-8.0	-1.0	0.0	59.0	61.0	164.0	150.0	27.0	960.64	185.0	-107.0	-27.0	-1003.0	
1636893322.713562	-7.0	0.0	-171.0	-8.0	-1.0	0.0	59.0	61.0	161.0	150.0	27.0	960.53	185.0	-113.0	-4.0	-1022.0	
1636893322.818009	-7.0	0.0	-170.0	-8.0	-1.0	0.0	59.0	61.0	162.0	150.0	27.0	960.52	186.0	-105.0	-20.0	-1016.0	
1636893322.919438	-7.0	0.0	-170.0	-9.0	-1.0	0.0	59.0	61.0	163.0	150.0	27.0	960.51	186.0	-120.0	-13.0	-985.0	
1636893323.021156	-7.0	0.0	-170.0	-9.0	-1.0	0.0	59.0	61.0	159.0	150.0	27.0	960.45	186.0	-117.0	-3.0	-996.0	
1636893323.12214	-7.0	0.0	-171.0	-9.0	-1.0	0.0	59.0	61.0	158.0	150.0	27.0	960.39	186.0	-126.0	18.0	-1008.0	
1636893323.175339	-7.0	0.0	-171.0	-9.0	-1.0	0.0	59.0	61.0	160.0	150.0	27.0	960.51	186.0	-136.0	-3.0	-987.0	
1636893323.273394	-7.0	0.0	-171.0	-9.0	-1.0	0.0	59.0	61.0	161.0	150.0	27.0	960.29	186.0	-136.0	-8.0	-985.0	
1636893323.37701	-7.0	0.0	-171.0	-9.0	-1.0	0.0	58.0	61.0	164.0	150.0	27.0	960.52	186.0	-144.0	11.0	-1015.0	
1636893323.480567	-7.0	0.0	-171.0	-9.0	-1.0	0.0	58.0	61.0	167.0	150.0	27.0	960.34	186.0	-144.0	-1.0	-992.0	
1636893323.580536	-7.0	0.0	-171.0	-9.0	-1.0	0.0	58.0	61.0	167.0	150.0	27.0	960.41	186.0	-142.0	0.0	-988.0	
1636893323.682583	-7.0	0.0	-171.0	-9.0	-1.0	0.0	58.0	61.0	167.0	150.0	27.0	960.47	186.0	-127.0	3.0	-1002.0	
1636893323.783398	-7.0	0.0	-171.0	-9.0	-1.0	0.0	58.0	61.0	166.0	150.0	27.0	960.54	187.0	-136.0	-5.0	-984.0	
1636893323.886853	-7.0	0.0	-171.0	-9.0	-1.0	0.0	58.0	61.0	168.0	150.0	27.0	960.45	187.0	-151.0	7.0	-965.0	
1636893323.987523	-7.0	0.0	-171.0	-9.0	-1.0	0.0	58.0	61.0	169.0	150.0	27.0	960.6	187.0	-152.0	11.0	-944.0	
1636893324.092844	-7.0	0.0	-170.0	-9.0	-1.0	0.0	58.0	61.0	168.0	150.0	27.0	960.44	187.0	-145.0	8.0	-995.0	
1636893324.193599	-8.0	0.0	-170.0	-9.0	-1.0	0.0	58.0	61.0	167.0	150.0	27.0	960.68	187.0	-141.0	-3.0	-958.0	
1636893324.296358	-8.0	0.0	-171.0	-9.0	-1.0	0.0	58.0	61.0	165.0	150.0	27.0	960.65	187.0	-131.0	-12.0	-968.0	
1636893324.398044	-8.0	0.0	-171.0	-9.0	-1.0	0.0	59.0	61.0	166.0	150.0	27.0	960.49	187.0	-141.0	25.0	-961.0	
1636893324.499509	-8.0	0.0	-171.0	-9.0	-1.0	0.0	59.0	61.0	165.0	150.0	27.0	960.49	187.0	-147.0	12.0	-1004.0	
1636893324.600261	-7.0	0.0	-171.0	-9.0	-1.0	0.0	59.0	61.0	164.0	150.0	27.0	960.39	187.0	-145.0	13.0	-999.0	
1636893324.704022	-7.0	0.0	-171.0	-9.0	-1.0	0.0	59.0	61.0	164.0	150.0	27.0	960.5	188.0	-154.0	-5.0	-1010.0	
1636893324.806792	-7.0	0.0	-170.0	-9.0	-1.0	0.0	59.0	61.0	166.0	150.0	27.0	960.46	188.0	-131.0	-12.0	-1000.0	
1636893324.907554	-7.0	0.0	-170.0	-9.0	-1.0	0.0	59.0	61.0	164.0	150.0	26.0	960.32	188.0	-139.0	8.0	-998.0	
1636893325.008387	-7.0	0.0	-170.0	-9.0	-1.0	0.0	59.0	61.0	163.0	150.0	26.0	960.27	188.0	-144.0	-9.0	-1028.0	
1636893325.109483	-8.0	0.0	-170.0	-9.0	-1.0	0.0	59.0	61.0	164.0	150.0	26.0	960.3	188.0	-119.0	-22.0	-1015.0	
1636893325.213383	-8.0	0.0	-170.0	-9.0	-1.0	0.0	59.0	61.0	163.0	150.0	26.0	960.32	188.0	-120.0	-19.0	-989.0	
1636893325.317658	-7.0	0.0	-171.0	-9.0	0.0	0.0	59.0	61.0	164.0	150.0	26.0	960.35	188.0	-129.0	-26.0	-984.0	
1636893325.418346	-7.0	0.0	-171.0	-9.0	0.0	0.0	58.0	61.0	165.0	150.0	26.0	960.49	188.0	-135.0	4.0	-1025.0	
1636893325.517509	-7.0	0.0	-171.0	-9.0	0.0	0.0	58.0	61.0	165.0	150.0	26.0	960.33	188.0	-140.0	6.0	-953.0	
1636893325.619066	-7.0	0.0	-171.0	-9.0	-1.0	0.0	58.0	61.0	165.0	150.0	26.0	960.34	188.0	-147.0	1.0	-960.0	
1636893325.723025	-7.0	0.0	-171.0	-9.0	-1.0	0.0	58.0	61.0	165.0	150.0	26.0	960.32	189.0	-142.0	-7.0	-964.0	
1636893325.824993	-7.0	0.0	-170.0	-9.0	-1.0	0.0	58.0	61.0	165.0	150.0	26.0	960.35	189.0	-148.0	7.0	-985.0	
1636893325.928345	-8.0	0.0	-170.0	-9.0	0.0	0.0	58.0	61.0	166.0	150.0	26.0	960.5	189.0	-139.0	-20.0	-980.0	
1636893326.030003	-8.0	0.0	-170.0	-9.0	0.0	0.0	58.0	61.0	164.0	150.0	26.0	960.41	189.0	-169.0	2.0	-983.0	
1636893326.131381	-8.0	0.0	-171.0	-9.0	0.0	0.0	58.0	61.0	165.0	150.0	26.0	960.38	189.0	-145.0	-18.0	-949.0	
1636893326.234287	-7.0	0.0	-171.0	-9.0	0.0	0.0	58.0	61.0	165.0	150.0	26.0	960.46	189.0	-152.0	-14.0	-992.0	
1636893326.333974	-7.0	0.0	-171.0	-9.0	0.0	0.0	58.0	61.0	163.0	150.0	26.0	960.5	189.0	-147.0	11.0	-971.0	
1636893326.436365	-7.0	0.0	-171.0	-9.0	0.0	0.0	58.0	62.0	161.0	150.0	26.0	960.36	189.0	-155.0	-22.0	-969.0	
1636893326.540679	-8.0	0.0	-171.0	-8.0	0.0	0.0	58.0	62.0	162.0	150.0	26.0	960.27	189.0	-172.0	26.0	-987.0	
1636893326.642853	-8.0	0.0	-171.0	-8.0	0.0	0.0	58.0	62.0	162.0	150.0	26.0	960.37	189.0	-166.0	16.0	-1004.0	
1636893326.744955	-8.0	0.0	-171.0	-8.0	0.0	0.0	58.0	62.0	161.0	150.0	26.0	960.45	190.0	-145.0	-10.0	-987.0	
1636893326.845146	-8.0	0.0	-170.0	-8.0	0.0	0.0	58.0	62.0	164.0	150.0	26.0	960.24	190.0	-147.0	-4.0	-982.0	
1636893326.894899	-8.0	0.0	-170.0	-8.0	0.0	0.0	58.0	62.0	159.0	150.0	26.0	960.18	190.0	-151.0	8.0	-997.0	
1636893326.996303	-7.0	0.0	-170.0	-8.0	0.0	0.0	58.0	62.0	163.0	150.0	26.0	960.22	190.0	-154.0	-9.0	-999.0	
1636893327.099641	-7.0	0.0	-170.0	-8.0	0.0	0.0	58.0	62.0	159.0	150.0	26.0	960.41	190.0	-156.0	-13.0	-1003.0	
1636893327.202494	-7.0	0.0	-170.0	-8.0	0.0	0.0	58.0	62.0	161.0	150.0	26.0	960.45	190.0	-148.0	-27.0	-1018.0	
1636893327.303682	-7.0	0.0	-170.0	-8.0	0.0	0.0	58.0	62.0	160.0	150.0	26.0	960.38	190.0	-153.0	-13.0	-978.0	
1636893327.458822	-7.0	0.0	-170.0	-8.0	0.0	0.0	58.0	61.0	160.0	150.0	26.0	960.43	190.0	-140.0	-21.0	-990.0	
1636893327.509926	-7.0	0.0	-170.0	-8.0	0.0	0.0	58.0	61.0	162.0	150.0	26.0	960.33	190.0	-151.0	-2.0	-1013.0	
1636893327.610271	-7.0	0.0	-171.0	-8.0	0.0	0.0	58.0	61.0	162.0	150.0	26.0	960.27	190.0	-158.0	-8.0	-1021.0	
1636893327.709906	-7.0	0.0	-171.0	-8.0	0.0	0.0	58.0	61.0	163.0	150.0	26.0	960.34	191.0	-152.0	0.0	-995.0	
1636893327.814733	-7.0	0.0	-171.0	-8.0	0.0	0.0	58.0	61.0	161.0	150.0	26.0	960.29	191.0	-145.0	-7.0	-988.0	
1636893327.914605	-7.0	0.0	-171.0	-7.0	0.0	0.0	58.0	61.0	163.0	150.0	26.0	960.38	191.0	-156.0	3.0	-982.0	
1636893328.01974	-7.0	0.0	-171.0	-7.0	0.0	0.0	58.0	61.0	166.0	150.0	26.0	960.2	191.0	-145.0	10.0	-973.0	
1636893328.11829	-7.0	0.0	-171.0	-7.0	0.0	0.0	58.0	61.0	163.0	150.0	26.0	960.42	191.0	-158.0	12.0	-979.0	
1636893328.222154	-7.0	0.0	-171.0	-7.0	0.0	0.0	58.0	61.0	161.0	150.0	26.0	960.22	191.0	-150.0	5.0	-962.0	
1636893328.324988	-8.0	0.0	-171.0	-7.0	0.0	0.0	58.0	61.0	161.0	150.0	26.0	960.22	191.0	-147.0	16.0	-960.0	
1636893328.427876	-7.0	0.0	-170.0	-7.0	0.0	0.0	59.0	61.0	161.0	150.0	26.0	960.27	191.0	-141.0	-5.0	-970.0	
1636893328.527328	-7.0	0.0	-171.0	-7.0	0.0	0.0	59.0	61.0	159.0	150.0	26.0	960.26	191.0	-148.0	8.0	-1004.0	
1636893328.628336	-7.0	0.0	-171.0	-7.0	-1.0	0.0	59.0	61.0	160.0	150.0	26.0	960.21	191.0	-147.0	9.0	-992.0	
1636893328.730925	-7.0	0.0	-171.0	-7.0	-1.0	0.0	59.0	61.0	158.0	150.0	26.0	960.12	192.0	-131.0	1.0	-988.0	
1636893328.832675	-5.0	0.0	-171.0	-7.0	-1.0	0.0	59.0	61.0	157.0	150.0	26.0	960.37	192.0	-142.0	9.0	-998.0	
1636893328.935804	-4.0	0.0	-171.0	-6.0	-1.0	0.0	59.0	61.0	157.0	150.0	26.0	960.29	192.0	-139.0	1.0	-996.0	
1636893329.036937	3.0	0.0	-171.0	-5.0	0.0	0.0	59.0	61.0	156.0	150.0	26.0	960.2	192.0	-123.0	0.0	-993.0	
1636893329.139991	7.0	0.0	-171.0	-3.0	0.0	0.0	59.0	61.0	156.0	150.0	26.0	960.39	192.0	-132.0	4.0	-1069.0	
1636893329.243617	6.0	0.0	-171.0	0.0	0.0	0.0	59.0	61.0	157.0	140.0	26.0	960.46	192.0	-117.0	5.0	-1045.0	
1636893329.34581	6.0	0.0	-170.0	1.0	0.0	0.0	59.0	61.0	155.0	140.0	26.0	960.5	192.0	-88.0	-1.0	-1033.0	
1636893329.446836	6.0	0.0	-170.0	3.0	0.0	0.0	59.0	61.0	155.0	140.0	26.0	960.63	192.0	-68.0	0.0	-1026.0	
1636893329.54932	6.0	0.0	-170.0	4.0	0.0	0.0	59.0	61.0	157.0	140.0	26.0	960.69	192.0	-61.0	1.0	-1025.0	
1636893329.650254	6.0	0.0	-170.0	6.0	1.0	0.0	59.0	61.0	158.0	140.0	26.0	960.76	192.0	-46.0	-3.0	-1018.0	
1636893329.750197	6.0	0.0	-170.0	8.0	1.0	0.0	59.0	61.0	157.0	140.0	26.0	960.78	193.0	-38.0	7.0	-1032.0	
1636893329.852347	7.0	0.0	-170.0	9.0	1.0	0.0	59.0	61.0	160.0	140.0	26.0	960.79	193.0	-30.0	0.0	-1011.0	
1636893329.956779	7.0	0.0	-170.0	11.0	1.0	0.0	59.0	61.0	159.0	150.0	26.0	960.8	193.0	-10.0	-1.0	-1009.0	
1636893330.059192	7.0	0.0	-170.0	12.0	2.0	0.0	59.0	61.0	157.0	150.0	26.0	960.88	193.0	-4.0	4.0	-1001.0	
1636893330.159212	7.0	0.0	-170.0	13.0	2.0	0.0	59.0	61.0	159.0	150.0	26.0	960.87	193.0	1.0	-3.0	-1008.0	
1636893330.262069	7.0	0.0	-170.0	14.0	2.0	0.0	59.0	61.0	161.0	150.0	26.0	960.91	193.0	7.0	1.0	-1000.0	
1636893330.361935	7.0	0.0	-170.0	16.0	2.0	0.0	59.0	61.0	163.0	150.0	26.0	960.98	193.0	9.0	0.0	-1001.0	
1636893330.467092	7.0	0.0	-170.0	17.0	2.0	0.0	58.0	61.0	163.0	150.0	26.0	960.99	193.0	31.0	-6.0	-993.0	
1636893330.569261	7.0	0.0	-171.0	18.0	2.0	0.0	58.0	61.0	162.0	150.0	26.0	961.05	193.0	40.0	-5.0	-991.0	
1636893330.670618	7.0	0.0	-171.0	19.0	3.0	0.0	58.0	61.0	161.0	150.0	26.0	961.04	193.0	49.0	-7.0	-980.0	
1636893330.772618	7.0	0.0	-171.0	20.0	3.0	0.0	58.0	61.0	164.0	150.0	26.0	961.03	194.0	41.0	16.0	-1000.0	
1636893330.872956	7.0	0.0	-171.0	20.0	3.0	0.0	58.0	61.0	162.0	150.0	25.0	961.0	194.0	65.0	11.0	-997.0	
1636893330.977528	7.0	0.0	-171.0	21.0	3.0	0.0	58.0	61.0	164.0	150.0	25.0	961.09	194.0	87.0	-3.0	-995.0	
1636893331.079539	7.0	0.0	-171.0	22.0	3.0	0.0	58.0	61.0	161.0	150.0	25.0	961.04	194.0	80.0	0.0	-975.0	
1636893331.177959	7.0	0.0	-170.0	22.0	3.0	0.0	58.0	61.0	163.0	150.0	25.0	961.03	194.0	97.0	-7.0	-991.0	
1636893331.229889	7.0	0.0	-170.0	23.0	3.0	0.0	58.0	61.0	161.0	150.0	25.0	961.07	194.0	90.0	-4.0	-992.0	
1636893331.335002	7.0	0.0	-170.0	23.0	3.0	0.0	58.0	61.0	159.0	150.0	25.0	961.09	194.0	100.0	3.0	-1004.0	
1636893331.484956	7.0	0.0	-170.0	23.0	3.0	0.0	58.0	61.0	162.0	150.0	25.0	961.1	194.0	92.0	18.0	-988.0	
1636893331.588221	7.0	0.0	-170.0	23.0	3.0	0.0	58.0	61.0	160.0	150.0	25.0	960.97	194.0	97.0	18.0	-1008.0	
1636893331.638219	7.0	0.0	-170.0	24.0	3.0	0.0	58.0	61.0	159.0	150.0	25.0	961.05	194.0	91.0	0.0	-1010.0	
1636893331.742346	7.0	0.0	-170.0	24.0	3.0	0.0	58.0	61.0	157.0	150.0	25.0	961.06	195.0	99.0	-7.0	-1013.0	
1636893331.842982	7.0	0.0	-170.0	24.0	4.0	0.0	58.0	61.0	153.0	150.0	25.0	961.0	195.0	106.0	-8.0	-1007.0	
1636893331.946773	7.0	0.0	-170.0	25.0	4.0	0.0	58.0	61.0	154.0	140.0	25.0	961.08	195.0	112.0	-22.0	-1007.0	
1636893332.048389	7.0	0.0	-170.0	25.0	4.0	0.0	58.0	61.0	151.0	140.0	25.0	960.99	195.0	107.0	-21.0	-1004.0	
1636893332.149271	6.0	1.0	-170.0	25.0	4.0	0.0	58.0	61.0	155.0	140.0	25.0	960.92	195.0	117.0	3.0	-1020.0	
1636893332.252501	6.0	1.0	-170.0	25.0	4.0	0.0	58.0	61.0	156.0	140.0	25.0	960.87	195.0	98.0	28.0	-1026.0	
1636893332.352384	6.0	0.0	-170.0	25.0	4.0	0.0	58.0	61.0	156.0	140.0	25.0	961.0	195.0	115.0	0.0	-1028.0	
1636893332.456298	6.0	0.0	-170.0	25.0	4.0	0.0	59.0	61.0	157.0	140.0	25.0	960.94	195.0	123.0	3.0	-996.0	
1636893332.55478	6.0	0.0	-171.0	25.0	3.0	0.0	59.0	61.0	158.0	140.0	25.0	960.96	195.0	138.0	-2.0	-976.0	
1636893332.660465	6.0	0.0	-171.0	25.0	3.0	0.0	59.0	61.0	160.0	140.0	25.0	960.91	195.0	154.0	-12.0	-976.0	
1636893332.762348	6.0	0.0	-170.0	25.0	3.0	0.0	59.0	61.0	159.0	150.0	25.0	960.94	196.0	122.0	5.0	-1001.0	
1636893332.861393	3.0	0.0	-170.0	25.0	3.0	0.0	59.0	61.0	158.0	150.0	25.0	960.74	196.0	146.0	8.0	-971.0	
1636893332.964865	-4.0	0.0	-170.0	23.0	3.0	0.0	59.0	61.0	161.0	150.0	25.0	960.79	196.0	150.0	-9.0	-972.0	
1636893333.06702	-6.0	0.0	-170.0	21.0	3.0	0.0	59.0	61.0	161.0	150.0	25.0	961.05	196.0	101.0	13.0	-1004.0	
1636893333.170923	-6.0	0.0	-170.0	19.0	3.0	0.0	59.0	61.0	163.0	150.0	25.0	961.13	196.0	91.0	10.0	-993.0	
1636893333.271921	-6.0	0.0	-170.0	17.0	2.0	0.0	59.0	61.0	162.0	150.0	25.0	961.04	196.0	81.0	13.0	-992.0	
1636893333.371601	-6.0	0.0	-171.0	16.0	2.0	0.0	59.0	61.0	162.0	150.0	25.0	961.04	196.0	53.0	15.0	-1008.0	
1636893333.474805	-6.0	0.0	-171.0	14.0	2.0	0.0	59.0	61.0	162.0	150.0	25.0	961.03	196.0	46.0	12.0	-998.0	
1636893333.57884	-6.0	0.0	-170.0	13.0	2.0	0.0	59.0	61.0	161.0	150.0	25.0	961.03	196.0	34.0	3.0	-1005.0	
1636893333.677852	-6.0	0.0	-170.0	11.0	1.0	0.0	59.0	61.0	161.0	150.0	25.0	960.92	196.0	23.0	10.0	-1024.0	
1636893333.780878	-6.0	0.0	-170.0	10.0	1.0	0.0	59.0	61.0	159.0	150.0	25.0	961.0	197.0	-3.0	8.0	-1022.0	
1636893333.882226	-5.0	0.0	-170.0	9.0	1.0	0.0	59.0	61.0	159.0	150.0	24.0	961.11	197.0	4.0	-7.0	-1024.0	
1636893333.985886	-5.0	0.0	-170.0	8.0	1.0	0.0	59.0	61.0	159.0	150.0	24.0	961.03	197.0	-2.0	1.0	-1001.0	
1636893334.090693	-5.0	0.0	-170.0	7.0	1.0	0.0	59.0	61.0	157.0	150.0	24.0	961.06	197.0	-23.0	18.0	-1007.0	
1636893334.190445	-5.0	0.0	-170.0	6.0	0.0	0.0	59.0	61.0	157.0	150.0	24.0	961.06	197.0	6.0	-2.0	-1017.0	
1636893334.29207	-4.0	0.0	-170.0	5.0	0.0	0.0	59.0	61.0	157.0	150.0	24.0	961.12	197.0	-3.0	15.0	-1004.0	
1636893334.394278	-4.0	0.0	-170.0	5.0	0.0	0.0	59.0	61.0	157.0	150.0	24.0	961.19	197.0	-18.0	9.0	-970.0	
1636893334.496465	-3.0	0.0	-170.0	4.0	0.0	0.0	58.0	60.0	154.0	150.0	24.0	961.11	197.0	-42.0	24.0	-989.0	
1636893334.59603	-3.0	0.0	-170.0	3.0	0.0	0.0	58.0	60.0	155.0	140.0	24.0	961.12	197.0	-29.0	10.0	-1015.0	
1636893334.699317	-3.0	0.0	-170.0	3.0	0.0	0.0	58.0	60.0	153.0	140.0	24.0	961.05	197.0	-18.0	20.0	-1029.0	
1636893334.799925	-3.0	-1.0	-170.0	3.0	0.0	0.0	58.0	60.0	152.0	140.0	24.0	961.01	198.0	-34.0	23.0	-1020.0	
1636893334.904469	-3.0	-1.0	-171.0	2.0	0.0	0.0	58.0	60.0	153.0	140.0	24.0	961.08	198.0	-31.0	14.0	-1020.0	
1636893335.004576	-3.0	-1.0	-171.0	2.0	0.0	0.0	58.0	60.0	153.0	140.0	24.0	961.02	198.0	-28.0	15.0	-1002.0	
1636893335.104643	-2.0	-1.0	-171.0	2.0	0.0	0.0	58.0	60.0	153.0	140.0	24.0	960.93	198.0	-39.0	25.0	-1012.0	
1636893335.159678	-2.0	-1.0	-171.0	1.0	0.0	0.0	58.0	60.0	154.0	140.0	24.0	960.98	198.0	-26.0	14.0	-1024.0	
1636893335.258281	-2.0	0.0	-171.0	1.0	0.0	0.0	58.0	60.0	156.0	150.0	24.0	961.03	198.0	-34.0	8.0	-1002.0	
1636893335.363158	-4.0	0.0	-171.0	1.0	0.0	0.0	58.0	60.0	156.0	150.0	24.0	961.03	198.0	-36.0	5.0	-978.0	
1636893335.513942	-5.0	0.0	-171.0	0.0	0.0	0.0	58.0	61.0	156.0	150.0	24.0	961.14	198.0	-48.0	10.0	-990.0	
1636893335.56497	-4.0	0.0	-171.0	0.0	0.0	0.0	58.0	61.0	158.0	150.0	24.0	961.01	198.0	-46.0	10.0	-993.0	
1636893335.668808	-3.0	0.0	-171.0	0.0	0.0	0.0	58.0	61.0	158.0	150.0	24.0	961.1	198.0	-45.0	10.0	-987.0	
1636893335.768674	-3.0	0.0	-171.0	0.0	0.0	0.0	58.0	61.0	159.0	150.0	24.0	961.12	199.0	-50.0	11.0	-996.0	
1636893335.870213	-2.0	0.0	-171.0	0.0	0.0	0.0	58.0	61.0	158.0	150.0	24.0	961.05	199.0	-51.0	14.0	-994.0	
1636893335.976321	-2.0	0.0	-171.0	0.0	0.0	0.0	58.0	61.0	158.0	150.0	24.0	961.03	199.0	-47.0	8.0	-994.0	
1636893336.077428	-2.0	0.0	-171.0	0.0	0.0	0.0	58.0	61.0	159.0	150.0	24.0	961.09	199.0	-49.0	8.0	-987.0	
1636893336.177528	-2.0	0.0	-171.0	0.0	0.0	0.0	58.0	61.0	158.0	150.0	24.0	961.0	199.0	-50.0	7.0	-996.0	
1636893336.281909	-2.0	0.0	-171.0	0.0	0.0	0.0	58.0	61.0	159.0	150.0	24.0	961.05	199.0	-39.0	-3.0	-989.0	
1636893336.38124	-2.0	0.0	-171.0	0.0	0.0	0.0	58.0	61.0	159.0	150.0	24.0	961.04	199.0	-29.0	-11.0	-981.0	
1636893336.483565	-2.0	0.0	-171.0	0.0	0.0	0.0	58.0	61.0	160.0	150.0	24.0	961.0	199.0	-33.0	-9.0	-981.0	
1636893336.585887	-2.0	0.0	-171.0	0.0	0.0	0.0	58.0	61.0	160.0	150.0	24.0	961.01	199.0	-36.0	-9.0	-998.0	
1636893336.690341	-2.0	0.0	-171.0	0.0	0.0	0.0	58.0	61.0	159.0	150.0	24.0	960.97	199.0	-44.0	0.0	-1001.0	
1636893336.789235	-3.0	0.0	-171.0	0.0	0.0	0.0	58.0	61.0	159.0	150.0	24.0	961.09	200.0	-40.0	-4.0	-998.0	
1636893336.894485	-7.0	0.0	-171.0	0.0	0.0	0.0	58.0	61.0	159.0	150.0	23.0	961.04	200.0	-51.0	4.0	-1027.0	
1636893336.993399	-7.0	0.0	-171.0	-1.0	0.0	0.0	58.0	61.0	159.0	150.0	23.0	961.07	200.0	-20.0	-4.0	-952.0	
1636893337.095033	-7.0	0.0	-170.0	-2.0	0.0	0.0	58.0	61.0	159.0	150.0	23.0	960.98	200.0	-51.0	6.0	-1005.0	
1636893337.197952	-7.0	0.0	-171.0	-3.0	0.0	0.0	58.0	61.0	161.0	150.0	23.0	961.06	200.0	-55.0	7.0	-1013.0	
1636893337.302319	-7.0	0.0	-170.0	-4.0	0.0	0.0	58.0	61.0	161.0	150.0	23.0	961.03	200.0	-65.0	11.0	-1014.0	
1636893337.403694	-7.0	0.0	-170.0	-4.0	0.0	0.0	58.0	61.0	163.0	150.0	23.0	960.83	200.0	-59.0	7.0	-1002.0	
1636893337.50492	-7.0	0.0	-171.0	-5.0	0.0	0.0	58.0	61.0	162.0	150.0	23.0	960.84	200.0	-89.0	0.0	-996.0	
1636893337.605208	-6.0	0.0	-171.0	-6.0	0.0	0.0	58.0	61.0	165.0	150.0	23.0	960.83	200.0	-93.0	-1.0	-977.0	
1636893337.708454	-3.0	0.0	-171.0	-6.0	0.0	0.0	58.0	61.0	165.0	150.0	23.0	960.78	201.0	-90.0	-9.0	-1009.0	
1636893337.808872	-1.0	0.0	-171.0	-6.0	0.0	0.0	58.0	61.0	166.0	150.0	23.0	960.82	201.0	-102.0	-15.0	-988.0	
1636893337.91235	-1.0	0.0	-170.0	-5.0	0.0	0.0	58.0	61.0	167.0	150.0	23.0	960.86	201.0	-93.0	-1.0	-987.0	
1636893338.016467	-1.0	0.0	-170.0	-4.0	0.0	0.0	58.0	61.0	168.0	150.0	23.0	960.81	201.0	-79.0	0.0	-977.0	
1636893338.118032	-2.0	0.0	-170.0	-4.0	0.0	0.0	58.0	61.0	168.0	150.0	23.0	960.89	201.0	-88.0	17.0	-989.0	
1636893338.218174	-7.0	0.0	-170.0	-4.0	0.0	0.0	58.0	61.0	168.0	150.0	23.0	960.99	201.0	-53.0	-5.0	-1007.0	
