timestamp	pitch	roll	yaw	vgx	vgy	vgz	templ	temph	tof	h	bat	baro	time	agx	agy	agz	
8.0	0.0	10.0	-4.0	-1.0	0.0	67.0	70.0	294.0	290.0	60.0	970.21	173.0	117.0	-22.0	-1006.0	1636887601.530158	
8.0	0.0	10.0	-4.0	-1.0	0.0	67.0	70.0	294.0	290.0	60.0	970.21	173.0	117.0	-22.0	-1006.0	1636887601.530158	
8.0	0.0	9.0	-4.0	-1.0	0.0	67.0	70.0	288.0	290.0	60.0	970.02	174.0	127.0	-36.0	-984.0	1636887601.633	
8.0	0.0	9.0	-5.0	-1.0	0.0	67.0	70.0	292.0	290.0	60.0	970.11	174.0	118.0	-21.0	-997.0	1636887601.736488	
8.0	0.0	9.0	-5.0	-1.0	0.0	67.0	70.0	290.0	290.0	60.0	970.17	174.0	120.0	-21.0	-990.0	1636887601.838657	
8.0	0.0	9.0	-5.0	-1.0	0.0	67.0	70.0	292.0	290.0	60.0	970.14	174.0	137.0	-35.0	-988.0	1636887601.941098	
8.0	0.0	9.0	-5.0	-2.0	0.0	67.0	70.0	299.0	290.0	60.0	970.0	174.0	106.0	-9.0	-1007.0	1636887602.041057	
8.0	0.0	9.0	-6.0	-2.0	0.0	67.0	70.0	289.0	290.0	60.0	970.14	174.0	121.0	-15.0	-990.0	1636887602.142456	
8.0	0.0	9.0	-6.0	-2.0	0.0	67.0	70.0	290.0	290.0	60.0	970.09	174.0	151.0	-38.0	-988.0	1636887602.244923	
8.0	1.0	9.0	-6.0	-2.0	0.0	67.0	70.0	288.0	290.0	60.0	970.13	174.0	144.0	-31.0	-984.0	1636887602.346595	
8.0	1.0	10.0	-6.0	-2.0	0.0	68.0	70.0	291.0	290.0	60.0	970.13	174.0	137.0	-38.0	-995.0	1636887602.449332	
8.0	2.0	10.0	-6.0	-2.0	0.0	68.0	70.0	286.0	290.0	60.0	970.03	174.0	136.0	-24.0	-993.0	1636887602.551152	
8.0	3.0	10.0	-6.0	-2.0	0.0	68.0	70.0	289.0	290.0	60.0	969.94	175.0	155.0	-18.0	-1008.0	1636887602.654513	
8.0	3.0	10.0	-6.0	-2.0	0.0	68.0	70.0	290.0	290.0	60.0	969.94	175.0	168.0	-22.0	-984.0	1636887602.756162	
7.0	3.0	10.0	-6.0	-1.0	0.0	68.0	70.0	291.0	290.0	60.0	969.99	175.0	140.0	-18.0	-1002.0	1636887602.85618	
5.0	1.0	9.0	-6.0	-1.0	0.0	68.0	70.0	286.0	290.0	60.0	970.02	175.0	147.0	-21.0	-1003.0	1636887602.96022	
4.0	1.0	9.0	-6.0	-1.0	0.0	68.0	70.0	284.0	290.0	60.0	970.02	175.0	136.0	-24.0	-1004.0	1636887603.062104	
8.0	1.0	9.0	-5.0	-1.0	0.0	68.0	70.0	291.0	290.0	60.0	970.18	175.0	143.0	-39.0	-974.0	1636887603.112279	
9.0	0.0	9.0	-6.0	-1.0	0.0	68.0	70.0	297.0	290.0	60.0	970.12	175.0	146.0	-35.0	-994.0	1636887603.215835	
9.0	0.0	9.0	-6.0	-1.0	0.0	68.0	70.0	294.0	290.0	60.0	970.14	175.0	156.0	-49.0	-989.0	1636887603.315968	
9.0	1.0	10.0	-6.0	-2.0	0.0	67.0	69.0	300.0	290.0	60.0	970.2	175.0	140.0	-32.0	-999.0	1636887603.41663	
8.0	2.0	10.0	-6.0	-2.0	0.0	67.0	69.0	293.0	290.0	60.0	970.14	175.0	141.0	-55.0	-992.0	1636887603.520252	
8.0	2.0	10.0	-7.0	-2.0	0.0	67.0	69.0	294.0	290.0	60.0	970.14	176.0	154.0	-56.0	-977.0	1636887603.623076	
8.0	3.0	10.0	-7.0	-2.0	0.0	67.0	69.0	297.0	290.0	60.0	970.02	176.0	142.0	-50.0	-971.0	1636887603.725254	
7.0	4.0	10.0	-7.0	-2.0	0.0	67.0	69.0	291.0	290.0	60.0	970.0	176.0	149.0	-42.0	-967.0	1636887603.824178	
4.0	3.0	10.0	-6.0	-2.0	0.0	67.0	69.0	290.0	290.0	60.0	970.01	176.0	157.0	-51.0	-977.0	1636887603.929414	
4.0	3.0	10.0	-6.0	-1.0	0.0	67.0	69.0	287.0	290.0	60.0	970.16	176.0	143.0	-58.0	-980.0	1636887604.031376	
5.0	3.0	10.0	-5.0	-1.0	0.0	67.0	69.0	292.0	290.0	60.0	970.11	176.0	152.0	-44.0	-943.0	1636887604.131247	
9.0	2.0	10.0	-5.0	-1.0	0.0	67.0	69.0	295.0	290.0	60.0	970.15	176.0	128.0	-38.0	-994.0	1636887604.235107	
9.0	1.0	10.0	-5.0	-1.0	0.0	67.0	69.0	293.0	290.0	59.0	970.03	176.0	132.0	-33.0	-1002.0	1636887604.337743	
8.0	2.0	10.0	-6.0	-2.0	0.0	67.0	70.0	292.0	290.0	59.0	969.93	176.0	159.0	-40.0	-995.0	1636887604.438846	
8.0	2.0	10.0	-6.0	-2.0	0.0	67.0	70.0	292.0	290.0	59.0	969.92	176.0	161.0	-38.0	-998.0	1636887604.538047	
8.0	3.0	10.0	-6.0	-1.0	0.0	67.0	70.0	298.0	290.0	59.0	969.9	177.0	150.0	-27.0	-984.0	1636887604.640427	
8.0	3.0	10.0	-6.0	-1.0	0.0	67.0	70.0	298.0	290.0	59.0	970.04	177.0	153.0	-34.0	-962.0	1636887604.742134	
6.0	2.0	10.0	-6.0	-1.0	0.0	67.0	70.0	291.0	290.0	59.0	970.11	177.0	135.0	-32.0	-976.0	1636887604.844004	
5.0	2.0	10.0	-6.0	-1.0	0.0	67.0	70.0	290.0	290.0	59.0	970.07	177.0	143.0	-36.0	-986.0	1636887604.948173	
4.0	2.0	10.0	-5.0	-1.0	0.0	67.0	70.0	288.0	290.0	59.0	970.14	177.0	133.0	-30.0	-949.0	1636887605.048931	
8.0	2.0	10.0	-5.0	-1.0	0.0	67.0	70.0	295.0	290.0	59.0	969.97	177.0	119.0	-21.0	-1007.0	1636887605.150454	
9.0	0.0	10.0	-5.0	-1.0	0.0	67.0	70.0	297.0	290.0	59.0	970.06	177.0	111.0	-25.0	-1008.0	1636887605.253773	
8.0	0.0	10.0	-6.0	-1.0	0.0	67.0	70.0	289.0	290.0	59.0	970.01	177.0	134.0	-31.0	-1013.0	1636887605.354225	
8.0	0.0	9.0	-6.0	-1.0	0.0	67.0	69.0	291.0	290.0	59.0	970.1	177.0	121.0	-22.0	-984.0	1636887605.460245	
9.0	0.0	10.0	-6.0	-1.0	0.0	67.0	69.0	298.0	290.0	59.0	970.03	177.0	116.0	-27.0	-1002.0	1636887605.561581	
8.0	1.0	10.0	-7.0	-1.0	0.0	67.0	69.0	299.0	290.0	59.0	970.03	178.0	115.0	-25.0	-976.0	1636887605.664129	
8.0	1.0	10.0	-7.0	-1.0	0.0	67.0	69.0	291.0	290.0	59.0	970.17	178.0	127.0	-47.0	-977.0	1636887605.764819	
8.0	2.0	10.0	-7.0	-2.0	0.0	67.0	69.0	296.0	290.0	59.0	969.99	178.0	137.0	-36.0	-1004.0	1636887605.86422	
7.0	3.0	10.0	-8.0	-1.0	0.0	67.0	69.0	294.0	290.0	59.0	970.05	178.0	129.0	-21.0	-994.0	1636887605.968857	
4.0	2.0	10.0	-8.0	-1.0	0.0	67.0	69.0	289.0	290.0	59.0	969.96	178.0	144.0	-33.0	-982.0	1636887606.07056	
3.0	2.0	10.0	-7.0	-1.0	0.0	67.0	69.0	292.0	290.0	59.0	970.15	178.0	134.0	-39.0	-934.0	1636887606.17269	
9.0	1.0	10.0	-7.0	-1.0	0.0	67.0	69.0	296.0	290.0	59.0	970.13	178.0	112.0	-34.0	-1014.0	1636887606.273724	
9.0	0.0	10.0	-7.0	-1.0	0.0	67.0	69.0	298.0	290.0	59.0	970.08	178.0	110.0	-34.0	-1008.0	1636887606.377072	
8.0	1.0	10.0	-8.0	-2.0	0.0	68.0	70.0	296.0	290.0	59.0	970.04	178.0	133.0	-46.0	-994.0	1636887606.481996	
8.0	2.0	10.0	-8.0	-2.0	0.0	68.0	70.0	294.0	290.0	59.0	970.08	178.0	135.0	-48.0	-994.0	1636887606.58461	
8.0	3.0	10.0	-8.0	-2.0	0.0	68.0	70.0	288.0	290.0	59.0	970.04	179.0	152.0	-53.0	-1002.0	1636887606.682496	
5.0	3.0	10.0	-8.0	-2.0	0.0	68.0	70.0	286.0	290.0	59.0	969.84	179.0	139.0	-57.0	-1004.0	1636887606.785257	
3.0	3.0	10.0	-8.0	-2.0	0.0	68.0	70.0	288.0	290.0	59.0	970.03	179.0	123.0	-49.0	-979.0	1636887606.886427	
3.0	3.0	10.0	-7.0	-1.0	0.0	68.0	70.0	286.0	290.0	59.0	970.08	179.0	150.0	-52.0	-982.0	1636887606.985776	
3.0	3.0	10.0	-6.0	-1.0	0.0	68.0	70.0	283.0	290.0	59.0	970.05	179.0	126.0	-47.0	-999.0	1636887607.089362	
3.0	3.0	10.0	-6.0	-1.0	0.0	68.0	70.0	290.0	290.0	59.0	970.07	179.0	129.0	-47.0	-999.0	1636887607.192387	
3.0	3.0	10.0	-5.0	-1.0	0.0	68.0	70.0	291.0	290.0	59.0	969.97	179.0	124.0	-42.0	-1023.0	1636887607.292256	
3.0	3.0	10.0	-4.0	-1.0	0.0	68.0	70.0	292.0	290.0	59.0	970.02	179.0	111.0	-52.0	-1000.0	1636887607.39399	
3.0	2.0	10.0	-4.0	-1.0	0.0	67.0	70.0	298.0	290.0	59.0	969.95	179.0	146.0	-33.0	-975.0	1636887607.497622	
7.0	3.0	10.0	-3.0	0.0	0.0	67.0	70.0	299.0	290.0	59.0	969.9	179.0	120.0	-24.0	-981.0	1636887607.59895	
9.0	1.0	10.0	-4.0	0.0	0.0	67.0	70.0	300.0	290.0	59.0	969.94	180.0	106.0	-33.0	-1007.0	1636887607.700828	
8.0	0.0	10.0	-4.0	-1.0	0.0	67.0	70.0	299.0	290.0	59.0	970.13	180.0	125.0	-39.0	-971.0	1636887607.754518	
8.0	0.0	10.0	-5.0	-1.0	0.0	67.0	70.0	296.0	290.0	59.0	970.01	180.0	126.0	-45.0	-987.0	1636887607.854687	
8.0	0.0	10.0	-5.0	-1.0	0.0	67.0	70.0	300.0	290.0	59.0	970.13	180.0	136.0	-43.0	-979.0	1636887607.956563	
8.0	0.0	10.0	-5.0	-2.0	0.0	67.0	70.0	304.0	290.0	59.0	970.12	180.0	156.0	-53.0	-984.0	1636887608.05697	
8.0	0.0	10.0	-6.0	-2.0	0.0	67.0	70.0	293.0	290.0	59.0	970.11	180.0	126.0	-51.0	-955.0	1636887608.159055	
8.0	1.0	10.0	-6.0	-3.0	0.0	67.0	70.0	298.0	290.0	59.0	970.05	180.0	112.0	-40.0	-992.0	1636887608.261325	
9.0	2.0	10.0	-6.0	-3.0	0.0	67.0	70.0	296.0	290.0	59.0	969.91	180.0	103.0	-27.0	-997.0	1636887608.366499	
8.0	3.0	10.0	-7.0	-2.0	0.0	67.0	70.0	294.0	290.0	59.0	969.8	180.0	127.0	-21.0	-1010.0	1636887608.467533	
8.0	2.0	10.0	-7.0	-2.0	0.0	67.0	70.0	304.0	290.0	59.0	969.89	181.0	120.0	-2.0	-991.0	1636887608.570534	
9.0	1.0	9.0	-7.0	-2.0	0.0	67.0	70.0	299.0	290.0	59.0	969.97	181.0	140.0	-29.0	-960.0	1636887608.672314	
9.0	1.0	9.0	-8.0	-2.0	0.0	67.0	70.0	300.0	290.0	59.0	970.04	181.0	114.0	-22.0	-966.0	1636887608.77305	
9.0	2.0	9.0	-8.0	-1.0	1.0	67.0	70.0	296.0	290.0	59.0	969.86	181.0	99.0	16.0	-973.0	1636887608.876191	
9.0	0.0	10.0	-9.0	-1.0	0.0	67.0	70.0	291.0	290.0	59.0	970.0	181.0	87.0	-15.0	-1051.0	1636887608.974866	
9.0	0.0	10.0	-10.0	-2.0	0.0	67.0	70.0	292.0	290.0	59.0	970.02	181.0	123.0	-26.0	-1027.0	1636887609.077138	
8.0	1.0	10.0	-10.0	-2.0	0.0	67.0	70.0	288.0	290.0	59.0	969.93	181.0	122.0	-30.0	-981.0	1636887609.182458	
3.0	2.0	9.0	-10.0	-2.0	0.0	67.0	70.0	295.0	290.0	59.0	970.0	181.0	125.0	-35.0	-1039.0	1636887609.2824	
1.0	3.0	9.0	-10.0	-1.0	0.0	67.0	70.0	290.0	290.0	59.0	969.86	181.0	120.0	-26.0	-991.0	1636887609.386716	
0.0	2.0	10.0	-9.0	-1.0	0.0	67.0	70.0	289.0	290.0	59.0	969.88	181.0	123.0	-34.0	-984.0	1636887609.488394	
0.0	1.0	10.0	-9.0	-1.0	0.0	67.0	70.0	287.0	290.0	59.0	969.92	182.0	84.0	-2.0	-1001.0	1636887609.58833	
-2.0	0.0	10.0	-8.0	0.0	0.0	67.0	70.0	284.0	290.0	59.0	969.87	182.0	75.0	-1.0	-1029.0	1636887609.691803	
-9.0	0.0	10.0	-6.0	0.0	0.0	67.0	70.0	283.0	290.0	59.0	969.84	182.0	83.0	-2.0	-999.0	1636887609.790734	
-8.0	0.0	10.0	-4.0	0.0	0.0	67.0	70.0	280.0	280.0	59.0	969.87	182.0	79.0	-5.0	-1046.0	1636887609.959938	
-8.0	0.0	10.0	-2.0	0.0	0.0	67.0	70.0	284.0	280.0	59.0	969.84	182.0	59.0	-12.0	-1035.0	1636887609.998355	
-7.0	0.0	10.0	0.0	0.0	0.0	67.0	70.0	282.0	280.0	59.0	969.89	182.0	74.0	-12.0	-1012.0	1636887610.098284	
-8.0	0.0	10.0	1.0	0.0	0.0	67.0	70.0	282.0	280.0	59.0	969.94	182.0	62.0	-18.0	-1034.0	1636887610.198891	
-8.0	0.0	10.0	2.0	0.0	0.0	67.0	70.0	284.0	280.0	59.0	970.02	182.0	36.0	-21.0	-1055.0	1636887610.300969	
-8.0	0.0	9.0	4.0	0.0	0.0	67.0	70.0	281.0	280.0	59.0	970.03	182.0	28.0	-20.0	-1016.0	1636887610.403352	
-8.0	1.0	10.0	5.0	0.0	0.0	68.0	70.0	280.0	290.0	59.0	970.04	182.0	14.0	-15.0	-1019.0	1636887610.507813	
-8.0	0.0	9.0	7.0	1.0	0.0	68.0	70.0	283.0	290.0	59.0	970.13	183.0	3.0	-7.0	-1013.0	1636887610.606601	
-8.0	0.0	9.0	8.0	1.0	0.0	68.0	70.0	284.0	290.0	59.0	970.09	183.0	-10.0	-6.0	-994.0	1636887610.711048	
-8.0	0.0	9.0	9.0	1.0	0.0	68.0	70.0	283.0	290.0	59.0	970.19	183.0	-9.0	-9.0	-1009.0	1636887610.810802	
-8.0	1.0	9.0	11.0	1.0	0.0	68.0	70.0	283.0	290.0	59.0	970.28	183.0	-12.0	-20.0	-994.0	1636887610.914103	
-5.0	2.0	9.0	12.0	1.0	0.0	68.0	70.0	288.0	290.0	59.0	970.23	183.0	-1.0	-29.0	-1014.0	1636887611.017565	
0.0	2.0	9.0	12.0	2.0	0.0	68.0	70.0	290.0	290.0	59.0	970.23	183.0	-14.0	-25.0	-999.0	1636887611.12049	
4.0	1.0	9.0	12.0	2.0	0.0	68.0	70.0	292.0	290.0	59.0	970.28	183.0	-20.0	-16.0	-974.0	1636887611.220117	
5.0	1.0	9.0	11.0	1.0	0.0	68.0	70.0	293.0	290.0	59.0	970.23	183.0	-13.0	-9.0	-1001.0	1636887611.323985	
6.0	1.0	9.0	10.0	1.0	0.0	68.0	70.0	293.0	290.0	58.0	970.21	183.0	-13.0	-39.0	-993.0	1636887611.42631	
6.0	1.0	9.0	9.0	1.0	0.0	67.0	70.0	293.0	290.0	58.0	970.21	183.0	31.0	-29.0	-1007.0	1636887611.527173	
6.0	1.0	9.0	8.0	1.0	0.0	67.0	70.0	290.0	290.0	58.0	970.14	184.0	22.0	-37.0	-999.0	1636887611.627595	
6.0	2.0	9.0	7.0	1.0	0.0	67.0	70.0	286.0	290.0	58.0	970.29	184.0	44.0	-22.0	-1009.0	1636887611.730853	
6.0	1.0	9.0	6.0	1.0	0.0	67.0	70.0	290.0	290.0	58.0	970.23	184.0	39.0	-21.0	-1029.0	1636887611.834336	
0.0	1.0	9.0	6.0	1.0	0.0	67.0	70.0	290.0	290.0	58.0	970.23	184.0	47.0	-26.0	-1013.0	1636887611.935725	
-8.0	2.0	9.0	7.0	1.0	0.0	67.0	70.0	293.0	290.0	58.0	970.16	184.0	42.0	-24.0	-963.0	1636887611.984904	
-7.0	3.0	9.0	8.0	2.0	0.0	67.0	70.0	292.0	290.0	58.0	970.17	184.0	13.0	-20.0	-1002.0	1636887612.088982	
-7.0	4.0	9.0	10.0	2.0	0.0	67.0	70.0	291.0	290.0	58.0	970.27	184.0	8.0	-20.0	-996.0	1636887612.189115	
-6.0	4.0	9.0	11.0	3.0	0.0	67.0	70.0	289.0	290.0	58.0	970.29	184.0	5.0	-33.0	-1005.0	1636887612.292828	
-6.0	5.0	9.0	12.0	3.0	0.0	67.0	70.0	285.0	290.0	58.0	970.24	184.0	0.0	-40.0	-1003.0	1636887612.392478	
-5.0	6.0	9.0	13.0	4.0	0.0	67.0	69.0	288.0	290.0	58.0	970.25	184.0	3.0	-50.0	-983.0	1636887612.494512	
-2.0	8.0	10.0	14.0	5.0	0.0	67.0	69.0	292.0	290.0	58.0	970.27	185.0	-2.0	-62.0	-992.0	1636887612.599315	
2.0	6.0	10.0	14.0	6.0	0.0	67.0	69.0	285.0	290.0	58.0	970.34	185.0	-22.0	-58.0	-1018.0	1636887612.700642	
5.0	3.0	10.0	13.0	6.0	0.0	67.0	69.0	282.0	290.0	58.0	970.4	185.0	-19.0	-62.0	-1020.0	1636887612.801663	
6.0	1.0	10.0	11.0	6.0	0.0	67.0	69.0	284.0	290.0	58.0	970.31	185.0	-15.0	-61.0	-1000.0	1636887612.905122	
6.0	1.0	10.0	10.0	5.0	0.0	67.0	69.0	280.0	280.0	58.0	970.35	185.0	3.0	-69.0	-1006.0	1636887613.006142	
7.0	1.0	10.0	9.0	5.0	0.0	67.0	69.0	285.0	280.0	58.0	970.41	185.0	6.0	-59.0	-1012.0	1636887613.109208	
6.0	1.0	10.0	8.0	4.0	0.0	67.0	69.0	282.0	280.0	58.0	970.33	185.0	2.0	-46.0	-1012.0	1636887613.211054	
6.0	1.0	10.0	7.0	4.0	0.0	67.0	69.0	281.0	280.0	58.0	970.25	185.0	23.0	-52.0	-1023.0	1636887613.313298	
6.0	1.0	10.0	7.0	3.0	0.0	67.0	69.0	279.0	280.0	57.0	970.18	185.0	31.0	-55.0	-1033.0	1636887613.412543	
3.0	1.0	10.0	6.0	3.0	0.0	66.0	69.0	277.0	280.0	57.0	970.21	185.0	37.0	-46.0	-1037.0	1636887613.515796	
-4.0	0.0	10.0	6.0	3.0	0.0	66.0	69.0	282.0	280.0	57.0	970.21	186.0	51.0	-36.0	-1003.0	1636887613.618847	
-9.0	0.0	10.0	8.0	3.0	0.0	66.0	69.0	293.0	280.0	57.0	970.27	186.0	37.0	-33.0	-995.0	1636887613.719073	
-8.0	0.0	10.0	10.0	3.0	0.0	66.0	69.0	288.0	280.0	57.0	970.31	186.0	27.0	-40.0	-1026.0	1636887613.822249	
-7.0	0.0	10.0	11.0	3.0	0.0	66.0	69.0	288.0	280.0	57.0	970.33	186.0	37.0	-49.0	-978.0	1636887613.923971	
0.0	0.0	10.0	12.0	3.0	0.0	66.0	69.0	284.0	280.0	57.0	970.32	186.0	10.0	-43.0	-1016.0	1636887614.024839	
5.0	0.0	10.0	12.0	3.0	0.0	66.0	69.0	294.0	280.0	57.0	970.3	186.0	14.0	-39.0	-1003.0	1636887614.129297	
6.0	1.0	10.0	11.0	2.0	0.0	66.0	69.0	294.0	290.0	57.0	970.3	186.0	10.0	-39.0	-998.0	1636887614.230798	
7.0	1.0	10.0	10.0	2.0	0.0	66.0	69.0	295.0	290.0	57.0	970.31	186.0	14.0	-37.0	-1011.0	1636887614.330055	
7.0	1.0	10.0	9.0	2.0	0.0	66.0	69.0	297.0	290.0	57.0	970.32	186.0	23.0	-50.0	-979.0	1636887614.431803	
7.0	2.0	10.0	8.0	1.0	0.0	67.0	69.0	297.0	290.0	57.0	970.35	186.0	13.0	-29.0	-1000.0	1636887614.534079	
7.0	2.0	10.0	7.0	1.0	0.0	67.0	69.0	296.0	290.0	57.0	970.27	187.0	13.0	-37.0	-993.0	1636887614.638743	
6.0	2.0	10.0	7.0	1.0	0.0	67.0	69.0	288.0	290.0	57.0	970.32	187.0	37.0	-52.0	-979.0	1636887614.74042	
6.0	2.0	10.0	6.0	0.0	0.0	67.0	69.0	292.0	290.0	57.0	970.34	187.0	34.0	-43.0	-985.0	1636887614.842029	
2.0	2.0	10.0	5.0	0.0	0.0	67.0	69.0	292.0	290.0	57.0	970.31	187.0	27.0	-38.0	-1013.0	1636887614.945377	
-6.0	2.0	9.0	6.0	1.0	0.0	67.0	69.0	303.0	290.0	57.0	970.41	187.0	68.0	-56.0	-983.0	1636887615.046031	
-8.0	2.0	9.0	7.0	1.0	0.0	67.0	69.0	301.0	290.0	57.0	970.32	187.0	20.0	-39.0	-1014.0	1636887615.146688	
-8.0	2.0	9.0	9.0	1.0	0.0	67.0	69.0	307.0	290.0	57.0	970.44	187.0	16.0	-45.0	-1009.0	1636887615.251073	
-8.0	2.0	9.0	10.0	2.0	0.0	67.0	69.0	302.0	290.0	57.0	970.4	187.0	19.0	-48.0	-993.0	1636887615.35101	
-8.0	2.0	9.0	12.0	2.0	0.0	67.0	69.0	306.0	290.0	57.0	970.38	187.0	-5.0	-33.0	-1009.0	1636887615.454242	
-6.0	3.0	9.0	13.0	2.0	0.0	67.0	69.0	300.0	300.0	57.0	970.41	187.0	5.0	-31.0	-942.0	1636887615.55696	
0.0	3.0	10.0	14.0	3.0	0.0	67.0	69.0	296.0	300.0	57.0	970.28	188.0	-21.0	-37.0	-995.0	1636887615.659138	
4.0	2.0	10.0	13.0	3.0	0.0	67.0	69.0	292.0	290.0	57.0	970.37	188.0	-10.0	-54.0	-998.0	1636887615.757919	
6.0	1.0	10.0	12.0	3.0	0.0	67.0	69.0	293.0	290.0	57.0	970.31	188.0	-18.0	-39.0	-998.0	1636887615.861788	
7.0	1.0	10.0	11.0	2.0	0.0	67.0	69.0	298.0	290.0	57.0	970.34	188.0	-3.0	-45.0	-1007.0	1636887615.916963	
7.0	1.0	10.0	10.0	2.0	0.0	67.0	69.0	294.0	290.0	57.0	970.34	188.0	5.0	-42.0	-1020.0	1636887616.014267	
7.0	2.0	10.0	9.0	2.0	0.0	67.0	69.0	294.0	290.0	57.0	970.33	188.0	13.0	-46.0	-1013.0	1636887616.116637	
7.0	2.0	10.0	8.0	1.0	0.0	67.0	69.0	292.0	290.0	57.0	970.29	188.0	19.0	-46.0	-1009.0	1636887616.217231	
7.0	2.0	10.0	7.0	1.0	0.0	67.0	69.0	291.0	290.0	57.0	970.31	188.0	22.0	-34.0	-1022.0	1636887616.318871	
1.0	2.0	9.0	7.0	1.0	0.0	67.0	69.0	288.0	290.0	57.0	970.27	188.0	38.0	-37.0	-1025.0	1636887616.420321	
-7.0	2.0	9.0	7.0	1.0	0.0	67.0	68.0	294.0	290.0	57.0	970.3	188.0	37.0	-23.0	-1009.0	1636887616.525192	
-8.0	1.0	9.0	9.0	2.0	0.0	67.0	68.0	297.0	290.0	57.0	970.35	189.0	33.0	-46.0	-1024.0	1636887616.626631	
-8.0	1.0	9.0	11.0	2.0	0.0	67.0	68.0	296.0	290.0	57.0	970.36	189.0	14.0	-35.0	-1009.0	1636887616.72799	
-7.0	1.0	9.0	12.0	2.0	0.0	67.0	68.0	293.0	290.0	57.0	970.41	189.0	1.0	-19.0	-971.0	1636887616.82841	
0.0	1.0	10.0	13.0	2.0	0.0	67.0	68.0	291.0	290.0	57.0	970.34	189.0	-10.0	-38.0	-1009.0	1636887616.934461	
4.0	1.0	10.0	13.0	2.0	0.0	67.0	68.0	292.0	290.0	57.0	970.41	189.0	-18.0	-29.0	-1014.0	1636887617.035086	
6.0	1.0	10.0	12.0	2.0	0.0	67.0	68.0	289.0	290.0	57.0	970.39	189.0	-14.0	-31.0	-995.0	1636887617.136887	
6.0	1.0	10.0	11.0	2.0	0.0	67.0	68.0	289.0	290.0	57.0	970.38	189.0	5.0	-35.0	-999.0	1636887617.239308	
6.0	1.0	10.0	10.0	1.0	0.0	67.0	68.0	284.0	290.0	57.0	970.39	189.0	0.0	-22.0	-1003.0	1636887617.34086	
6.0	1.0	10.0	9.0	1.0	0.0	67.0	68.0	286.0	290.0	57.0	970.24	189.0	13.0	-34.0	-1018.0	1636887617.442363	
6.0	1.0	10.0	8.0	1.0	0.0	66.0	68.0	290.0	290.0	57.0	970.36	189.0	23.0	-42.0	-979.0	1636887617.543193	
6.0	2.0	10.0	7.0	1.0	0.0	66.0	68.0	285.0	290.0	57.0	970.31	190.0	6.0	-19.0	-1031.0	1636887617.647661	
8.0	1.0	10.0	6.0	1.0	0.0	66.0	68.0	292.0	290.0	57.0	970.37	190.0	24.0	-21.0	-1001.0	1636887617.747927	
8.0	0.0	10.0	5.0	1.0	0.0	66.0	68.0	295.0	290.0	57.0	970.31	190.0	7.0	-16.0	-1006.0	1636887617.848377	
8.0	0.0	10.0	4.0	0.0	0.0	66.0	68.0	293.0	290.0	57.0	970.3	190.0	27.0	-28.0	-1002.0	1636887617.9545	
8.0	0.0	10.0	3.0	0.0	0.0	66.0	68.0	290.0	290.0	57.0	970.22	190.0	31.0	-40.0	-992.0	1636887618.053586	
8.0	0.0	10.0	2.0	0.0	0.0	66.0	68.0	292.0	290.0	57.0	970.24	190.0	42.0	-29.0	-993.0	1636887618.156505	
8.0	0.0	10.0	1.0	0.0	0.0	66.0	68.0	290.0	290.0	57.0	970.26	190.0	47.0	-38.0	-976.0	1636887618.258726	
8.0	0.0	10.0	0.0	0.0	0.0	66.0	68.0	295.0	290.0	57.0	970.25	190.0	46.0	-28.0	-977.0	1636887618.361251	
8.0	0.0	10.0	0.0	0.0	0.0	66.0	68.0	289.0	290.0	57.0	970.21	190.0	60.0	-22.0	-983.0	1636887618.46364	
8.0	0.0	10.0	-1.0	-1.0	0.0	66.0	68.0	287.0	290.0	57.0	970.26	190.0	77.0	-19.0	-1000.0	1636887618.565943	
8.0	0.0	10.0	-2.0	-1.0	0.0	66.0	68.0	283.0	290.0	57.0	970.21	191.0	85.0	-22.0	-1009.0	1636887618.665132	
8.0	0.0	10.0	-2.0	-1.0	0.0	66.0	68.0	285.0	290.0	57.0	970.29	191.0	72.0	-17.0	-1001.0	1636887618.767026	
8.0	0.0	10.0	-3.0	-1.0	0.0	66.0	68.0	289.0	290.0	57.0	970.25	191.0	106.0	-30.0	-989.0	1636887618.87037	
8.0	0.0	10.0	-3.0	-2.0	0.0	66.0	68.0	287.0	290.0	57.0	970.2	191.0	105.0	-15.0	-997.0	1636887618.97265	
8.0	0.0	10.0	-4.0	-2.0	0.0	66.0	68.0	282.0	290.0	57.0	970.28	191.0	97.0	-15.0	-1009.0	1636887619.07677	
8.0	0.0	10.0	-4.0	-2.0	0.0	66.0	68.0	294.0	290.0	57.0	970.32	191.0	89.0	-18.0	-1002.0	1636887619.177124	
8.0	0.0	10.0	-5.0	-2.0	0.0	66.0	68.0	284.0	290.0	57.0	970.2	191.0	93.0	-14.0	-1025.0	1636887619.2818	
8.0	0.0	10.0	-5.0	-2.0	0.0	66.0	68.0	284.0	290.0	57.0	970.23	191.0	125.0	-31.0	-994.0	1636887619.380498	
8.0	0.0	10.0	-6.0	-3.0	0.0	66.0	68.0	285.0	290.0	57.0	970.29	191.0	98.0	-7.0	-1023.0	1636887619.485132	
8.0	0.0	10.0	-6.0	-3.0	0.0	66.0	69.0	293.0	290.0	57.0	970.09	191.0	106.0	-6.0	-1002.0	1636887619.587833	
8.0	0.0	9.0	-6.0	-3.0	0.0	66.0	69.0	293.0	290.0	57.0	970.17	192.0	117.0	-15.0	-996.0	1636887619.68457	
8.0	0.0	9.0	-7.0	-3.0	0.0	66.0	69.0	286.0	290.0	57.0	970.11	192.0	141.0	-25.0	-983.0	1636887619.788071	
8.0	0.0	10.0	-7.0	-3.0	0.0	66.0	69.0	293.0	290.0	57.0	970.19	192.0	119.0	-8.0	-997.0	1636887619.888565	
8.0	0.0	10.0	-7.0	-3.0	0.0	66.0	69.0	286.0	290.0	57.0	970.17	192.0	107.0	-4.0	-995.0	1636887619.992948	
8.0	0.0	10.0	-7.0	-3.0	0.0	66.0	69.0	290.0	290.0	57.0	970.15	192.0	111.0	-18.0	-1000.0	1636887620.095574	
8.0	0.0	10.0	-8.0	-3.0	0.0	66.0	69.0	288.0	290.0	57.0	970.13	192.0	146.0	-38.0	-993.0	1636887620.146871	
8.0	0.0	10.0	-8.0	-4.0	0.0	66.0	69.0	288.0	290.0	57.0	970.24	192.0	125.0	0.0	-990.0	1636887620.250626	
8.0	0.0	10.0	-8.0	-4.0	0.0	66.0	69.0	297.0	290.0	57.0	970.17	192.0	128.0	-21.0	-1004.0	1636887620.35106	
8.0	0.0	10.0	-8.0	-4.0	0.0	66.0	69.0	288.0	290.0	57.0	970.13	192.0	137.0	-37.0	-1005.0	1636887620.450873	
8.0	0.0	10.0	-8.0	-4.0	0.0	66.0	69.0	290.0	290.0	57.0	970.01	192.0	129.0	-12.0	-993.0	1636887620.554399	
8.0	1.0	9.0	-9.0	-4.0	0.0	66.0	69.0	287.0	290.0	57.0	969.89	193.0	135.0	-6.0	-1002.0	1636887620.655888	
8.0	1.0	10.0	-9.0	-4.0	0.0	66.0	69.0	291.0	290.0	57.0	969.92	193.0	151.0	-10.0	-978.0	1636887620.757634	
8.0	0.0	10.0	-9.0	-4.0	0.0	66.0	69.0	289.0	290.0	57.0	970.0	193.0	152.0	-12.0	-1004.0	1636887620.85953	
8.0	1.0	10.0	-9.0	-4.0	0.0	66.0	69.0	292.0	290.0	57.0	969.94	193.0	172.0	-20.0	-982.0	1636887620.963135	
8.0	0.0	10.0	-9.0	-4.0	0.0	66.0	69.0	289.0	290.0	57.0	969.99	193.0	159.0	-17.0	-1003.0	1636887621.064324	
8.0	0.0	10.0	-9.0	-4.0	0.0	66.0	69.0	290.0	290.0	57.0	969.86	193.0	151.0	-12.0	-999.0	1636887621.164198	
8.0	1.0	10.0	-9.0	-4.0	0.0	66.0	69.0	291.0	290.0	57.0	969.78	193.0	166.0	14.0	-974.0	1636887621.267063	
8.0	1.0	10.0	-9.0	-4.0	0.0	66.0	69.0	289.0	290.0	57.0	969.88	193.0	149.0	9.0	-970.0	1636887621.370924	
8.0	0.0	10.0	-9.0	-4.0	0.0	66.0	69.0	295.0	290.0	57.0	970.0	193.0	167.0	-17.0	-994.0	1636887621.474166	
9.0	0.0	10.0	-9.0	-4.0	0.0	66.0	68.0	302.0	290.0	57.0	969.95	193.0	138.0	-4.0	-991.0	1636887621.575359	
9.0	0.0	10.0	-9.0	-4.0	0.0	66.0	68.0	301.0	290.0	57.0	969.84	194.0	143.0	-13.0	-984.0	1636887621.676875	
9.0	0.0	10.0	-9.0	-4.0	0.0	66.0	68.0	292.0	290.0	57.0	969.92	194.0	149.0	-28.0	-959.0	1636887621.776811	
8.0	0.0	10.0	-9.0	-4.0	0.0	66.0	68.0	295.0	290.0	57.0	969.78	194.0	148.0	-8.0	-979.0	1636887621.877741	
8.0	0.0	10.0	-9.0	-4.0	0.0	66.0	68.0	296.0	290.0	57.0	969.88	194.0	159.0	-23.0	-987.0	1636887621.982481	
8.0	1.0	10.0	-9.0	-4.0	0.0	66.0	68.0	295.0	290.0	57.0	969.85	194.0	142.0	-2.0	-994.0	1636887622.081813	
8.0	0.0	10.0	-9.0	-4.0	0.0	66.0	68.0	300.0	290.0	57.0	969.72	194.0	170.0	1.0	-990.0	1636887622.185523	
8.0	0.0	10.0	-9.0	-4.0	0.0	66.0	68.0	297.0	290.0	57.0	969.75	194.0	161.0	-3.0	-976.0	1636887622.28614	
8.0	0.0	10.0	-9.0	-4.0	0.0	66.0	68.0	298.0	290.0	56.0	969.79	194.0	168.0	-31.0	-974.0	1636887622.389236	
9.0	0.0	10.0	-9.0	-4.0	0.0	66.0	68.0	295.0	290.0	56.0	969.86	194.0	168.0	-5.0	-998.0	1636887622.491285	
8.0	0.0	10.0	-9.0	-4.0	0.0	66.0	68.0	301.0	290.0	56.0	969.83	195.0	151.0	-6.0	-980.0	1636887622.595388	
8.0	1.0	9.0	-9.0	-4.0	0.0	66.0	68.0	298.0	290.0	56.0	969.74	195.0	136.0	-18.0	-1020.0	1636887622.695283	
8.0	1.0	10.0	-9.0	-4.0	0.0	66.0	68.0	301.0	290.0	56.0	969.82	195.0	139.0	-7.0	-996.0	1636887622.796767	
9.0	1.0	10.0	-9.0	-4.0	0.0	66.0	68.0	301.0	290.0	56.0	969.86	195.0	147.0	-5.0	-963.0	1636887622.897889	
8.0	0.0	10.0	-10.0	-4.0	0.0	66.0	68.0	299.0	290.0	56.0	969.99	195.0	143.0	-2.0	-989.0	1636887622.999546	
8.0	0.0	9.0	-10.0	-4.0	0.0	66.0	68.0	297.0	290.0	56.0	969.76	195.0	134.0	-7.0	-992.0	1636887623.103198	
8.0	1.0	10.0	-10.0	-4.0	0.0	66.0	68.0	301.0	290.0	56.0	969.61	195.0	145.0	4.0	-947.0	1636887623.207808	
9.0	0.0	10.0	-10.0	-4.0	0.0	66.0	68.0	303.0	290.0	56.0	969.97	195.0	142.0	-9.0	-951.0	1636887623.307405	
9.0	1.0	10.0	-10.0	-4.0	0.0	66.0	68.0	299.0	290.0	56.0	969.8	195.0	157.0	-23.0	-994.0	1636887623.409893	
8.0	2.0	10.0	-10.0	-4.0	0.0	66.0	68.0	299.0	290.0	56.0	969.69	195.0	150.0	-17.0	-996.0	1636887623.509571	
8.0	2.0	10.0	-10.0	-4.0	0.0	66.0	68.0	294.0	290.0	56.0	969.79	196.0	143.0	-14.0	-999.0	1636887623.6115	
8.0	2.0	10.0	-10.0	-4.0	0.0	66.0	68.0	298.0	290.0	56.0	969.84	196.0	148.0	-31.0	-988.0	1636887623.715702	
8.0	3.0	10.0	-10.0	-4.0	0.0	66.0	68.0	297.0	290.0	56.0	969.88	196.0	156.0	-47.0	-989.0	1636887623.814964	
7.0	4.0	10.0	-10.0	-3.0	0.0	66.0	68.0	289.0	290.0	56.0	969.88	196.0	142.0	-42.0	-988.0	1636887623.919801	
6.0	5.0	10.0	-10.0	-3.0	0.0	66.0	68.0	291.0	290.0	56.0	969.9	196.0	155.0	-30.0	-994.0	1636887624.022055	
4.0	4.0	9.0	-10.0	-2.0	0.0	66.0	68.0	283.0	290.0	56.0	969.94	196.0	149.0	-36.0	-993.0	1636887624.124608	
2.0	3.0	9.0	-9.0	-2.0	0.0	66.0	68.0	287.0	290.0	56.0	969.78	196.0	124.0	-31.0	-1023.0	1636887624.224842	
1.0	3.0	9.0	-8.0	-1.0	0.0	66.0	68.0	290.0	290.0	56.0	969.83	196.0	120.0	-17.0	-996.0	1636887624.330255	
1.0	1.0	9.0	-7.0	-1.0	0.0	66.0	68.0	286.0	290.0	56.0	969.78	196.0	89.0	-19.0	-1027.0	1636887624.428366	
1.0	1.0	9.0	-7.0	-1.0	0.0	66.0	68.0	285.0	290.0	56.0	969.94	196.0	106.0	-15.0	-1007.0	1636887624.530206	
1.0	0.0	10.0	-6.0	0.0	0.0	66.0	68.0	289.0	290.0	56.0	969.93	197.0	111.0	-29.0	-992.0	1636887624.634565	
1.0	1.0	10.0	-5.0	0.0	0.0	66.0	68.0	289.0	290.0	56.0	969.86	197.0	122.0	-22.0	-998.0	1636887624.733623	
2.0	1.0	10.0	-5.0	0.0	0.0	66.0	68.0	287.0	290.0	56.0	969.94	197.0	110.0	-18.0	-992.0	1636887624.78555	
2.0	0.0	10.0	-4.0	0.0	0.0	66.0	68.0	284.0	290.0	56.0	969.97	197.0	103.0	-30.0	-996.0	1636887624.88755	
2.0	0.0	10.0	-4.0	0.0	0.0	66.0	68.0	287.0	280.0	56.0	969.83	197.0	77.0	-8.0	-1021.0	1636887624.989724	
2.0	0.0	10.0	-3.0	0.0	0.0	66.0	68.0	290.0	280.0	56.0	969.79	197.0	66.0	-18.0	-1018.0	1636887625.090006	
2.0	0.0	10.0	-3.0	0.0	0.0	66.0	68.0	286.0	290.0	56.0	969.92	197.0	77.0	-31.0	-1000.0	1636887625.192239	
2.0	0.0	10.0	-3.0	0.0	0.0	66.0	68.0	293.0	290.0	56.0	969.88	197.0	55.0	-22.0	-983.0	1636887625.29492	
1.0	1.0	10.0	-2.0	0.0	0.0	66.0	68.0	291.0	290.0	56.0	969.94	197.0	60.0	-26.0	-973.0	1636887625.396222	
1.0	1.0	10.0	-2.0	0.0	0.0	66.0	68.0	292.0	290.0	56.0	969.92	197.0	65.0	-38.0	-967.0	1636887625.49875	
1.0	1.0	10.0	-2.0	0.0	0.0	66.0	68.0	292.0	290.0	56.0	969.99	198.0	45.0	-30.0	-1004.0	1636887625.602649	
1.0	1.0	10.0	-2.0	0.0	0.0	66.0	68.0	294.0	290.0	56.0	969.89	198.0	55.0	-27.0	-998.0	1636887625.705713	
2.0	1.0	9.0	-1.0	0.0	0.0	66.0	68.0	296.0	290.0	56.0	970.02	198.0	43.0	-22.0	-983.0	1636887625.803924	
1.0	1.0	9.0	-1.0	0.0	0.0	66.0	68.0	292.0	290.0	56.0	969.97	198.0	43.0	-23.0	-985.0	1636887625.909682	
0.0	0.0	9.0	-1.0	0.0	0.0	66.0	68.0	293.0	290.0	56.0	970.02	198.0	49.0	-17.0	-1005.0	1636887626.011751	
0.0	1.0	9.0	0.0	0.0	0.0	66.0	68.0	292.0	290.0	56.0	969.98	198.0	38.0	-16.0	-995.0	1636887626.110703	
0.0	0.0	9.0	0.0	0.0	0.0	66.0	68.0	292.0	290.0	56.0	970.11	198.0	51.0	-15.0	-1003.0	1636887626.215363	
1.0	0.0	9.0	0.0	0.0	0.0	66.0	68.0	296.0	290.0	56.0	970.09	198.0	44.0	-10.0	-1016.0	1636887626.317695	
0.0	0.0	9.0	0.0	0.0	0.0	66.0	68.0	290.0	290.0	56.0	970.18	198.0	26.0	11.0	-1014.0	1636887626.419691	
-7.0	0.0	10.0	0.0	0.0	0.0	66.0	68.0	300.0	290.0	56.0	970.09	198.0	40.0	-5.0	-1014.0	1636887626.521582	
-8.0	0.0	10.0	2.0	0.0	0.0	65.0	68.0	297.0	290.0	56.0	970.15	199.0	14.0	-2.0	-1035.0	1636887626.623244	
-6.0	0.0	9.0	4.0	1.0	0.0	65.0	68.0	289.0	290.0	56.0	970.13	199.0	20.0	-29.0	-1007.0	1636887626.72366	
0.0	0.0	9.0	5.0	1.0	0.0	65.0	68.0	292.0	290.0	56.0	970.11	199.0	-3.0	-16.0	-1026.0	1636887626.824258	
1.0	0.0	9.0	5.0	1.0	0.0	65.0	68.0	296.0	290.0	56.0	970.13	199.0	10.0	-21.0	-987.0	1636887626.926584	
2.0	0.0	9.0	5.0	1.0	0.0	65.0	68.0	298.0	290.0	56.0	970.11	199.0	13.0	-11.0	-991.0	1636887627.02963	
3.0	0.0	9.0	4.0	1.0	0.0	65.0	68.0	291.0	290.0	56.0	970.2	199.0	3.0	-6.0	-977.0	1636887627.132432	
4.0	0.0	9.0	4.0	1.0	0.0	65.0	68.0	297.0	290.0	56.0	970.19	199.0	21.0	-15.0	-998.0	1636887627.236355	
4.0	0.0	9.0	4.0	1.0	0.0	65.0	68.0	294.0	290.0	56.0	970.16	199.0	22.0	-24.0	-1020.0	1636887627.334757	
-1.0	0.0	9.0	4.0	1.0	0.0	65.0	68.0	296.0	290.0	56.0	970.14	199.0	13.0	-9.0	-993.0	1636887627.438618	
-8.0	0.0	9.0	5.0	1.0	0.0	65.0	68.0	301.0	290.0	56.0	970.15	199.0	45.0	-10.0	-954.0	1636887627.541538	
-8.0	1.0	9.0	6.0	1.0	0.0	66.0	69.0	302.0	290.0	56.0	970.18	200.0	2.0	-21.0	-986.0	1636887627.641457	
-8.0	2.0	9.0	8.0	1.0	0.0	66.0	69.0	299.0	290.0	56.0	970.22	200.0	-2.0	-17.0	-983.0	1636887627.744016	
-5.0	2.0	9.0	10.0	2.0	0.0	66.0	69.0	295.0	290.0	56.0	970.18	200.0	10.0	-40.0	-957.0	1636887627.844029	
1.0	1.0	9.0	10.0	2.0	0.0	66.0	69.0	283.0	290.0	56.0	970.24	200.0	-23.0	-7.0	-997.0	1636887627.947794	
4.0	1.0	9.0	10.0	2.0	0.0	66.0	69.0	282.0	290.0	56.0	970.13	200.0	-17.0	-24.0	-1012.0	1636887628.051597	
5.0	1.0	9.0	9.0	2.0	0.0	66.0	69.0	285.0	290.0	56.0	970.23	200.0	4.0	-22.0	-1017.0	1636887628.153071	
5.0	1.0	9.0	8.0	1.0	0.0	66.0	69.0	285.0	290.0	56.0	970.23	200.0	2.0	-15.0	-1046.0	1636887628.254984	
5.0	1.0	9.0	7.0	1.0	0.0	66.0	69.0	286.0	290.0	55.0	970.12	200.0	19.0	-19.0	-1019.0	1636887628.356421	
5.0	1.0	9.0	7.0	1.0	0.0	66.0	69.0	283.0	290.0	55.0	970.15	200.0	13.0	-28.0	-1034.0	1636887628.458353	
5.0	1.0	9.0	6.0	1.0	0.0	66.0	69.0	279.0	290.0	55.0	970.11	200.0	9.0	-18.0	-1023.0	1636887628.510291	
5.0	1.0	9.0	5.0	1.0	0.0	66.0	67.0	285.0	290.0	55.0	970.05	201.0	11.0	0.0	-1048.0	1636887628.663184	
5.0	1.0	9.0	4.0	1.0	0.0	66.0	67.0	279.0	280.0	55.0	970.06	201.0	36.0	-25.0	-1026.0	1636887628.765138	
5.0	1.0	9.0	4.0	1.0	0.0	66.0	67.0	279.0	290.0	55.0	970.12	201.0	30.0	-20.0	-1006.0	1636887628.864296	
4.0	0.0	10.0	3.0	1.0	0.0	66.0	67.0	280.0	290.0	55.0	970.2	201.0	31.0	-6.0	-995.0	1636887628.917734	
4.0	0.0	10.0	3.0	1.0	0.0	66.0	67.0	283.0	290.0	55.0	970.13	201.0	45.0	-4.0	-992.0	1636887629.019463	
4.0	0.0	10.0	3.0	1.0	0.0	66.0	67.0	283.0	290.0	55.0	970.28	201.0	34.0	-3.0	-977.0	1636887629.121056	
4.0	0.0	10.0	2.0	1.0	0.0	66.0	67.0	280.0	290.0	55.0	970.18	201.0	54.0	-16.0	-989.0	1636887629.316766	
4.0	0.0	10.0	2.0	1.0	0.0	66.0	67.0	280.0	290.0	55.0	970.24	201.0	67.0	-25.0	-993.0	1636887629.326024	
4.0	0.0	10.0	2.0	1.0	0.0	66.0	67.0	279.0	290.0	55.0	970.21	201.0	51.0	-15.0	-995.0	1636887629.426412	
4.0	0.0	10.0	2.0	1.0	0.0	66.0	67.0	276.0	290.0	55.0	970.25	201.0	40.0	-2.0	-1001.0	1636887629.529276	
4.0	0.0	10.0	1.0	1.0	0.0	65.0	68.0	277.0	290.0	55.0	970.14	202.0	57.0	-5.0	-991.0	1636887629.632723	
4.0	0.0	10.0	1.0	0.0	0.0	65.0	68.0	277.0	290.0	55.0	970.17	202.0	39.0	12.0	-980.0	1636887629.733828	
7.0	-1.0	10.0	1.0	0.0	0.0	65.0	68.0	277.0	290.0	55.0	970.13	202.0	49.0	5.0	-998.0	1636887629.83605	
6.0	0.0	10.0	0.0	0.0	0.0	65.0	68.0	279.0	280.0	55.0	970.18	202.0	56.0	4.0	-1021.0	1636887629.936941	
5.0	0.0	10.0	0.0	0.0	0.0	65.0	68.0	279.0	280.0	55.0	970.13	202.0	47.0	1.0	-1039.0	1636887630.038211	
5.0	0.0	10.0	0.0	0.0	0.0	65.0	68.0	274.0	280.0	55.0	970.14	202.0	47.0	11.0	-1015.0	1636887630.142504	
4.0	0.0	10.0	0.0	0.0	0.0	65.0	68.0	276.0	280.0	55.0	970.14	202.0	80.0	-11.0	-993.0	1636887630.243299	
4.0	0.0	10.0	0.0	0.0	0.0	65.0	68.0	274.0	280.0	55.0	970.02	202.0	74.0	-8.0	-1002.0	1636887630.342601	
4.0	0.0	10.0	0.0	0.0	0.0	65.0	68.0	275.0	280.0	55.0	970.08	202.0	53.0	-3.0	-1000.0	1636887630.44891	
4.0	0.0	10.0	0.0	0.0	0.0	65.0	68.0	278.0	280.0	55.0	970.01	202.0	55.0	-6.0	-1012.0	1636887630.548462	
4.0	0.0	10.0	0.0	0.0	0.0	64.0	68.0	282.0	280.0	55.0	970.05	203.0	50.0	-19.0	-1008.0	1636887630.652295	
3.0	0.0	10.0	0.0	0.0	0.0	64.0	68.0	273.0	280.0	55.0	970.02	203.0	59.0	-5.0	-1005.0	1636887630.751093	
3.0	0.0	10.0	0.0	0.0	0.0	64.0	68.0	282.0	280.0	55.0	970.09	203.0	67.0	-21.0	-993.0	1636887630.852868	
3.0	1.0	10.0	0.0	0.0	0.0	64.0	68.0	285.0	280.0	55.0	970.13	203.0	49.0	-9.0	-1001.0	1636887630.956877	
3.0	0.0	10.0	0.0	0.0	0.0	64.0	68.0	280.0	280.0	55.0	970.13	203.0	61.0	-11.0	-1008.0	1636887631.060356	
3.0	0.0	10.0	0.0	0.0	0.0	64.0	68.0	278.0	280.0	55.0	970.02	203.0	66.0	-26.0	-1007.0	1636887631.160763	
3.0	0.0	10.0	0.0	0.0	0.0	64.0	68.0	282.0	280.0	55.0	970.09	203.0	35.0	-4.0	-1023.0	1636887631.263822	
3.0	1.0	10.0	0.0	0.0	0.0	64.0	68.0	279.0	280.0	55.0	970.13	203.0	48.0	-13.0	-1008.0	1636887631.366289	
3.0	1.0	10.0	0.0	0.0	0.0	64.0	68.0	278.0	280.0	55.0	970.28	203.0	71.0	-8.0	-975.0	1636887631.468227	
3.0	0.0	10.0	0.0	0.0	0.0	64.0	68.0	285.0	280.0	55.0	970.17	203.0	71.0	-11.0	-996.0	1636887631.567805	
3.0	0.0	10.0	0.0	0.0	0.0	66.0	67.0	288.0	290.0	55.0	970.2	204.0	67.0	-32.0	-968.0	1636887631.67326	
3.0	0.0	10.0	0.0	0.0	0.0	66.0	67.0	284.0	290.0	55.0	970.15	204.0	80.0	-23.0	-998.0	1636887631.773347	
3.0	0.0	10.0	0.0	0.0	0.0	66.0	67.0	282.0	290.0	55.0	970.14	204.0	45.0	-22.0	-1003.0	1636887631.873906	
3.0	0.0	10.0	0.0	0.0	0.0	66.0	67.0	286.0	290.0	55.0	970.11	204.0	74.0	-46.0	-985.0	1636887631.977887	
3.0	1.0	10.0	0.0	0.0	0.0	66.0	67.0	285.0	290.0	55.0	970.14	204.0	62.0	-42.0	-987.0	1636887632.077427	
3.0	1.0	10.0	0.0	0.0	0.0	66.0	67.0	285.0	290.0	55.0	970.22	204.0	36.0	-22.0	-996.0	1636887632.180578	
3.0	2.0	10.0	0.0	0.0	0.0	66.0	67.0	286.0	290.0	55.0	970.26	204.0	43.0	-38.0	-983.0	1636887632.286283	
2.0	2.0	10.0	0.0	0.0	0.0	66.0	67.0	283.0	290.0	54.0	970.18	204.0	60.0	-50.0	-1010.0	1636887632.387047	
2.0	2.0	10.0	0.0	0.0	0.0	66.0	67.0	289.0	290.0	54.0	970.16	204.0	48.0	-42.0	-1017.0	1636887632.488185	
2.0	3.0	10.0	0.0	0.0	0.0	66.0	67.0	285.0	290.0	54.0	970.1	204.0	54.0	-44.0	-1011.0	1636887632.590775	
2.0	3.0	9.0	0.0	0.0	0.0	65.0	67.0	286.0	290.0	54.0	970.05	205.0	42.0	-11.0	-1016.0	1636887632.693615	
2.0	2.0	9.0	0.0	0.0	0.0	65.0	67.0	285.0	290.0	54.0	970.14	205.0	42.0	-10.0	-1020.0	1636887632.796782	
2.0	1.0	9.0	0.0	0.0	0.0	65.0	67.0	287.0	290.0	54.0	970.14	205.0	69.0	-34.0	-991.0	1636887632.896018	
2.0	1.0	9.0	0.0	0.0	0.0	65.0	67.0	285.0	290.0	54.0	970.05	205.0	51.0	-21.0	-977.0	1636887632.946813	
2.0	1.0	9.0	0.0	0.0	0.0	65.0	67.0	284.0	290.0	54.0	970.2	205.0	65.0	-21.0	-978.0	1636887633.046673	
3.0	1.0	9.0	0.0	0.0	0.0	65.0	67.0	290.0	290.0	54.0	970.12	205.0	46.0	-17.0	-998.0	1636887633.151852	
3.0	0.0	9.0	0.0	0.0	0.0	65.0	67.0	288.0	290.0	54.0	970.18	205.0	54.0	-25.0	-975.0	1636887633.25341	
2.0	1.0	9.0	0.0	0.0	0.0	65.0	67.0	283.0	290.0	54.0	970.19	205.0	37.0	-20.0	-987.0	1636887633.353276	
2.0	0.0	9.0	0.0	0.0	0.0	65.0	67.0	293.0	290.0	54.0	970.13	205.0	39.0	-21.0	-1002.0	1636887633.458289	
3.0	0.0	9.0	0.0	0.0	0.0	65.0	67.0	286.0	290.0	54.0	970.2	205.0	27.0	-28.0	-994.0	1636887633.560277	
2.0	1.0	9.0	0.0	0.0	0.0	65.0	68.0	284.0	290.0	54.0	970.22	206.0	42.0	-38.0	-970.0	1636887633.662556	
1.0	1.0	9.0	0.0	0.0	0.0	65.0	68.0	286.0	290.0	54.0	970.18	206.0	20.0	-7.0	-1011.0	1636887633.760707	
1.0	1.0	9.0	0.0	0.0	0.0	65.0	68.0	285.0	290.0	54.0	970.12	206.0	42.0	-29.0	-1010.0	1636887633.863788	
1.0	1.0	9.0	0.0	0.0	0.0	65.0	68.0	281.0	290.0	54.0	970.17	206.0	30.0	-7.0	-1007.0	1636887633.964697	
1.0	1.0	9.0	0.0	0.0	0.0	65.0	68.0	286.0	290.0	54.0	970.13	206.0	38.0	-22.0	-992.0	1636887634.071182	
1.0	0.0	9.0	0.0	0.0	0.0	65.0	68.0	285.0	290.0	54.0	970.21	206.0	35.0	-8.0	-995.0	1636887634.170262	
1.0	0.0	9.0	0.0	0.0	0.0	65.0	68.0	287.0	290.0	54.0	970.14	206.0	57.0	-1.0	-1006.0	1636887634.274785	
1.0	0.0	9.0	0.0	0.0	0.0	65.0	68.0	286.0	290.0	54.0	970.13	206.0	42.0	3.0	-1031.0	1636887634.377379	
3.0	0.0	9.0	0.0	0.0	0.0	65.0	68.0	286.0	290.0	54.0	970.11	206.0	60.0	6.0	-986.0	1636887634.478992	
3.0	0.0	9.0	0.0	0.0	0.0	65.0	68.0	285.0	290.0	54.0	970.08	206.0	44.0	28.0	-984.0	1636887634.580727	
3.0	0.0	9.0	0.0	0.0	0.0	65.0	68.0	286.0	290.0	54.0	970.19	207.0	38.0	6.0	-984.0	1636887634.681853	
3.0	-1.0	9.0	0.0	0.0	0.0	65.0	68.0	291.0	290.0	54.0	970.16	207.0	67.0	-12.0	-982.0	1636887634.784004	
3.0	-1.0	9.0	0.0	0.0	0.0	65.0	68.0	291.0	290.0	54.0	970.2	207.0	67.0	0.0	-988.0	1636887634.88384	
3.0	0.0	9.0	0.0	0.0	0.0	65.0	68.0	288.0	290.0	54.0	970.28	207.0	74.0	-19.0	-1001.0	1636887634.986044	
4.0	0.0	9.0	0.0	0.0	0.0	65.0	68.0	285.0	290.0	54.0	970.14	207.0	86.0	-11.0	-1004.0	1636887635.089722	
4.0	0.0	10.0	0.0	0.0	0.0	65.0	68.0	283.0	290.0	54.0	970.26	207.0	83.0	-12.0	-987.0	1636887635.193116	
4.0	0.0	10.0	0.0	0.0	0.0	65.0	68.0	289.0	290.0	54.0	970.22	207.0	82.0	-16.0	-1011.0	1636887635.294817	
5.0	1.0	10.0	0.0	0.0	0.0	65.0	68.0	288.0	290.0	54.0	970.15	207.0	81.0	-19.0	-1004.0	1636887635.396821	
5.0	1.0	10.0	0.0	0.0	0.0	65.0	68.0	291.0	290.0	54.0	970.15	207.0	77.0	-11.0	-999.0	1636887635.498698	
5.0	1.0	10.0	0.0	0.0	0.0	65.0	68.0	286.0	290.0	54.0	970.18	207.0	90.0	-34.0	-982.0	1636887635.600096	
5.0	1.0	10.0	0.0	0.0	0.0	65.0	67.0	286.0	290.0	54.0	970.17	208.0	73.0	-20.0	-1014.0	1636887635.702852	
5.0	1.0	10.0	0.0	0.0	0.0	65.0	67.0	287.0	290.0	54.0	970.21	208.0	103.0	-38.0	-1006.0	1636887635.803393	
5.0	1.0	10.0	0.0	0.0	0.0	65.0	67.0	287.0	290.0	54.0	970.14	208.0	105.0	-41.0	-983.0	1636887635.904065	
5.0	1.0	10.0	0.0	0.0	0.0	65.0	67.0	287.0	290.0	54.0	970.13	208.0	70.0	-4.0	-985.0	1636887636.008514	
5.0	1.0	10.0	0.0	0.0	0.0	65.0	67.0	291.0	290.0	54.0	970.2	208.0	81.0	-21.0	-1013.0	1636887636.110789	
5.0	1.0	10.0	0.0	0.0	0.0	65.0	67.0	293.0	290.0	54.0	970.14	208.0	89.0	-26.0	-997.0	1636887636.209501	
5.0	1.0	10.0	0.0	0.0	0.0	65.0	67.0	296.0	290.0	54.0	970.1	208.0	66.0	-9.0	-1002.0	1636887636.312389	
5.0	1.0	10.0	0.0	0.0	0.0	65.0	67.0	289.0	290.0	54.0	970.11	208.0	80.0	-29.0	-990.0	1636887636.365863	
5.0	1.0	10.0	0.0	0.0	0.0	65.0	67.0	286.0	290.0	54.0	970.18	208.0	85.0	-22.0	-977.0	1636887636.465719	
5.0	1.0	10.0	0.0	0.0	0.0	65.0	67.0	290.0	290.0	54.0	970.11	209.0	71.0	-23.0	-992.0	1636887636.568544	
5.0	1.0	10.0	0.0	0.0	0.0	65.0	67.0	285.0	290.0	54.0	970.07	209.0	80.0	-21.0	-981.0	1636887636.669706	
5.0	1.0	10.0	0.0	0.0	0.0	65.0	67.0	293.0	290.0	54.0	970.13	209.0	73.0	-14.0	-1013.0	1636887636.773995	
5.0	1.0	10.0	0.0	0.0	0.0	65.0	67.0	284.0	290.0	54.0	970.21	209.0	78.0	-13.0	-1006.0	1636887636.874512	
4.0	1.0	10.0	0.0	0.0	0.0	65.0	67.0	288.0	290.0	54.0	970.15	209.0	86.0	-38.0	-996.0	1636887636.974385	
4.0	0.0	10.0	0.0	0.0	0.0	65.0	67.0	289.0	290.0	54.0	970.06	209.0	86.0	-26.0	-981.0	1636887637.080116	
4.0	1.0	10.0	0.0	0.0	0.0	65.0	67.0	288.0	290.0	54.0	970.15	209.0	66.0	-26.0	-993.0	1636887637.179579	
4.0	1.0	10.0	0.0	0.0	0.0	65.0	67.0	292.0	290.0	54.0	970.15	209.0	67.0	-33.0	-1002.0	1636887637.283441	
3.0	1.0	10.0	0.0	0.0	0.0	65.0	67.0	292.0	290.0	54.0	970.09	209.0	54.0	-36.0	-996.0	1636887637.383531	
3.0	2.0	10.0	0.0	0.0	0.0	65.0	67.0	292.0	290.0	54.0	970.07	209.0	55.0	-37.0	-1006.0	1636887637.488077	
2.0	2.0	9.0	0.0	0.0	0.0	65.0	67.0	291.0	290.0	54.0	970.01	210.0	72.0	-41.0	-998.0	1636887637.588879	
2.0	2.0	9.0	0.0	0.0	0.0	65.0	66.0	291.0	290.0	54.0	970.11	210.0	57.0	-26.0	-998.0	1636887637.688471	
3.0	1.0	10.0	0.0	0.0	0.0	65.0	66.0	289.0	290.0	54.0	970.06	210.0	55.0	-15.0	-994.0	1636887637.793514	
3.0	1.0	10.0	0.0	0.0	0.0	65.0	66.0	291.0	290.0	54.0	970.02	210.0	65.0	-37.0	-992.0	1636887637.893121	
3.0	1.0	9.0	0.0	0.0	0.0	65.0	66.0	292.0	290.0	54.0	970.11	210.0	43.0	-8.0	-994.0	1636887637.998268	
3.0	1.0	9.0	0.0	0.0	0.0	65.0	66.0	288.0	290.0	54.0	970.09	210.0	50.0	-2.0	-994.0	1636887638.099323	
3.0	1.0	9.0	0.0	0.0	0.0	65.0	66.0	294.0	290.0	54.0	970.18	210.0	58.0	-17.0	-995.0	1636887638.199175	
3.0	1.0	9.0	0.0	0.0	0.0	65.0	66.0	290.0	290.0	54.0	970.04	210.0	59.0	-11.0	-1000.0	1636887638.300766	
3.0	0.0	9.0	0.0	0.0	0.0	65.0	66.0	292.0	290.0	53.0	970.16	210.0	54.0	-2.0	-1012.0	1636887638.403788	
3.0	0.0	9.0	0.0	0.0	0.0	65.0	66.0	294.0	290.0	53.0	970.11	210.0	74.0	-24.0	-990.0	1636887638.504327	
3.0	0.0	10.0	0.0	0.0	0.0	65.0	66.0	292.0	290.0	53.0	970.12	211.0	64.0	-8.0	-982.0	1636887638.609757	
3.0	0.0	10.0	0.0	0.0	0.0	64.0	67.0	287.0	290.0	53.0	970.19	211.0	48.0	0.0	-1015.0	1636887638.708351	
3.0	0.0	10.0	0.0	0.0	0.0	64.0	67.0	291.0	290.0	53.0	970.14	211.0	52.0	2.0	-991.0	1636887638.813955	
3.0	0.0	9.0	0.0	0.0	0.0	64.0	67.0	286.0	290.0	53.0	970.21	211.0	46.0	2.0	-1016.0	1636887638.913825	
3.0	0.0	9.0	0.0	0.0	0.0	64.0	67.0	291.0	290.0	53.0	970.18	211.0	66.0	-11.0	-999.0	1636887639.017963	
3.0	0.0	9.0	0.0	0.0	0.0	64.0	67.0	293.0	290.0	53.0	970.13	211.0	61.0	0.0	-1009.0	1636887639.11979	
3.0	0.0	9.0	0.0	0.0	0.0	64.0	67.0	292.0	290.0	53.0	970.16	211.0	55.0	4.0	-1011.0	1636887639.221857	
4.0	0.0	10.0	0.0	0.0	0.0	64.0	67.0	291.0	290.0	53.0	970.17	211.0	84.0	-23.0	-999.0	1636887639.321724	
4.0	0.0	10.0	0.0	0.0	0.0	64.0	67.0	291.0	290.0	53.0	970.2	211.0	80.0	-15.0	-995.0	1636887639.423514	
4.0	0.0	10.0	0.0	0.0	0.0	64.0	67.0	288.0	290.0	53.0	970.12	211.0	71.0	-22.0	-991.0	1636887639.526629	
4.0	0.0	10.0	0.0	0.0	0.0	64.0	67.0	289.0	290.0	53.0	970.03	212.0	67.0	-4.0	-994.0	1636887639.627941	
4.0	0.0	10.0	0.0	0.0	0.0	64.0	66.0	294.0	290.0	53.0	970.15	212.0	65.0	1.0	-1003.0	1636887639.732744	
4.0	0.0	10.0	0.0	0.0	0.0	64.0	66.0	287.0	290.0	53.0	970.09	212.0	61.0	0.0	-1010.0	1636887639.834371	
4.0	0.0	10.0	0.0	0.0	0.0	64.0	66.0	295.0	290.0	53.0	970.13	212.0	67.0	-15.0	-1022.0	1636887639.936607	
4.0	0.0	10.0	0.0	0.0	0.0	64.0	66.0	291.0	290.0	53.0	970.13	212.0	78.0	-27.0	-989.0	1636887640.035334	
4.0	0.0	10.0	0.0	0.0	0.0	64.0	66.0	290.0	290.0	53.0	970.11	212.0	76.0	-20.0	-998.0	1636887640.137978	
4.0	1.0	10.0	0.0	0.0	0.0	64.0	66.0	287.0	290.0	53.0	970.06	212.0	82.0	-31.0	-980.0	1636887640.189865	
4.0	1.0	10.0	0.0	0.0	0.0	64.0	66.0	290.0	290.0	53.0	970.06	212.0	73.0	-16.0	-999.0	1636887640.292356	
4.0	1.0	10.0	0.0	0.0	0.0	64.0	66.0	294.0	290.0	53.0	970.05	212.0	74.0	-18.0	-998.0	1636887640.395684	
4.0	1.0	10.0	0.0	0.0	0.0	64.0	66.0	295.0	290.0	53.0	970.14	212.0	77.0	-26.0	-1006.0	1636887640.495449	
4.0	1.0	10.0	0.0	0.0	0.0	64.0	66.0	295.0	290.0	53.0	970.12	213.0	62.0	-1.0	-993.0	1636887640.596853	
3.0	-1.0	9.0	0.0	0.0	0.0	64.0	68.0	292.0	290.0	53.0	970.08	213.0	64.0	-15.0	-1021.0	1636887640.749807	
3.0	0.0	9.0	0.0	0.0	0.0	64.0	68.0	289.0	290.0	53.0	970.15	213.0	86.0	-21.0	-980.0	1636887640.854926	
3.0	0.0	9.0	0.0	0.0	0.0	64.0	68.0	293.0	290.0	53.0	970.18	213.0	69.0	-2.0	-989.0	1636887640.904662	
4.0	0.0	9.0	0.0	0.0	0.0	64.0	68.0	292.0	290.0	53.0	970.18	213.0	83.0	-21.0	-1014.0	1636887641.008275	
4.0	0.0	10.0	0.0	0.0	0.0	64.0	68.0	291.0	290.0	53.0	970.11	213.0	84.0	-21.0	-1000.0	1636887641.108435	
4.0	0.0	10.0	0.0	0.0	0.0	64.0	68.0	290.0	290.0	53.0	970.14	213.0	84.0	-19.0	-995.0	1636887641.208296	
4.0	2.0	10.0	0.0	0.0	0.0	64.0	68.0	291.0	290.0	53.0	970.11	213.0	67.0	6.0	-980.0	1636887641.310921	
4.0	1.0	10.0	0.0	0.0	0.0	64.0	68.0	296.0	290.0	53.0	970.15	213.0	52.0	11.0	-1013.0	1636887641.415836	
4.0	1.0	9.0	0.0	0.0	0.0	64.0	68.0	292.0	290.0	53.0	970.08	213.0	80.0	-16.0	-1000.0	1636887641.51827	
4.0	1.0	9.0	0.0	0.0	0.0	64.0	68.0	292.0	290.0	53.0	970.08	213.0	80.0	-16.0	-1000.0	1636887641.567627	
4.0	1.0	9.0	0.0	0.0	0.0	64.0	68.0	291.0	290.0	53.0	970.13	214.0	70.0	-1.0	-993.0	1636887641.61939	
4.0	0.0	10.0	0.0	0.0	0.0	65.0	66.0	294.0	290.0	53.0	970.09	214.0	75.0	-17.0	-1005.0	1636887641.720946	
4.0	0.0	10.0	0.0	0.0	0.0	65.0	66.0	288.0	290.0	53.0	970.13	214.0	82.0	-5.0	-988.0	1636887641.825334	
4.0	0.0	9.0	0.0	0.0	0.0	65.0	66.0	291.0	290.0	53.0	970.07	214.0	75.0	-15.0	-1010.0	1636887641.92545	
4.0	0.0	9.0	0.0	0.0	0.0	65.0	66.0	289.0	290.0	53.0	970.17	214.0	89.0	-11.0	-1009.0	1636887642.027683	
4.0	0.0	9.0	0.0	0.0	0.0	65.0	66.0	292.0	290.0	53.0	970.11	214.0	89.0	-1.0	-990.0	1636887642.128158	
5.0	0.0	10.0	0.0	0.0	0.0	65.0	66.0	291.0	290.0	53.0	970.03	214.0	60.0	-1.0	-987.0	1636887642.233796	
5.0	0.0	10.0	0.0	0.0	0.0	65.0	66.0	294.0	290.0	53.0	970.06	214.0	66.0	-9.0	-992.0	1636887642.334748	
4.0	0.0	10.0	0.0	0.0	0.0	65.0	66.0	296.0	290.0	53.0	970.15	214.0	74.0	-13.0	-1008.0	1636887642.434772	
4.0	0.0	10.0	0.0	0.0	0.0	65.0	66.0	290.0	290.0	53.0	970.04	214.0	89.0	-26.0	-998.0	1636887642.537723	
4.0	0.0	10.0	0.0	0.0	0.0	65.0	66.0	294.0	290.0	53.0	970.07	215.0	73.0	-33.0	-994.0	1636887642.639881	
4.0	0.0	10.0	0.0	0.0	0.0	63.0	67.0	291.0	290.0	53.0	970.02	215.0	84.0	-29.0	-981.0	1636887642.741308	
4.0	1.0	10.0	0.0	0.0	0.0	63.0	67.0	289.0	290.0	53.0	970.04	215.0	77.0	-29.0	-997.0	1636887642.842577	
4.0	1.0	10.0	0.0	0.0	0.0	63.0	67.0	297.0	290.0	53.0	970.02	215.0	91.0	-32.0	-981.0	1636887642.944926	
4.0	1.0	10.0	0.0	0.0	0.0	63.0	67.0	292.0	290.0	53.0	969.98	215.0	87.0	-35.0	-983.0	1636887643.044126	
4.0	1.0	10.0	0.0	0.0	0.0	63.0	67.0	295.0	290.0	53.0	970.05	215.0	78.0	-27.0	-1000.0	1636887643.147939	
4.0	1.0	10.0	0.0	0.0	0.0	63.0	67.0	292.0	290.0	53.0	970.09	215.0	70.0	-16.0	-1000.0	1636887643.250761	
4.0	1.0	10.0	0.0	0.0	0.0	63.0	67.0	295.0	290.0	53.0	970.02	215.0	71.0	-14.0	-998.0	1636887643.351319	
4.0	1.0	10.0	0.0	0.0	0.0	63.0	67.0	292.0	290.0	53.0	970.05	215.0	65.0	-13.0	-1002.0	1636887643.456582	
4.0	1.0	10.0	0.0	0.0	0.0	63.0	67.0	294.0	290.0	53.0	970.01	215.0	56.0	-8.0	-1000.0	1636887643.554298	
4.0	1.0	10.0	0.0	0.0	0.0	63.0	67.0	288.0	290.0	53.0	970.0	216.0	69.0	-8.0	-1003.0	1636887643.658161	
4.0	1.0	10.0	0.0	0.0	0.0	64.0	66.0	300.0	290.0	53.0	969.99	216.0	57.0	-7.0	-998.0	1636887643.761251	
4.0	1.0	10.0	0.0	0.0	0.0	64.0	66.0	290.0	290.0	53.0	970.04	216.0	50.0	-4.0	-1006.0	1636887643.862933	
4.0	1.0	10.0	0.0	0.0	0.0	64.0	66.0	293.0	290.0	53.0	970.01	216.0	60.0	-15.0	-1002.0	1636887643.963574	
3.0	1.0	10.0	0.0	0.0	0.0	64.0	66.0	294.0	290.0	53.0	970.1	216.0	58.0	-22.0	-1014.0	1636887644.06407	
4.0	1.0	10.0	0.0	0.0	0.0	64.0	66.0	296.0	290.0	53.0	970.08	216.0	62.0	-17.0	-990.0	1636887644.168618	
4.0	1.0	10.0	0.0	0.0	0.0	64.0	66.0	294.0	290.0	53.0	970.1	216.0	73.0	-24.0	-1006.0	1636887644.271485	
4.0	1.0	10.0	0.0	0.0	0.0	64.0	66.0	290.0	290.0	53.0	969.98	216.0	57.0	-3.0	-1017.0	1636887644.371986	
4.0	1.0	9.0	0.0	0.0	0.0	64.0	66.0	296.0	290.0	53.0	970.04	216.0	67.0	-5.0	-984.0	1636887644.473551	
4.0	1.0	10.0	0.0	0.0	0.0	64.0	66.0	288.0	290.0	53.0	970.09	216.0	60.0	3.0	-993.0	1636887644.575619	
4.0	1.0	10.0	0.0	0.0	0.0	64.0	66.0	294.0	290.0	53.0	970.05	217.0	63.0	-12.0	-1007.0	1636887644.626232	
4.0	1.0	10.0	0.0	0.0	0.0	63.0	66.0	293.0	290.0	53.0	970.1	217.0	90.0	-30.0	-988.0	1636887644.729448	
4.0	0.0	10.0	0.0	0.0	0.0	63.0	66.0	291.0	290.0	53.0	970.11	217.0	60.0	-3.0	-1008.0	1636887644.830909	
4.0	0.0	10.0	0.0	0.0	0.0	63.0	66.0	292.0	290.0	53.0	970.06	217.0	68.0	-20.0	-1000.0	1636887644.932633	
3.0	0.0	9.0	0.0	0.0	0.0	63.0	66.0	295.0	290.0	53.0	970.13	217.0	76.0	-24.0	-990.0	1636887645.037029	
4.0	0.0	10.0	0.0	0.0	0.0	63.0	66.0	294.0	290.0	53.0	969.97	217.0	73.0	-27.0	-994.0	1636887645.138241	
3.0	0.0	10.0	0.0	0.0	0.0	63.0	66.0	293.0	290.0	53.0	970.04	217.0	89.0	-36.0	-1005.0	1636887645.239445	
3.0	1.0	9.0	0.0	0.0	0.0	63.0	66.0	296.0	290.0	52.0	969.97	217.0	64.0	-10.0	-998.0	1636887645.342247	
3.0	1.0	10.0	0.0	0.0	0.0	63.0	66.0	293.0	290.0	52.0	970.05	217.0	89.0	-30.0	-985.0	1636887645.444082	
3.0	1.0	10.0	0.0	0.0	0.0	63.0	66.0	292.0	290.0	52.0	970.18	217.0	85.0	-33.0	-999.0	1636887645.544391	
4.0	1.0	10.0	0.0	0.0	0.0	63.0	66.0	295.0	290.0	52.0	970.08	218.0	78.0	-26.0	-992.0	1636887645.649058	
4.0	1.0	10.0	0.0	0.0	0.0	64.0	66.0	294.0	290.0	52.0	970.05	218.0	57.0	-10.0	-1010.0	1636887645.747922	
4.0	1.0	10.0	0.0	0.0	0.0	64.0	66.0	293.0	290.0	52.0	970.15	218.0	91.0	-32.0	-992.0	1636887645.85216	
4.0	1.0	10.0	0.0	0.0	0.0	64.0	66.0	295.0	290.0	52.0	969.95	218.0	77.0	-23.0	-1002.0	1636887645.95063	
4.0	1.0	9.0	0.0	0.0	0.0	64.0	66.0	294.0	290.0	52.0	970.08	218.0	87.0	-18.0	-988.0	1636887646.056413	
4.0	1.0	9.0	0.0	0.0	0.0	64.0	66.0	300.0	290.0	52.0	970.16	218.0	80.0	-17.0	-995.0	1636887646.156625	
4.0	1.0	10.0	0.0	0.0	0.0	64.0	66.0	293.0	290.0	52.0	970.08	218.0	75.0	-18.0	-992.0	1636887646.25966	
4.0	0.0	9.0	0.0	0.0	0.0	64.0	66.0	290.0	290.0	52.0	970.11	218.0	63.0	-9.0	-999.0	1636887646.361906	
4.0	1.0	9.0	0.0	0.0	0.0	64.0	66.0	292.0	290.0	52.0	970.05	218.0	60.0	0.0	-994.0	1636887646.463742	
4.0	0.0	9.0	0.0	0.0	0.0	64.0	66.0	292.0	290.0	52.0	970.11	218.0	74.0	-17.0	-981.0	1636887646.566587	
3.0	0.0	9.0	0.0	0.0	0.0	64.0	66.0	291.0	290.0	52.0	970.02	219.0	79.0	-25.0	-999.0	1636887646.665382	
4.0	0.0	9.0	0.0	0.0	0.0	64.0	66.0	287.0	290.0	52.0	970.04	219.0	59.0	-1.0	-1000.0	1636887646.770707	
4.0	1.0	9.0	0.0	0.0	0.0	64.0	66.0	293.0	290.0	52.0	970.09	219.0	78.0	-17.0	-978.0	1636887646.87175	
3.0	0.0	9.0	0.0	0.0	0.0	64.0	66.0	296.0	290.0	52.0	970.17	219.0	61.0	12.0	-983.0	1636887646.971369	
4.0	0.0	9.0	0.0	0.0	0.0	64.0	66.0	293.0	290.0	52.0	970.09	219.0	69.0	-4.0	-990.0	1636887647.076526	
3.0	0.0	9.0	0.0	0.0	0.0	64.0	66.0	294.0	290.0	52.0	970.17	219.0	59.0	11.0	-999.0	1636887647.175178	
3.0	0.0	9.0	0.0	0.0	0.0	64.0	66.0	291.0	290.0	52.0	970.11	219.0	58.0	-7.0	-993.0	1636887647.279586	
3.0	0.0	9.0	0.0	0.0	0.0	64.0	66.0	294.0	290.0	52.0	970.04	219.0	65.0	2.0	-994.0	1636887647.379622	
3.0	0.0	9.0	0.0	0.0	0.0	64.0	66.0	292.0	290.0	52.0	970.16	219.0	64.0	-6.0	-1005.0	1636887647.483652	
3.0	0.0	9.0	0.0	0.0	0.0	64.0	66.0	291.0	290.0	52.0	970.09	219.0	75.0	-17.0	-996.0	1636887647.585013	
3.0	0.0	9.0	0.0	0.0	0.0	64.0	66.0	289.0	290.0	52.0	970.16	220.0	82.0	-5.0	-988.0	1636887647.688512	
3.0	0.0	9.0	0.0	0.0	0.0	64.0	66.0	292.0	290.0	52.0	970.23	220.0	81.0	-10.0	-985.0	1636887647.790146	
3.0	0.0	9.0	0.0	0.0	0.0	64.0	66.0	290.0	290.0	52.0	970.04	220.0	68.0	-4.0	-993.0	1636887647.891868	
3.0	0.0	9.0	0.0	0.0	0.0	64.0	66.0	293.0	290.0	52.0	970.22	220.0	63.0	-5.0	-1023.0	1636887647.991035	
4.0	0.0	10.0	0.0	0.0	0.0	64.0	66.0	289.0	290.0	52.0	970.19	220.0	68.0	-12.0	-985.0	1636887648.09284	
4.0	0.0	10.0	0.0	0.0	0.0	64.0	66.0	289.0	290.0	52.0	970.18	220.0	54.0	-10.0	-995.0	1636887648.198165	
4.0	0.0	10.0	0.0	0.0	0.0	64.0	66.0	291.0	290.0	52.0	970.08	220.0	53.0	-3.0	-973.0	1636887648.30002	
3.0	0.0	10.0	0.0	0.0	0.0	64.0	66.0	290.0	290.0	52.0	970.11	220.0	87.0	-30.0	-997.0	1636887648.351349	
3.0	1.0	10.0	0.0	0.0	0.0	64.0	66.0	287.0	290.0	52.0	970.1	220.0	75.0	-15.0	-971.0	1636887648.451961	
3.0	1.0	10.0	0.0	0.0	0.0	64.0	66.0	287.0	290.0	52.0	970.12	220.0	75.0	0.0	-977.0	1636887648.553905	
3.0	1.0	10.0	0.0	0.0	0.0	64.0	66.0	287.0	290.0	52.0	970.12	220.0	75.0	0.0	-977.0	1636887648.605343	
4.0	1.0	10.0	0.0	0.0	0.0	64.0	66.0	292.0	290.0	52.0	970.17	221.0	96.0	-12.0	-991.0	1636887648.657713	
4.0	1.0	10.0	0.0	0.0	0.0	63.0	65.0	295.0	290.0	52.0	970.07	221.0	79.0	-9.0	-1005.0	1636887648.756506	
5.0	0.0	9.0	0.0	0.0	0.0	63.0	65.0	289.0	290.0	52.0	970.02	221.0	66.0	-5.0	-1003.0	1636887648.859333	
4.0	1.0	9.0	0.0	0.0	0.0	63.0	65.0	294.0	290.0	52.0	970.12	221.0	89.0	-3.0	-1015.0	1636887648.963448	
4.0	1.0	9.0	0.0	0.0	0.0	63.0	65.0	297.0	290.0	52.0	970.11	221.0	68.0	3.0	-996.0	1636887649.064752	
5.0	0.0	10.0	0.0	0.0	0.0	63.0	65.0	298.0	290.0	52.0	970.13	221.0	76.0	-7.0	-1004.0	1636887649.166953	
4.0	0.0	10.0	0.0	0.0	0.0	63.0	65.0	293.0	290.0	52.0	970.03	221.0	71.0	-1.0	-1011.0	1636887649.269463	
4.0	0.0	10.0	0.0	0.0	0.0	63.0	65.0	289.0	290.0	52.0	970.08	221.0	86.0	-12.0	-999.0	1636887649.371291	
4.0	0.0	10.0	0.0	0.0	0.0	63.0	65.0	292.0	290.0	52.0	970.04	221.0	104.0	-22.0	-980.0	1636887649.472087	
4.0	0.0	10.0	0.0	0.0	0.0	63.0	65.0	294.0	290.0	52.0	970.04	221.0	99.0	-19.0	-984.0	1636887649.575179	
5.0	0.0	10.0	0.0	0.0	0.0	63.0	65.0	288.0	290.0	52.0	970.03	222.0	88.0	-19.0	-999.0	1636887649.673679	
5.0	0.0	10.0	0.0	0.0	0.0	62.0	66.0	296.0	290.0	52.0	969.95	222.0	82.0	0.0	-1005.0	1636887649.778152	
5.0	0.0	10.0	0.0	0.0	0.0	62.0	66.0	290.0	290.0	52.0	970.06	222.0	92.0	-11.0	-1004.0	1636887649.878004	
5.0	0.0	10.0	0.0	0.0	0.0	62.0	66.0	294.0	290.0	52.0	970.06	222.0	106.0	-23.0	-988.0	1636887649.981149	
5.0	0.0	10.0	0.0	0.0	0.0	62.0	66.0	298.0	290.0	52.0	970.06	222.0	86.0	0.0	-990.0	1636887650.082991	
5.0	0.0	10.0	0.0	0.0	0.0	62.0	66.0	295.0	290.0	52.0	970.08	222.0	82.0	-8.0	-1009.0	1636887650.184533	
5.0	0.0	10.0	0.0	0.0	0.0	62.0	66.0	290.0	290.0	52.0	970.07	222.0	95.0	-19.0	-1007.0	1636887650.289515	
5.0	1.0	10.0	0.0	0.0	0.0	62.0	66.0	294.0	290.0	52.0	969.99	222.0	97.0	-21.0	-994.0	1636887650.389452	
5.0	1.0	10.0	0.0	0.0	0.0	62.0	66.0	295.0	290.0	52.0	970.04	222.0	66.0	-5.0	-1003.0	1636887650.491958	
4.0	0.0	10.0	0.0	0.0	0.0	62.0	66.0	290.0	290.0	52.0	970.14	223.0	96.0	-25.0	-989.0	1636887650.593423	
4.0	0.0	10.0	0.0	0.0	0.0	62.0	66.0	294.0	290.0	52.0	969.98	223.0	85.0	-3.0	-979.0	1636887650.696497	
4.0	1.0	10.0	0.0	0.0	0.0	63.0	65.0	293.0	290.0	52.0	970.03	223.0	74.0	-18.0	-998.0	1636887650.798093	
4.0	1.0	9.0	0.0	0.0	0.0	63.0	65.0	292.0	290.0	52.0	970.02	223.0	79.0	-1.0	-987.0	1636887650.899965	
4.0	0.0	10.0	0.0	0.0	0.0	63.0	65.0	289.0	290.0	52.0	970.08	223.0	71.0	2.0	-999.0	1636887651.001275	
4.0	0.0	10.0	0.0	0.0	0.0	63.0	65.0	293.0	290.0	52.0	969.98	223.0	101.0	-31.0	-993.0	1636887651.102552	
4.0	0.0	10.0	0.0	0.0	0.0	63.0	65.0	293.0	290.0	52.0	969.93	223.0	82.0	-22.0	-1005.0	1636887651.204316	
4.0	1.0	10.0	0.0	0.0	0.0	63.0	65.0	295.0	290.0	52.0	970.04	223.0	55.0	-10.0	-1006.0	1636887651.307039	
4.0	1.0	10.0	0.0	0.0	0.0	63.0	65.0	291.0	290.0	52.0	969.94	223.0	73.0	-20.0	-984.0	1636887651.409384	
3.0	1.0	10.0	0.0	0.0	0.0	63.0	65.0	299.0	290.0	52.0	970.06	223.0	71.0	-4.0	-990.0	1636887651.51236	
3.0	1.0	10.0	0.0	0.0	0.0	63.0	65.0	292.0	290.0	52.0	970.07	224.0	74.0	-9.0	-994.0	1636887651.6148	
3.0	1.0	10.0	0.0	0.0	0.0	63.0	65.0	292.0	290.0	52.0	970.02	224.0	82.0	-18.0	-993.0	1636887651.715606	
3.0	0.0	10.0	0.0	0.0	0.0	64.0	65.0	293.0	290.0	52.0	970.0	224.0	88.0	-25.0	-971.0	1636887651.816952	
3.0	1.0	10.0	0.0	0.0	0.0	64.0	65.0	294.0	290.0	52.0	969.91	224.0	66.0	-12.0	-1005.0	1636887651.920808	
3.0	1.0	10.0	0.0	0.0	0.0	64.0	65.0	291.0	290.0	52.0	969.98	224.0	73.0	-18.0	-991.0	1636887652.021806	
4.0	1.0	10.0	0.0	0.0	0.0	64.0	65.0	294.0	290.0	52.0	969.96	224.0	77.0	-12.0	-992.0	1636887652.123304	
4.0	1.0	10.0	0.0	0.0	0.0	64.0	65.0	286.0	290.0	52.0	969.97	224.0	75.0	-18.0	-990.0	1636887652.17609	
4.0	1.0	10.0	0.0	0.0	0.0	64.0	65.0	292.0	290.0	52.0	969.96	224.0	74.0	-21.0	-1007.0	1636887652.274674	
4.0	1.0	10.0	0.0	0.0	0.0	64.0	65.0	296.0	290.0	52.0	970.0	224.0	70.0	-10.0	-1013.0	1636887652.37809	
4.0	1.0	10.0	0.0	0.0	0.0	64.0	65.0	287.0	290.0	52.0	970.09	224.0	78.0	-12.0	-1001.0	1636887652.482032	
4.0	0.0	10.0	0.0	0.0	0.0	64.0	65.0	287.0	290.0	52.0	970.01	225.0	71.0	-9.0	-1001.0	1636887652.581255	
4.0	0.0	10.0	0.0	0.0	0.0	64.0	65.0	296.0	290.0	52.0	969.88	225.0	73.0	-18.0	-1007.0	1636887652.686125	
4.0	0.0	10.0	0.0	0.0	0.0	63.0	65.0	293.0	290.0	52.0	970.05	225.0	52.0	-5.0	-992.0	1636887652.78486	
4.0	0.0	9.0	0.0	0.0	0.0	63.0	65.0	292.0	290.0	52.0	970.01	225.0	81.0	-17.0	-1001.0	1636887652.889257	
4.0	0.0	9.0	0.0	0.0	0.0	63.0	65.0	292.0	290.0	52.0	970.04	225.0	93.0	-27.0	-989.0	1636887652.99024	
4.0	0.0	9.0	0.0	0.0	0.0	63.0	65.0	295.0	290.0	52.0	969.99	225.0	70.0	-3.0	-1005.0	1636887653.090722	
4.0	1.0	9.0	0.0	0.0	0.0	63.0	65.0	291.0	290.0	52.0	970.08	225.0	59.0	1.0	-998.0	1636887653.195541	
4.0	0.0	10.0	0.0	0.0	0.0	63.0	65.0	296.0	290.0	52.0	970.03	225.0	85.0	-18.0	-999.0	1636887653.295415	
4.0	0.0	10.0	0.0	0.0	0.0	63.0	65.0	297.0	290.0	51.0	970.09	225.0	85.0	-27.0	-993.0	1636887653.399964	
4.0	0.0	10.0	0.0	0.0	0.0	63.0	65.0	295.0	290.0	51.0	970.04	225.0	81.0	-12.0	-973.0	1636887653.499593	
4.0	0.0	10.0	0.0	0.0	0.0	63.0	65.0	287.0	290.0	51.0	969.98	226.0	66.0	-7.0	-995.0	1636887653.603612	
4.0	0.0	10.0	0.0	0.0	0.0	63.0	65.0	292.0	290.0	51.0	970.05	226.0	65.0	-3.0	-992.0	1636887653.705201	
4.0	1.0	10.0	0.0	0.0	0.0	63.0	65.0	294.0	290.0	51.0	970.06	226.0	69.0	-9.0	-986.0	1636887653.805101	
4.0	1.0	9.0	0.0	0.0	0.0	63.0	65.0	296.0	290.0	51.0	970.08	226.0	68.0	-16.0	-976.0	1636887653.909221	
4.0	1.0	9.0	0.0	0.0	0.0	63.0	65.0	296.0	290.0	51.0	970.02	226.0	90.0	-14.0	-988.0	1636887654.011641	
4.0	1.0	9.0	0.0	0.0	0.0	63.0	65.0	296.0	290.0	51.0	970.04	226.0	91.0	-19.0	-1007.0	1636887654.112501	
4.0	0.0	9.0	0.0	0.0	0.0	63.0	65.0	296.0	290.0	51.0	970.05	226.0	72.0	-9.0	-1008.0	1636887654.215471	
3.0	0.0	9.0	0.0	0.0	0.0	63.0	65.0	294.0	290.0	51.0	970.03	226.0	63.0	-9.0	-993.0	1636887654.316228	
3.0	0.0	9.0	0.0	0.0	0.0	63.0	65.0	292.0	290.0	51.0	970.09	226.0	62.0	-9.0	-1008.0	1636887654.419117	
4.0	0.0	9.0	0.0	0.0	0.0	63.0	65.0	297.0	290.0	51.0	970.05	226.0	63.0	-16.0	-1002.0	1636887654.522185	
3.0	0.0	9.0	0.0	0.0	0.0	63.0	65.0	291.0	290.0	51.0	970.04	227.0	71.0	-28.0	-995.0	1636887654.622414	
3.0	0.0	9.0	0.0	0.0	0.0	63.0	65.0	288.0	290.0	51.0	970.07	227.0	59.0	-1.0	-996.0	1636887654.723779	
3.0	0.0	9.0	0.0	0.0	0.0	63.0	65.0	290.0	290.0	51.0	970.09	227.0	55.0	1.0	-993.0	1636887654.829128	
3.0	0.0	10.0	0.0	0.0	0.0	63.0	65.0	289.0	290.0	51.0	970.08	227.0	60.0	-7.0	-1013.0	1636887654.930162	
3.0	0.0	10.0	0.0	0.0	0.0	63.0	65.0	293.0	290.0	51.0	970.08	227.0	89.0	-28.0	-987.0	1636887655.032142	
4.0	0.0	10.0	0.0	0.0	0.0	63.0	65.0	287.0	290.0	51.0	970.02	227.0	75.0	-32.0	-985.0	1636887655.132495	
3.0	0.0	10.0	0.0	0.0	0.0	63.0	65.0	290.0	290.0	51.0	970.05	227.0	59.0	-11.0	-1005.0	1636887655.237292	
3.0	0.0	10.0	0.0	0.0	0.0	63.0	65.0	297.0	290.0	51.0	970.01	227.0	66.0	-25.0	-994.0	1636887655.337159	
3.0	1.0	10.0	0.0	0.0	0.0	63.0	65.0	291.0	290.0	51.0	969.97	227.0	64.0	-28.0	-990.0	1636887655.439776	
3.0	1.0	10.0	0.0	0.0	0.0	63.0	65.0	288.0	290.0	51.0	970.03	227.0	61.0	-25.0	-996.0	1636887655.538839	
3.0	1.0	10.0	0.0	0.0	0.0	63.0	65.0	293.0	290.0	51.0	970.01	228.0	66.0	-16.0	-991.0	1636887655.6422	
3.0	1.0	10.0	0.0	0.0	0.0	63.0	65.0	290.0	290.0	51.0	970.02	228.0	75.0	-22.0	-991.0	1636887655.691677	
3.0	1.0	10.0	0.0	0.0	0.0	63.0	65.0	288.0	290.0	51.0	970.02	228.0	75.0	-20.0	-988.0	1636887655.846586	
3.0	1.0	10.0	0.0	0.0	0.0	63.0	65.0	290.0	290.0	51.0	970.1	228.0	65.0	3.0	-985.0	1636887655.946704	
4.0	0.0	10.0	0.0	0.0	0.0	63.0	65.0	291.0	290.0	51.0	969.96	228.0	58.0	-3.0	-997.0	1636887656.051445	
4.0	0.0	9.0	0.0	0.0	0.0	63.0	65.0	289.0	290.0	51.0	970.1	228.0	76.0	-14.0	-974.0	1636887656.153606	
4.0	0.0	10.0	0.0	0.0	0.0	63.0	65.0	298.0	290.0	51.0	970.08	228.0	46.0	5.0	-963.0	1636887656.252835	
3.0	0.0	10.0	0.0	0.0	0.0	63.0	65.0	289.0	290.0	51.0	970.03	228.0	62.0	-12.0	-950.0	1636887656.306382	
4.0	0.0	10.0	0.0	0.0	1.0	63.0	65.0	294.0	290.0	51.0	970.02	228.0	67.0	-15.0	-923.0	1636887656.407099	
4.0	0.0	10.0	0.0	0.0	2.0	63.0	65.0	289.0	290.0	51.0	970.05	228.0	59.0	-4.0	-912.0	1636887656.509276	
4.0	0.0	10.0	0.0	0.0	3.0	63.0	65.0	280.0	280.0	51.0	969.9	229.0	60.0	-11.0	-899.0	1636887656.612276	
4.0	0.0	10.0	0.0	0.0	4.0	63.0	65.0	290.0	280.0	51.0	969.92	229.0	56.0	-17.0	-895.0	1636887656.713184	
3.0	0.0	10.0	0.0	0.0	5.0	63.0	65.0	270.0	270.0	51.0	969.85	229.0	90.0	-22.0	-902.0	1636887656.817694	
4.0	1.0	10.0	0.0	0.0	6.0	63.0	65.0	263.0	270.0	51.0	969.87	229.0	77.0	-27.0	-897.0	1636887656.916208	
4.0	1.0	10.0	0.0	0.0	7.0	63.0	65.0	253.0	260.0	51.0	969.76	229.0	62.0	1.0	-901.0	1636887657.018471	
4.0	1.0	9.0	0.0	0.0	8.0	63.0	65.0	246.0	250.0	51.0	969.62	229.0	65.0	2.0	-897.0	1636887657.123119	
4.0	0.0	10.0	0.0	0.0	9.0	63.0	65.0	234.0	240.0	51.0	969.63	229.0	83.0	-25.0	-945.0	1636887657.222101	
4.0	0.0	10.0	0.0	0.0	9.0	63.0	65.0	223.0	230.0	51.0	969.67	229.0	68.0	-29.0	-958.0	1636887657.323644	
4.0	1.0	10.0	0.0	0.0	10.0	63.0	65.0	214.0	220.0	51.0	969.5	229.0	81.0	-35.0	-987.0	1636887657.427739	
4.0	1.0	10.0	0.0	0.0	10.0	63.0	65.0	203.0	210.0	51.0	969.38	229.0	79.0	-14.0	-1000.0	1636887657.529415	
4.0	1.0	10.0	0.0	0.0	10.0	63.0	65.0	190.0	200.0	51.0	969.26	230.0	61.0	-17.0	-1008.0	1636887657.631741	
4.0	1.0	10.0	0.0	0.0	10.0	63.0	65.0	178.0	190.0	51.0	969.01	230.0	55.0	-5.0	-1026.0	1636887657.736042	
3.0	2.0	10.0	0.0	0.0	10.0	63.0	65.0	169.0	180.0	51.0	969.16	230.0	59.0	-22.0	-991.0	1636887657.833409	
3.0	1.0	9.0	0.0	0.0	10.0	63.0	65.0	159.0	170.0	51.0	969.01	230.0	44.0	-9.0	-1014.0	1636887657.936367	
3.0	1.0	9.0	0.0	0.0	10.0	63.0	65.0	147.0	160.0	51.0	968.83	230.0	55.0	4.0	-1035.0	1636887658.03771	
3.0	0.0	9.0	0.0	0.0	10.0	63.0	65.0	136.0	150.0	51.0	968.73	230.0	84.0	-12.0	-1011.0	1636887658.140607	
4.0	0.0	10.0	0.0	0.0	9.0	63.0	65.0	126.0	140.0	51.0	968.85	230.0	82.0	-10.0	-983.0	1636887658.244776	
4.0	0.0	10.0	0.0	0.0	9.0	63.0	65.0	116.0	130.0	51.0	968.63	230.0	72.0	-20.0	-1004.0	1636887658.344639	
4.0	0.0	10.0	0.0	0.0	9.0	63.0	65.0	107.0	120.0	51.0	968.48	230.0	90.0	-36.0	-1055.0	1636887658.446242	
4.0	1.0	10.0	0.0	0.0	8.0	63.0	65.0	98.0	110.0	51.0	968.54	230.0	88.0	-10.0	-1066.0	1636887658.550558	
4.0	1.0	10.0	0.0	0.0	8.0	63.0	65.0	91.0	100.0	51.0	968.47	231.0	88.0	-23.0	-1041.0	1636887658.651419	
4.0	0.0	10.0	0.0	0.0	7.0	63.0	65.0	82.0	90.0	51.0	968.37	231.0	84.0	-20.0	-1058.0	1636887658.752742	
4.0	1.0	9.0	0.0	0.0	7.0	63.0	65.0	76.0	80.0	51.0	968.23	231.0	74.0	-13.0	-1039.0	1636887658.855983	
4.0	1.0	10.0	0.0	0.0	6.0	63.0	65.0	69.0	80.0	51.0	968.32	231.0	76.0	-12.0	-1062.0	1636887658.959024	
4.0	1.0	10.0	0.0	0.0	5.0	63.0	65.0	64.0	70.0	51.0	968.1	231.0	82.0	-24.0	-1058.0	1636887659.060649	
4.0	0.0	10.0	0.0	0.0	5.0	63.0	65.0	59.0	60.0	51.0	968.03	231.0	76.0	-22.0	-1058.0	1636887659.162892	
4.0	0.0	10.0	0.0	0.0	4.0	63.0	65.0	55.0	60.0	51.0	967.89	231.0	74.0	-5.0	-1051.0	1636887659.263471	
3.0	0.0	10.0	0.0	0.0	4.0	63.0	65.0	50.0	60.0	51.0	967.94	231.0	73.0	-6.0	-1054.0	1636887659.36383	
