timestamp	pitch	roll	yaw	vgx	vgy	vgz	templ	temph	tof	h	bat	baro	time	agx	agy	agz	
7.0	0.0	-170.0	18.0	2.0	0.0	59.0	61.0	160.0	150.0	16.0	961.12	246.0	67.0	1.0	-1003.0	1636893383.053736	
7.0	0.0	-170.0	18.0	2.0	0.0	59.0	61.0	160.0	150.0	16.0	961.12	246.0	67.0	1.0	-1003.0	1636893383.053736	
7.0	0.0	-170.0	19.0	2.0	0.0	59.0	61.0	159.0	150.0	16.0	961.03	246.0	75.0	-7.0	-980.0	1636893383.157275	
7.0	0.0	-170.0	20.0	3.0	0.0	59.0	61.0	159.0	150.0	16.0	961.11	246.0	69.0	5.0	-1019.0	1636893383.256026	
7.0	0.0	-170.0	20.0	3.0	0.0	59.0	61.0	160.0	150.0	16.0	961.12	246.0	69.0	5.0	-1014.0	1636893383.359895	
7.0	0.0	-170.0	21.0	3.0	0.0	59.0	61.0	160.0	150.0	16.0	961.16	246.0	75.0	-3.0	-1002.0	1636893383.463085	
7.0	0.0	-170.0	21.0	3.0	0.0	59.0	61.0	160.0	150.0	16.0	961.06	246.0	84.0	-10.0	-1008.0	1636893383.565567	
7.0	0.0	-170.0	22.0	3.0	0.0	59.0	61.0	159.0	150.0	16.0	961.11	246.0	79.0	-16.0	-1006.0	1636893383.666145	
7.0	0.0	-170.0	22.0	4.0	0.0	59.0	61.0	160.0	150.0	16.0	961.08	247.0	88.0	-11.0	-994.0	1636893383.76922	
7.0	0.0	-170.0	23.0	4.0	0.0	59.0	61.0	159.0	150.0	16.0	961.21	247.0	78.0	-11.0	-1001.0	1636893383.871156	
7.0	0.0	-170.0	23.0	4.0	0.0	59.0	61.0	158.0	150.0	16.0	961.29	247.0	93.0	-23.0	-1000.0	1636893383.971716	
6.0	0.0	-171.0	23.0	4.0	0.0	59.0	61.0	160.0	150.0	16.0	961.11	247.0	96.0	-22.0	-1047.0	1636893384.073447	
0.0	1.0	-171.0	23.0	4.0	0.0	59.0	61.0	159.0	150.0	16.0	961.01	247.0	129.0	-16.0	-981.0	1636893384.177061	
-5.0	1.0	-171.0	22.0	3.0	0.0	59.0	61.0	159.0	150.0	16.0	961.23	247.0	95.0	12.0	-992.0	1636893384.27581	
-6.0	0.0	-170.0	20.0	3.0	0.0	59.0	61.0	158.0	150.0	16.0	961.26	247.0	93.0	-22.0	-1004.0	1636893384.377453	
-6.0	0.0	-170.0	18.0	3.0	0.0	59.0	61.0	159.0	150.0	16.0	961.12	247.0	78.0	-12.0	-1020.0	1636893384.482798	
-6.0	0.0	-171.0	16.0	2.0	0.0	59.0	61.0	159.0	150.0	16.0	961.2	247.0	75.0	-9.0	-990.0	1636893384.584631	
-6.0	1.0	-171.0	14.0	2.0	0.0	59.0	61.0	158.0	150.0	16.0	961.17	247.0	70.0	-13.0	-1006.0	1636893384.685144	
-5.0	0.0	-171.0	13.0	2.0	0.0	59.0	61.0	156.0	150.0	16.0	961.11	248.0	52.0	-11.0	-1014.0	1636893384.78609	
-5.0	0.0	-171.0	11.0	1.0	0.0	58.0	61.0	158.0	150.0	15.0	961.17	248.0	39.0	-11.0	-1023.0	1636893384.889132	
-5.0	0.0	-171.0	10.0	1.0	0.0	58.0	61.0	156.0	150.0	15.0	961.19	248.0	17.0	5.0	-1032.0	1636893384.992934	
-5.0	0.0	-171.0	9.0	1.0	0.0	58.0	61.0	158.0	140.0	15.0	961.22	248.0	11.0	1.0	-1015.0	1636893385.092619	
-4.0	0.0	-171.0	8.0	1.0	0.0	58.0	61.0	157.0	150.0	15.0	961.2	248.0	4.0	10.0	-1011.0	1636893385.194884	
-5.0	0.0	-171.0	8.0	1.0	0.0	58.0	61.0	158.0	150.0	15.0	961.21	248.0	2.0	8.0	-1006.0	1636893385.29804	
-5.0	0.0	-171.0	7.0	1.0	0.0	58.0	61.0	159.0	150.0	15.0	961.22	248.0	-6.0	2.0	-999.0	1636893385.399298	
-5.0	0.0	-171.0	6.0	0.0	0.0	58.0	61.0	157.0	150.0	15.0	961.13	248.0	-25.0	18.0	-1008.0	1636893385.452424	
-5.0	0.0	-171.0	5.0	0.0	0.0	58.0	61.0	159.0	150.0	15.0	961.12	248.0	-23.0	17.0	-985.0	1636893385.550521	
-5.0	0.0	-171.0	5.0	0.0	0.0	58.0	61.0	157.0	150.0	15.0	961.14	248.0	-11.0	0.0	-1006.0	1636893385.653655	
-4.0	0.0	-171.0	4.0	0.0	0.0	58.0	61.0	158.0	150.0	15.0	961.2	249.0	-19.0	-1.0	-1015.0	1636893385.75448	
-4.0	0.0	-171.0	4.0	0.0	0.0	59.0	61.0	159.0	150.0	15.0	961.16	249.0	-44.0	15.0	-994.0	1636893385.856534	
-4.0	0.0	-171.0	3.0	0.0	0.0	59.0	61.0	159.0	150.0	15.0	961.17	249.0	-37.0	-4.0	-997.0	1636893385.960307	
-3.0	0.0	-171.0	3.0	0.0	0.0	59.0	61.0	159.0	150.0	15.0	961.16	249.0	-27.0	0.0	-1003.0	1636893386.065881	
-3.0	0.0	-171.0	2.0	0.0	0.0	59.0	61.0	159.0	150.0	15.0	961.16	249.0	-39.0	8.0	-1012.0	1636893386.164535	
-3.0	0.0	-171.0	2.0	0.0	0.0	59.0	61.0	160.0	150.0	15.0	961.19	249.0	-45.0	2.0	-1000.0	1636893386.266447	
-4.0	0.0	-171.0	2.0	0.0	0.0	59.0	61.0	159.0	150.0	15.0	961.12	249.0	-43.0	-15.0	-979.0	1636893386.369321	
-4.0	0.0	-171.0	2.0	0.0	0.0	59.0	61.0	161.0	150.0	15.0	961.09	249.0	-41.0	-13.0	-1034.0	1636893386.472363	
-7.0	0.0	-171.0	1.0	0.0	0.0	59.0	61.0	162.0	150.0	15.0	961.23	249.0	-66.0	10.0	-1014.0	1636893386.573062	
-7.0	0.0	-170.0	1.0	0.0	0.0	59.0	61.0	162.0	150.0	15.0	961.09	249.0	-62.0	-4.0	-1003.0	1636893386.675883	
-7.0	0.0	-170.0	0.0	0.0	0.0	59.0	61.0	164.0	150.0	15.0	961.03	250.0	-59.0	0.0	-1002.0	1636893386.775834	
-7.0	0.0	-171.0	0.0	0.0	0.0	58.0	61.0	163.0	150.0	15.0	960.99	250.0	-57.0	-9.0	-996.0	1636893386.876948	
-7.0	0.0	-171.0	0.0	0.0	0.0	58.0	61.0	161.0	150.0	15.0	960.9	250.0	-80.0	-12.0	-997.0	1636893386.979151	
-7.0	0.0	-171.0	-1.0	0.0	0.0	58.0	61.0	162.0	150.0	15.0	960.9	250.0	-95.0	0.0	-1014.0	1636893387.080682	
-7.0	0.0	-171.0	-1.0	0.0	0.0	58.0	61.0	163.0	150.0	15.0	960.94	250.0	-95.0	-1.0	-995.0	1636893387.184005	
-7.0	0.0	-171.0	-2.0	0.0	0.0	58.0	61.0	162.0	150.0	15.0	960.97	250.0	-71.0	-10.0	-1003.0	1636893387.289184	
-7.0	0.0	-171.0	-3.0	0.0	0.0	58.0	61.0	162.0	150.0	15.0	960.96	250.0	-73.0	-4.0	-1002.0	1636893387.390002	
-7.0	0.0	-171.0	-3.0	0.0	0.0	58.0	61.0	163.0	150.0	15.0	960.97	250.0	-78.0	12.0	-1003.0	1636893387.490313	
-7.0	0.0	-171.0	-4.0	0.0	0.0	58.0	61.0	163.0	150.0	15.0	960.95	250.0	-78.0	-1.0	-1019.0	1636893387.595132	
-7.0	0.0	-171.0	-5.0	0.0	0.0	58.0	61.0	163.0	150.0	15.0	960.93	250.0	-78.0	-9.0	-1014.0	1636893387.694036	
-7.0	0.0	-171.0	-5.0	0.0	0.0	58.0	61.0	163.0	150.0	15.0	960.89	251.0	-77.0	-6.0	-978.0	1636893387.799587	
-7.0	0.0	-171.0	-6.0	0.0	0.0	59.0	62.0	164.0	150.0	15.0	960.88	251.0	-88.0	1.0	-999.0	1636893387.901117	
-7.0	0.0	-170.0	-6.0	0.0	0.0	59.0	62.0	162.0	150.0	15.0	960.92	251.0	-86.0	5.0	-988.0	1636893388.002015	
-7.0	0.0	-170.0	-7.0	0.0	0.0	59.0	62.0	162.0	150.0	15.0	960.88	251.0	-88.0	1.0	-997.0	1636893388.105115	
-7.0	0.0	-170.0	-7.0	0.0	0.0	59.0	62.0	163.0	150.0	15.0	960.9	251.0	-83.0	4.0	-1002.0	1636893388.204637	
-7.0	0.0	-170.0	-7.0	0.0	0.0	59.0	62.0	163.0	150.0	15.0	960.91	251.0	-99.0	0.0	-1011.0	1636893388.307954	
-7.0	0.0	-170.0	-8.0	0.0	0.0	59.0	62.0	162.0	150.0	15.0	960.85	251.0	-105.0	0.0	-991.0	1636893388.409177	
-7.0	0.0	-170.0	-8.0	0.0	0.0	59.0	62.0	162.0	150.0	15.0	960.91	251.0	-98.0	0.0	-1004.0	1636893388.508468	
-7.0	0.0	-170.0	-8.0	0.0	0.0	59.0	62.0	163.0	150.0	15.0	960.84	251.0	-118.0	8.0	-994.0	1636893388.61036	
-7.0	0.0	-170.0	-8.0	-1.0	0.0	59.0	62.0	162.0	150.0	15.0	960.82	251.0	-105.0	6.0	-996.0	1636893388.714798	
-7.0	0.0	-170.0	-9.0	-1.0	0.0	59.0	62.0	160.0	150.0	15.0	960.63	252.0	-127.0	14.0	-991.0	1636893388.816446	
-7.0	0.0	-170.0	-9.0	-1.0	0.0	59.0	61.0	162.0	150.0	15.0	960.54	252.0	-111.0	-5.0	-982.0	1636893388.916597	
-7.0	0.0	-170.0	-9.0	-1.0	0.0	59.0	61.0	162.0	150.0	15.0	960.67	252.0	-129.0	-15.0	-1041.0	1636893389.020315	
-7.0	0.0	-170.0	-9.0	-1.0	0.0	59.0	61.0	162.0	150.0	15.0	960.73	252.0	-126.0	15.0	-984.0	1636893389.123207	
-7.0	0.0	-170.0	-9.0	-1.0	0.0	59.0	61.0	161.0	150.0	15.0	960.66	252.0	-127.0	4.0	-989.0	1636893389.223844	
-7.0	0.0	-170.0	-9.0	-1.0	0.0	59.0	61.0	163.0	150.0	15.0	960.63	252.0	-140.0	15.0	-1002.0	1636893389.327961	
-8.0	0.0	-170.0	-9.0	-1.0	0.0	59.0	61.0	163.0	150.0	15.0	960.61	252.0	-113.0	0.0	-974.0	1636893389.426497	
-7.0	0.0	-170.0	-9.0	-1.0	0.0	59.0	61.0	165.0	150.0	15.0	960.58	252.0	-117.0	-5.0	-983.0	1636893389.53198	
-7.0	0.0	-170.0	-9.0	-1.0	0.0	59.0	61.0	163.0	150.0	15.0	960.69	252.0	-126.0	-8.0	-1006.0	1636893389.630096	
-7.0	0.0	-170.0	-10.0	-1.0	0.0	59.0	61.0	164.0	150.0	15.0	960.47	253.0	-131.0	-2.0	-1009.0	1636893389.735959	
-7.0	0.0	-170.0	-10.0	-1.0	0.0	59.0	61.0	163.0	150.0	15.0	960.45	253.0	-149.0	0.0	-1000.0	1636893389.786334	
-7.0	0.0	-170.0	-10.0	-1.0	0.0	59.0	61.0	164.0	150.0	15.0	960.53	253.0	-154.0	7.0	-991.0	1636893389.937023	
-7.0	0.0	-170.0	-9.0	-1.0	0.0	59.0	61.0	165.0	150.0	15.0	960.56	253.0	-151.0	6.0	-965.0	1636893389.991942	
-8.0	0.0	-170.0	-9.0	-1.0	0.0	59.0	61.0	165.0	150.0	15.0	960.65	253.0	-150.0	13.0	-990.0	1636893390.094213	
-7.0	0.0	-170.0	-9.0	-1.0	0.0	59.0	61.0	164.0	150.0	15.0	960.56	253.0	-150.0	3.0	-1010.0	1636893390.194811	
-7.0	0.0	-170.0	-9.0	-1.0	0.0	59.0	61.0	165.0	150.0	15.0	960.54	253.0	-148.0	-1.0	-997.0	1636893390.296261	
-7.0	0.0	-170.0	-9.0	-1.0	0.0	59.0	61.0	163.0	150.0	15.0	960.47	253.0	-149.0	-1.0	-991.0	1636893390.395748	
-7.0	0.0	-171.0	-9.0	-1.0	0.0	59.0	61.0	164.0	150.0	15.0	960.59	253.0	-159.0	0.0	-984.0	1636893390.498251	
-7.0	0.0	-170.0	-9.0	-1.0	0.0	59.0	61.0	163.0	150.0	15.0	960.51	253.0	-151.0	-12.0	-984.0	1636893390.599557	
-7.0	0.0	-171.0	-9.0	-1.0	0.0	59.0	61.0	160.0	150.0	15.0	960.44	254.0	-163.0	-3.0	-1017.0	1636893390.704302	
-7.0	0.0	-171.0	-9.0	-1.0	0.0	59.0	61.0	164.0	150.0	15.0	960.51	254.0	-146.0	-13.0	-989.0	1636893390.805643	
-7.0	0.0	-171.0	-9.0	-1.0	0.0	58.0	61.0	163.0	150.0	15.0	960.64	254.0	-147.0	8.0	-1002.0	1636893390.905282	
-8.0	0.0	-171.0	-9.0	-1.0	0.0	58.0	61.0	164.0	150.0	15.0	960.64	254.0	-135.0	14.0	-990.0	1636893391.0087	
-7.0	0.0	-171.0	-9.0	-1.0	0.0	58.0	61.0	161.0	150.0	15.0	960.57	254.0	-140.0	16.0	-975.0	1636893391.111855	
-8.0	0.0	-171.0	-9.0	-2.0	0.0	58.0	61.0	163.0	150.0	15.0	960.56	254.0	-139.0	12.0	-974.0	1636893391.214694	
-7.0	0.0	-171.0	-9.0	-2.0	0.0	58.0	61.0	163.0	150.0	15.0	960.8	254.0	-147.0	13.0	-985.0	1636893391.314448	
-8.0	0.0	-171.0	-9.0	-2.0	0.0	58.0	61.0	163.0	150.0	15.0	960.55	254.0	-132.0	5.0	-975.0	1636893391.418499	
-7.0	0.0	-171.0	-9.0	-2.0	0.0	58.0	61.0	163.0	150.0	15.0	960.57	254.0	-138.0	14.0	-996.0	1636893391.517678	
-7.0	0.0	-170.0	-9.0	-2.0	0.0	58.0	61.0	162.0	150.0	15.0	960.51	254.0	-151.0	13.0	-966.0	1636893391.622485	
-7.0	0.0	-171.0	-9.0	-2.0	0.0	58.0	61.0	164.0	150.0	15.0	960.5	255.0	-143.0	-4.0	-1015.0	1636893391.721475	
-7.0	0.0	-170.0	-9.0	-2.0	0.0	58.0	61.0	162.0	150.0	15.0	960.65	255.0	-143.0	12.0	-1001.0	1636893391.824055	
-7.0	0.0	-170.0	-9.0	-2.0	0.0	59.0	62.0	161.0	150.0	15.0	960.38	255.0	-157.0	15.0	-993.0	1636893391.92595	
-7.0	0.0	-170.0	-9.0	-2.0	0.0	59.0	62.0	161.0	150.0	15.0	960.37	255.0	-150.0	-1.0	-995.0	1636893392.028726	
-7.0	0.0	-170.0	-9.0	-2.0	0.0	59.0	62.0	163.0	150.0	15.0	960.43	255.0	-155.0	-5.0	-996.0	1636893392.129839	
-8.0	0.0	-170.0	-9.0	-2.0	0.0	59.0	62.0	164.0	150.0	15.0	960.62	255.0	-122.0	-42.0	-1032.0	1636893392.236463	
-8.0	0.0	-170.0	-9.0	-1.0	0.0	59.0	62.0	164.0	150.0	15.0	960.58	255.0	-113.0	-26.0	-984.0	1636893392.334658	
-8.0	0.0	-170.0	-10.0	-1.0	0.0	59.0	62.0	165.0	150.0	15.0	960.43	255.0	-130.0	-8.0	-962.0	1636893392.437924	
-7.0	0.0	-170.0	-10.0	-1.0	0.0	59.0	62.0	163.0	150.0	15.0	960.57	255.0	-140.0	2.0	-996.0	1636893392.537195	
-7.0	0.0	-170.0	-10.0	-1.0	0.0	59.0	62.0	162.0	150.0	15.0	960.42	255.0	-147.0	-7.0	-991.0	1636893392.639662	
-7.0	0.0	-171.0	-10.0	-1.0	0.0	59.0	62.0	165.0	150.0	15.0	960.57	256.0	-135.0	16.0	-986.0	1636893392.742057	
-7.0	0.0	-171.0	-10.0	-2.0	0.0	59.0	62.0	161.0	150.0	15.0	960.55	256.0	-126.0	4.0	-1004.0	1636893392.845473	
-7.0	0.0	-171.0	-10.0	-2.0	0.0	58.0	62.0	161.0	150.0	15.0	960.65	256.0	-135.0	7.0	-985.0	1636893392.947429	
-7.0	0.0	-171.0	-10.0	-2.0	0.0	58.0	62.0	163.0	150.0	15.0	960.58	256.0	-142.0	9.0	-982.0	1636893393.04745	
-7.0	0.0	-171.0	-10.0	-2.0	0.0	58.0	62.0	162.0	150.0	15.0	960.39	256.0	-143.0	13.0	-993.0	1636893393.151459	
-7.0	0.0	-171.0	-10.0	-2.0	0.0	58.0	62.0	161.0	150.0	15.0	960.43	256.0	-161.0	-5.0	-979.0	1636893393.253311	
-7.0	0.0	-170.0	-9.0	-2.0	0.0	58.0	62.0	163.0	150.0	15.0	960.35	256.0	-146.0	-9.0	-981.0	1636893393.354605	
-7.0	0.0	-170.0	-9.0	-1.0	0.0	58.0	62.0	163.0	150.0	15.0	960.47	256.0	-135.0	-25.0	-1003.0	1636893393.457478	
-7.0	0.0	-170.0	-9.0	-1.0	0.0	58.0	62.0	161.0	150.0	15.0	960.39	256.0	-139.0	-2.0	-988.0	1636893393.560852	
-7.0	0.0	-170.0	-9.0	-1.0	0.0	58.0	62.0	162.0	150.0	15.0	960.49	256.0	-144.0	-8.0	-982.0	1636893393.659652	
-7.0	0.0	-170.0	-9.0	-1.0	0.0	58.0	62.0	164.0	150.0	15.0	960.51	257.0	-143.0	-10.0	-985.0	1636893393.713747	
-7.0	0.0	-171.0	-9.0	-1.0	0.0	58.0	62.0	163.0	150.0	15.0	960.47	257.0	-148.0	3.0	-992.0	1636893393.812714	
-7.0	0.0	-170.0	-9.0	-2.0	0.0	58.0	62.0	164.0	150.0	15.0	960.44	257.0	-150.0	3.0	-1014.0	1636893393.964884	
-7.0	0.0	-170.0	-9.0	-2.0	0.0	58.0	62.0	164.0	150.0	15.0	960.44	257.0	-146.0	4.0	-997.0	1636893394.070845	
-7.0	0.0	-170.0	-9.0	-2.0	0.0	58.0	62.0	165.0	150.0	15.0	960.43	257.0	-155.0	9.0	-993.0	1636893394.172784	
-7.0	0.0	-170.0	-9.0	-2.0	0.0	58.0	62.0	166.0	150.0	15.0	960.49	257.0	-154.0	9.0	-999.0	1636893394.271857	
-7.0	0.0	-170.0	-9.0	-2.0	0.0	58.0	62.0	163.0	150.0	15.0	960.39	257.0	-140.0	5.0	-995.0	1636893394.374263	
-7.0	0.0	-171.0	-9.0	-2.0	0.0	58.0	62.0	164.0	150.0	15.0	960.38	257.0	-152.0	9.0	-985.0	1636893394.425377	
-7.0	0.0	-171.0	-9.0	-2.0	0.0	58.0	62.0	165.0	150.0	15.0	960.57	257.0	-141.0	-1.0	-978.0	1636893394.529724	
-7.0	0.0	-170.0	-9.0	-2.0	0.0	58.0	62.0	164.0	150.0	15.0	960.54	257.0	-137.0	17.0	-989.0	1636893394.62794	
-7.0	0.0	-171.0	-9.0	-2.0	0.0	58.0	62.0	165.0	150.0	15.0	960.46	258.0	-143.0	25.0	-994.0	1636893394.730898	
-7.0	0.0	-170.0	-9.0	-2.0	0.0	58.0	62.0	165.0	150.0	15.0	960.53	258.0	-157.0	13.0	-973.0	1636893394.835867	
-8.0	0.0	-170.0	-9.0	-2.0	0.0	59.0	61.0	163.0	150.0	15.0	960.56	258.0	-170.0	3.0	-964.0	1636893394.937513	
-7.0	0.0	-170.0	-9.0	-2.0	0.0	59.0	61.0	163.0	150.0	15.0	960.46	258.0	-159.0	2.0	-957.0	1636893395.041418	
-6.0	-1.0	-171.0	-8.0	-2.0	0.0	59.0	61.0	161.0	150.0	15.0	960.52	258.0	-157.0	10.0	-984.0	1636893395.142024	
-1.0	-2.0	-170.0	-8.0	-2.0	0.0	59.0	61.0	160.0	150.0	15.0	960.39	258.0	-170.0	11.0	-988.0	1636893395.243744	
7.0	-1.0	-171.0	-6.0	-1.0	0.0	59.0	61.0	161.0	150.0	15.0	960.52	258.0	-151.0	12.0	-996.0	1636893395.34456	
7.0	0.0	-171.0	-3.0	-1.0	0.0	59.0	61.0	161.0	150.0	15.0	960.46	258.0	-146.0	0.0	-981.0	1636893395.447791	
3.0	-1.0	-171.0	-1.0	0.0	0.0	59.0	61.0	159.0	150.0	15.0	960.67	258.0	-163.0	13.0	-1016.0	1636893395.54829	
-1.0	-1.0	-170.0	0.0	0.0	0.0	59.0	61.0	158.0	150.0	15.0	960.64	258.0	-92.0	0.0	-1010.0	1636893395.64853	
-3.0	0.0	-170.0	0.0	0.0	0.0	59.0	61.0	160.0	150.0	15.0	960.7	259.0	-91.0	-7.0	-1020.0	1636893395.750729	
-4.0	0.0	-171.0	0.0	0.0	0.0	59.0	61.0	159.0	150.0	15.0	960.74	259.0	-84.0	-2.0	-1004.0	1636893395.852478	
-4.0	1.0	-171.0	0.0	0.0	0.0	58.0	61.0	161.0	150.0	15.0	960.6	259.0	-91.0	-2.0	-1006.0	1636893395.954072	
-5.0	1.0	-171.0	0.0	0.0	0.0	58.0	61.0	161.0	150.0	15.0	960.66	259.0	-91.0	-4.0	-978.0	1636893396.059616	
-5.0	1.0	-171.0	0.0	0.0	0.0	58.0	61.0	161.0	150.0	15.0	960.74	259.0	-88.0	-9.0	-1001.0	1636893396.16162	
-5.0	0.0	-171.0	0.0	0.0	0.0	58.0	61.0	162.0	150.0	15.0	960.7	259.0	-85.0	-2.0	-998.0	1636893396.261653	
-5.0	-1.0	-170.0	0.0	0.0	0.0	58.0	61.0	162.0	150.0	15.0	960.7	259.0	-93.0	0.0	-979.0	1636893396.365307	
-5.0	-2.0	-170.0	0.0	0.0	0.0	58.0	61.0	161.0	150.0	15.0	960.73	259.0	-88.0	0.0	-990.0	1636893396.465175	
-5.0	-2.0	-170.0	0.0	0.0	0.0	58.0	61.0	162.0	150.0	15.0	960.74	259.0	-100.0	-2.0	-999.0	1636893396.566833	
-5.0	-2.0	-170.0	0.0	0.0	0.0	58.0	61.0	161.0	150.0	15.0	960.94	259.0	-90.0	-1.0	-983.0	1636893396.669708	
-5.0	-1.0	-170.0	0.0	0.0	0.0	58.0	61.0	162.0	150.0	15.0	960.82	260.0	-82.0	21.0	-971.0	1636893396.77128	
-5.0	-1.0	-170.0	0.0	0.0	0.0	58.0	61.0	163.0	150.0	15.0	960.71	260.0	-67.0	26.0	-978.0	1636893396.874137	
-4.0	-1.0	-170.0	0.0	0.0	0.0	58.0	62.0	163.0	150.0	15.0	960.77	260.0	-68.0	19.0	-1009.0	1636893396.976967	
-4.0	-1.0	-170.0	0.0	0.0	0.0	58.0	62.0	161.0	150.0	15.0	960.73	260.0	-86.0	14.0	-991.0	1636893397.076436	
-4.0	-1.0	-170.0	0.0	0.0	0.0	58.0	62.0	162.0	150.0	15.0	960.73	260.0	-71.0	10.0	-997.0	1636893397.179326	
-4.0	-1.0	-170.0	0.0	0.0	0.0	58.0	62.0	160.0	150.0	15.0	960.82	260.0	-75.0	25.0	-1001.0	1636893397.28309	
-4.0	-1.0	-170.0	0.0	0.0	0.0	58.0	62.0	162.0	150.0	15.0	960.96	260.0	-77.0	35.0	-1010.0	1636893397.384286	
-3.0	0.0	-170.0	0.0	0.0	0.0	58.0	62.0	161.0	150.0	15.0	960.8	260.0	-69.0	26.0	-994.0	1636893397.485875	
0.0	0.0	-170.0	0.0	0.0	0.0	58.0	62.0	159.0	150.0	15.0	960.83	260.0	-70.0	13.0	-1011.0	1636893397.589599	
3.0	0.0	-170.0	0.0	0.0	0.0	58.0	62.0	161.0	150.0	15.0	960.95	260.0	-70.0	21.0	-1017.0	1636893397.688233	
6.0	0.0	-170.0	2.0	0.0	0.0	58.0	62.0	161.0	150.0	15.0	960.92	261.0	-60.0	14.0	-1012.0	1636893397.79369	
6.0	0.0	-170.0	3.0	0.0	0.0	58.0	62.0	162.0	150.0	15.0	960.97	261.0	-54.0	13.0	-1011.0	1636893397.894729	
6.0	0.0	-170.0	5.0	1.0	0.0	58.0	61.0	163.0	150.0	15.0	961.04	261.0	-39.0	11.0	-1015.0	1636893397.996416	
5.0	0.0	-171.0	6.0	1.0	0.0	58.0	61.0	163.0	150.0	15.0	961.0	261.0	-21.0	4.0	-1011.0	1636893398.099458	
4.0	0.0	-171.0	8.0	1.0	0.0	58.0	61.0	162.0	150.0	15.0	961.1	261.0	-19.0	5.0	-1001.0	1636893398.198724	
3.0	0.0	-171.0	9.0	1.0	0.0	58.0	61.0	162.0	150.0	15.0	961.08	261.0	-5.0	8.0	-996.0	1636893398.300338	
2.0	0.0	-171.0	9.0	1.0	0.0	58.0	61.0	162.0	150.0	15.0	961.15	261.0	4.0	6.0	-991.0	1636893398.351787	
1.0	0.0	-170.0	10.0	2.0	0.0	58.0	61.0	162.0	150.0	15.0	961.2	261.0	11.0	-1.0	-995.0	1636893398.465327	
1.0	0.0	-170.0	10.0	2.0	0.0	58.0	61.0	163.0	150.0	15.0	961.16	261.0	30.0	-11.0	-999.0	1636893398.555641	
1.0	0.0	-170.0	10.0	2.0	0.0	58.0	61.0	164.0	150.0	15.0	961.16	261.0	28.0	-22.0	-998.0	1636893398.657322	
2.0	0.0	-170.0	10.0	2.0	0.0	58.0	61.0	162.0	150.0	15.0	961.2	262.0	33.0	-9.0	-1008.0	1636893398.759743	
2.0	0.0	-170.0	11.0	2.0	0.0	58.0	61.0	163.0	150.0	15.0	961.13	262.0	1.0	-4.0	-1001.0	1636893398.863332	
2.0	1.0	-170.0	11.0	2.0	0.0	59.0	61.0	163.0	150.0	15.0	961.19	262.0	35.0	-30.0	-1010.0	1636893398.964606	
2.0	1.0	-171.0	11.0	2.0	0.0	59.0	61.0	163.0	150.0	15.0	961.21	262.0	37.0	-18.0	-996.0	1636893399.068499	
2.0	1.0	-171.0	11.0	2.0	0.0	59.0	61.0	163.0	150.0	15.0	961.19	262.0	34.0	-13.0	-987.0	1636893399.170473	
2.0	1.0	-171.0	11.0	2.0	0.0	59.0	61.0	162.0	150.0	15.0	961.18	262.0	29.0	-11.0	-991.0	1636893399.271916	
2.0	0.0	-171.0	11.0	2.0	0.0	59.0	61.0	163.0	150.0	15.0	961.22	262.0	26.0	-19.0	-993.0	1636893399.374328	
1.0	0.0	-171.0	11.0	2.0	0.0	59.0	61.0	164.0	150.0	15.0	961.15	262.0	10.0	-2.0	-992.0	1636893399.47331	
1.0	1.0	-171.0	11.0	2.0	0.0	59.0	61.0	162.0	150.0	15.0	961.23	262.0	20.0	-11.0	-994.0	1636893399.574777	
1.0	1.0	-171.0	12.0	2.0	0.0	59.0	61.0	161.0	150.0	15.0	961.18	262.0	39.0	-21.0	-997.0	1636893399.680615	
0.0	1.0	-171.0	12.0	2.0	0.0	59.0	61.0	160.0	150.0	15.0	961.27	263.0	11.0	9.0	-982.0	1636893399.782482	
0.0	0.0	-171.0	12.0	2.0	0.0	59.0	61.0	158.0	150.0	15.0	961.27	263.0	5.0	10.0	-982.0	1636893399.883609	
0.0	0.0	-171.0	12.0	2.0	0.0	59.0	62.0	158.0	150.0	15.0	961.25	263.0	17.0	9.0	-1001.0	1636893399.983765	
0.0	0.0	-171.0	12.0	2.0	0.0	59.0	62.0	158.0	150.0	15.0	961.3	263.0	26.0	5.0	-995.0	1636893400.085646	
1.0	0.0	-171.0	12.0	2.0	0.0	59.0	62.0	158.0	150.0	15.0	961.3	263.0	23.0	4.0	-1003.0	1636893400.187524	
0.0	0.0	-171.0	12.0	1.0	0.0	59.0	62.0	156.0	150.0	15.0	961.21	263.0	18.0	15.0	-1017.0	1636893400.291686	
1.0	0.0	-171.0	12.0	1.0	0.0	59.0	62.0	157.0	150.0	15.0	961.17	263.0	22.0	34.0	-1033.0	1636893400.393363	
1.0	-1.0	-171.0	12.0	1.0	0.0	59.0	62.0	157.0	150.0	15.0	961.22	263.0	9.0	22.0	-1012.0	1636893400.498501	
1.0	-1.0	-171.0	12.0	1.0	0.0	59.0	62.0	156.0	150.0	15.0	961.24	263.0	17.0	14.0	-1008.0	1636893400.600465	
0.0	-1.0	-171.0	12.0	1.0	0.0	59.0	62.0	157.0	150.0	15.0	961.19	263.0	31.0	27.0	-1020.0	1636893400.699351	
0.0	-1.0	-171.0	12.0	1.0	0.0	59.0	62.0	155.0	150.0	15.0	961.29	264.0	23.0	20.0	-985.0	1636893400.804281	
0.0	-1.0	-171.0	12.0	1.0	0.0	59.0	62.0	156.0	150.0	14.0	961.21	264.0	17.0	13.0	-996.0	1636893400.901527	
1.0	-1.0	-171.0	12.0	1.0	0.0	59.0	61.0	156.0	150.0	14.0	961.24	264.0	-3.0	14.0	-1010.0	1636893401.003914	
1.0	-1.0	-171.0	12.0	1.0	0.0	59.0	61.0	156.0	150.0	14.0	961.27	264.0	16.0	22.0	-1008.0	1636893401.106274	
1.0	-1.0	-171.0	12.0	1.0	0.0	59.0	61.0	157.0	150.0	14.0	961.17	264.0	5.0	28.0	-991.0	1636893401.206985	
1.0	-1.0	-171.0	12.0	1.0	0.0	59.0	61.0	158.0	150.0	14.0	961.19	264.0	19.0	27.0	-1007.0	1636893401.312302	
1.0	-1.0	-170.0	12.0	1.0	0.0	59.0	61.0	158.0	150.0	14.0	961.24	264.0	23.0	16.0	-999.0	1636893401.410784	
1.0	-1.0	-170.0	12.0	2.0	0.0	59.0	61.0	159.0	150.0	14.0	961.21	264.0	10.0	20.0	-993.0	1636893401.51667	
1.0	-1.0	-170.0	12.0	1.0	0.0	59.0	61.0	159.0	150.0	14.0	961.24	264.0	28.0	14.0	-997.0	1636893401.618004	
1.0	-1.0	-170.0	12.0	2.0	0.0	59.0	61.0	158.0	150.0	14.0	961.23	265.0	18.0	11.0	-998.0	1636893401.720378	
1.0	-1.0	-170.0	12.0	2.0	0.0	59.0	61.0	158.0	150.0	14.0	961.22	265.0	14.0	19.0	-1007.0	1636893401.8226	
1.0	-1.0	-170.0	12.0	2.0	0.0	59.0	61.0	159.0	150.0	14.0	961.23	265.0	22.0	21.0	-988.0	1636893401.925417	
1.0	-1.0	-170.0	12.0	2.0	0.0	58.0	61.0	160.0	150.0	14.0	961.31	265.0	14.0	17.0	-984.0	1636893402.02306	
1.0	-1.0	-170.0	12.0	2.0	0.0	58.0	61.0	162.0	150.0	14.0	961.26	265.0	6.0	29.0	-989.0	1636893402.128379	
0.0	-1.0	-171.0	12.0	2.0	0.0	58.0	61.0	158.0	150.0	14.0	961.29	265.0	16.0	19.0	-998.0	1636893402.22749	
0.0	0.0	-171.0	12.0	2.0	0.0	58.0	61.0	160.0	150.0	14.0	961.19	265.0	43.0	-3.0	-965.0	1636893402.332626	
0.0	0.0	-171.0	12.0	2.0	0.0	58.0	61.0	160.0	150.0	14.0	961.27	265.0	31.0	11.0	-967.0	1636893402.433588	
0.0	-1.0	-171.0	12.0	2.0	0.0	58.0	61.0	161.0	150.0	14.0	961.23	265.0	5.0	18.0	-994.0	1636893402.532686	
0.0	-1.0	-171.0	12.0	2.0	0.0	58.0	61.0	160.0	150.0	14.0	961.27	265.0	25.0	13.0	-1004.0	1636893402.636421	
1.0	0.0	-171.0	12.0	2.0	0.0	58.0	61.0	161.0	150.0	14.0	961.24	266.0	11.0	23.0	-997.0	1636893402.686192	
1.0	0.0	-171.0	12.0	2.0	0.0	58.0	61.0	158.0	150.0	14.0	961.22	266.0	41.0	-3.0	-995.0	1636893402.788117	
1.0	0.0	-171.0	12.0	2.0	0.0	58.0	61.0	159.0	150.0	14.0	961.22	266.0	22.0	16.0	-982.0	1636893402.891257	
1.0	0.0	-171.0	12.0	2.0	0.0	58.0	61.0	158.0	150.0	14.0	961.23	266.0	19.0	22.0	-999.0	1636893402.993219	
1.0	-1.0	-171.0	12.0	2.0	0.0	58.0	61.0	160.0	150.0	14.0	961.24	266.0	14.0	25.0	-996.0	1636893403.096203	
0.0	0.0	-171.0	12.0	2.0	0.0	58.0	61.0	157.0	150.0	14.0	961.24	266.0	18.0	17.0	-1000.0	1636893403.197284	
1.0	-1.0	-170.0	12.0	2.0	0.0	58.0	61.0	158.0	150.0	14.0	961.21	266.0	0.0	31.0	-1028.0	1636893403.301062	
1.0	-1.0	-170.0	12.0	2.0	0.0	58.0	61.0	159.0	150.0	14.0	961.19	266.0	18.0	16.0	-1008.0	1636893403.400074	
3.0	-1.0	-170.0	12.0	2.0	0.0	58.0	61.0	157.0	150.0	14.0	961.2	266.0	16.0	10.0	-1001.0	1636893403.506213	
5.0	-1.0	-170.0	13.0	2.0	0.0	58.0	61.0	159.0	150.0	14.0	961.24	266.0	27.0	7.0	-997.0	1636893403.606837	
7.0	0.0	-170.0	13.0	2.0	0.0	58.0	61.0	160.0	150.0	14.0	961.21	267.0	28.0	3.0	-1002.0	1636893403.707773	
7.0	0.0	-170.0	15.0	2.0	0.0	58.0	61.0	162.0	150.0	14.0	961.28	267.0	29.0	-1.0	-990.0	1636893403.809567	
7.0	0.0	-170.0	15.0	3.0	0.0	58.0	61.0	161.0	150.0	14.0	961.2	267.0	32.0	8.0	-1003.0	1636893403.911006	
7.0	0.0	-170.0	16.0	3.0	0.0	58.0	61.0	162.0	150.0	14.0	961.21	267.0	34.0	17.0	-1000.0	1636893404.015322	
7.0	0.0	-170.0	17.0	3.0	0.0	58.0	61.0	163.0	150.0	14.0	961.22	267.0	48.0	13.0	-998.0	1636893404.11474	
7.0	0.0	-170.0	18.0	3.0	0.0	58.0	61.0	162.0	150.0	14.0	961.2	267.0	61.0	0.0	-1016.0	1636893404.21941	
7.0	0.0	-170.0	19.0	3.0	0.0	58.0	61.0	162.0	150.0	14.0	961.12	267.0	70.0	2.0	-1002.0	1636893404.318255	
7.0	0.0	-170.0	19.0	3.0	0.0	58.0	61.0	163.0	150.0	14.0	961.14	267.0	75.0	-1.0	-982.0	1636893404.419687	
7.0	0.0	-170.0	20.0	3.0	0.0	58.0	61.0	162.0	150.0	14.0	961.2	267.0	73.0	4.0	-984.0	1636893404.525539	
7.0	0.0	-170.0	20.0	3.0	0.0	58.0	61.0	162.0	150.0	14.0	961.23	267.0	73.0	12.0	-985.0	1636893404.623775	
3.0	0.0	-170.0	21.0	4.0	0.0	58.0	61.0	160.0	150.0	14.0	961.13	268.0	84.0	0.0	-1014.0	1636893404.726635	
-3.0	0.0	-170.0	20.0	3.0	0.0	58.0	61.0	158.0	150.0	14.0	961.12	268.0	94.0	6.0	-988.0	1636893404.829694	
-6.0	0.0	-170.0	18.0	3.0	0.0	58.0	61.0	158.0	150.0	14.0	961.2	268.0	93.0	-7.0	-1001.0	1636893404.935447	
-6.0	0.0	-170.0	17.0	3.0	0.0	59.0	61.0	156.0	150.0	14.0	961.12	268.0	71.0	4.0	-1018.0	1636893405.031946	
-6.0	0.0	-170.0	15.0	3.0	0.0	59.0	61.0	156.0	150.0	14.0	961.17	268.0	56.0	-3.0	-1011.0	1636893405.134068	
-6.0	0.0	-170.0	13.0	2.0	0.0	59.0	61.0	156.0	150.0	14.0	961.16	268.0	42.0	-8.0	-1008.0	1636893405.237298	
-6.0	0.0	-170.0	12.0	2.0	0.0	59.0	61.0	158.0	150.0	14.0	961.17	268.0	24.0	-1.0	-1025.0	1636893405.338703	
-6.0	0.0	-170.0	11.0	2.0	0.0	59.0	61.0	157.0	150.0	14.0	961.21	268.0	19.0	-3.0	-1020.0	1636893405.441391	
-6.0	0.0	-170.0	10.0	2.0	0.0	59.0	61.0	158.0	140.0	14.0	961.22	268.0	4.0	-5.0	-1015.0	1636893405.542938	
-6.0	0.0	-171.0	8.0	2.0	0.0	59.0	61.0	158.0	150.0	14.0	961.18	268.0	0.0	1.0	-1016.0	1636893405.64451	
-5.0	0.0	-171.0	8.0	1.0	0.0	59.0	61.0	157.0	150.0	14.0	961.17	269.0	3.0	-9.0	-1007.0	1636893405.749203	
-5.0	0.0	-171.0	7.0	1.0	0.0	59.0	61.0	157.0	150.0	14.0	961.18	269.0	-18.0	7.0	-1003.0	1636893405.849665	
-5.0	0.0	-171.0	6.0	1.0	0.0	59.0	61.0	157.0	150.0	14.0	961.22	269.0	-24.0	2.0	-1010.0	1636893405.952658	
-5.0	0.0	-171.0	5.0	1.0	0.0	58.0	61.0	159.0	150.0	14.0	961.26	269.0	-17.0	-5.0	-1001.0	1636893406.055523	
-5.0	0.0	-171.0	5.0	1.0	0.0	58.0	61.0	160.0	150.0	14.0	961.2	269.0	-46.0	4.0	-1008.0	1636893406.16067	
-5.0	0.0	-171.0	4.0	1.0	0.0	58.0	61.0	162.0	150.0	14.0	961.15	269.0	-48.0	11.0	-1004.0	1636893406.256545	
-4.0	0.0	-171.0	4.0	1.0	0.0	58.0	61.0	163.0	150.0	14.0	961.18	269.0	-38.0	-10.0	-980.0	1636893406.358152	
-4.0	0.0	-171.0	3.0	0.0	0.0	58.0	61.0	161.0	150.0	14.0	961.24	269.0	-42.0	-2.0	-995.0	1636893406.463044	
-4.0	0.0	-170.0	3.0	0.0	0.0	58.0	61.0	162.0	150.0	14.0	961.21	269.0	-41.0	-5.0	-966.0	1636893406.515792	
-4.0	0.0	-171.0	2.0	0.0	0.0	58.0	61.0	163.0	150.0	14.0	961.27	269.0	-47.0	2.0	-989.0	1636893406.613463	
-4.0	0.0	-171.0	2.0	0.0	0.0	58.0	61.0	164.0	150.0	14.0	961.17	270.0	-58.0	3.0	-1006.0	1636893406.717095	
-4.0	0.0	-170.0	2.0	0.0	0.0	58.0	61.0	165.0	150.0	14.0	961.23	270.0	-53.0	-2.0	-980.0	1636893406.818354	
-4.0	0.0	-170.0	2.0	0.0	0.0	58.0	61.0	165.0	150.0	14.0	961.27	270.0	-58.0	-7.0	-986.0	1636893406.920621	
-4.0	0.0	-171.0	2.0	0.0	0.0	59.0	61.0	165.0	150.0	14.0	961.27	270.0	-52.0	0.0	-999.0	1636893407.072703	
-7.0	0.0	-171.0	1.0	0.0	0.0	59.0	61.0	166.0	150.0	14.0	961.28	270.0	-68.0	15.0	-987.0	1636893407.177868	
-7.0	0.0	-171.0	0.0	0.0	0.0	59.0	61.0	166.0	150.0	14.0	961.12	270.0	-47.0	-8.0	-999.0	1636893407.228875	
-7.0	0.0	-171.0	0.0	0.0	0.0	59.0	61.0	164.0	150.0	14.0	961.11	270.0	-59.0	8.0	-984.0	1636893407.330273	
-7.0	0.0	-171.0	0.0	0.0	0.0	59.0	61.0	166.0	150.0	14.0	961.11	270.0	-66.0	3.0	-1005.0	1636893407.432473	
-7.0	0.0	-171.0	0.0	0.0	0.0	59.0	61.0	166.0	150.0	14.0	961.16	270.0	-68.0	6.0	-992.0	1636893407.53148	
-7.0	0.0	-171.0	-1.0	0.0	0.0	59.0	61.0	163.0	150.0	14.0	961.02	270.0	-70.0	-9.0	-998.0	1636893407.638621	
-7.0	0.0	-170.0	-2.0	0.0	0.0	59.0	61.0	162.0	150.0	14.0	961.04	271.0	-81.0	6.0	-997.0	1636893407.735518	
-7.0	0.0	-170.0	-2.0	0.0	0.0	59.0	61.0	164.0	150.0	13.0	960.99	271.0	-74.0	-18.0	-998.0	1636893407.841125	
-7.0	0.0	-170.0	-3.0	0.0	0.0	59.0	61.0	162.0	150.0	13.0	961.09	271.0	-92.0	-4.0	-1004.0	1636893407.949854	
-7.0	0.0	-170.0	-3.0	0.0	0.0	58.0	61.0	161.0	150.0	13.0	960.92	271.0	-98.0	0.0	-987.0	1636893408.05769	
-7.0	0.0	-170.0	-4.0	0.0	0.0	58.0	61.0	162.0	150.0	13.0	960.94	271.0	-90.0	4.0	-1001.0	1636893408.147113	
-7.0	0.0	-170.0	-4.0	0.0	0.0	58.0	61.0	162.0	150.0	13.0	961.05	271.0	-97.0	8.0	-1000.0	1636893408.249532	
-7.0	0.0	-170.0	-4.0	0.0	0.0	58.0	61.0	163.0	150.0	13.0	960.88	271.0	-105.0	8.0	-1008.0	1636893408.34737	
-7.0	0.0	-170.0	-5.0	0.0	0.0	58.0	61.0	161.0	150.0	13.0	960.86	271.0	-91.0	1.0	-979.0	1636893408.449316	
-7.0	0.0	-170.0	-5.0	0.0	0.0	58.0	61.0	162.0	150.0	13.0	960.85	271.0	-102.0	3.0	-987.0	1636893408.555209	
-7.0	0.0	-171.0	-5.0	0.0	0.0	58.0	61.0	161.0	150.0	13.0	960.89	271.0	-98.0	-10.0	-1004.0	1636893408.655444	
-7.0	0.0	-171.0	-6.0	0.0	0.0	58.0	61.0	159.0	150.0	13.0	960.79	272.0	-103.0	-15.0	-994.0	1636893408.758651	
-7.0	0.0	-171.0	-6.0	0.0	0.0	58.0	61.0	158.0	150.0	13.0	960.83	272.0	-105.0	-9.0	-990.0	1636893408.85852	
-7.0	0.0	-171.0	-6.0	0.0	0.0	58.0	61.0	160.0	150.0	13.0	960.83	272.0	-111.0	17.0	-996.0	1636893408.961469	
-7.0	0.0	-171.0	-7.0	-1.0	0.0	59.0	61.0	159.0	150.0	13.0	960.67	272.0	-103.0	-4.0	-995.0	1636893409.098812	
-7.0	0.0	-171.0	-7.0	-1.0	0.0	59.0	61.0	159.0	150.0	13.0	960.72	272.0	-112.0	-4.0	-984.0	1636893409.170059	
-7.0	0.0	-170.0	-7.0	-1.0	0.0	59.0	61.0	158.0	150.0	13.0	960.74	272.0	-124.0	1.0	-1000.0	1636893409.269167	
-7.0	0.0	-170.0	-7.0	-1.0	0.0	59.0	61.0	157.0	150.0	13.0	960.81	272.0	-133.0	6.0	-995.0	1636893409.371453	
-7.0	0.0	-170.0	-7.0	-1.0	0.0	59.0	61.0	159.0	150.0	13.0	960.6	272.0	-129.0	-8.0	-1014.0	1636893409.471967	
-7.0	0.0	-170.0	-7.0	-1.0	0.0	59.0	61.0	159.0	150.0	13.0	960.52	272.0	-132.0	-5.0	-1000.0	1636893409.57559	
-7.0	0.0	-170.0	-7.0	-1.0	0.0	59.0	61.0	158.0	150.0	13.0	960.61	272.0	-132.0	-5.0	-989.0	1636893409.675073	
-7.0	0.0	-171.0	-7.0	-1.0	0.0	59.0	61.0	158.0	150.0	13.0	960.67	273.0	-134.0	7.0	-1008.0	1636893409.781147	
-7.0	0.0	-171.0	-8.0	-1.0	0.0	59.0	61.0	159.0	150.0	13.0	960.67	273.0	-130.0	2.0	-1000.0	1636893409.916968	
-7.0	0.0	-171.0	-8.0	-1.0	0.0	59.0	61.0	160.0	150.0	13.0	960.79	273.0	-128.0	1.0	-1019.0	1636893409.983728	
-7.0	0.0	-171.0	-8.0	-1.0	0.0	59.0	61.0	160.0	150.0	13.0	960.65	273.0	-144.0	-9.0	-985.0	1636893410.082711	
-7.0	0.0	-171.0	-8.0	-1.0	0.0	59.0	61.0	159.0	150.0	13.0	960.56	273.0	-147.0	-12.0	-984.0	1636893410.189591	
-7.0	0.0	-171.0	-8.0	0.0	0.0	59.0	61.0	161.0	150.0	13.0	960.56	273.0	-131.0	3.0	-984.0	1636893410.288827	
-7.0	0.0	-171.0	-8.0	-1.0	0.0	59.0	61.0	164.0	150.0	13.0	960.59	273.0	-128.0	-1.0	-992.0	1636893410.392511	
-7.0	0.0	-170.0	-8.0	-1.0	0.0	59.0	61.0	162.0	150.0	13.0	960.63	273.0	-129.0	-11.0	-978.0	1636893410.490674	
-7.0	0.0	-170.0	-8.0	-1.0	0.0	59.0	61.0	165.0	150.0	13.0	960.52	273.0	-141.0	-3.0	-985.0	1636893410.594748	
-7.0	0.0	-170.0	-8.0	-1.0	0.0	59.0	61.0	165.0	150.0	13.0	960.55	273.0	-139.0	-6.0	-992.0	1636893410.697038	
-7.0	0.0	-171.0	-8.0	-1.0	0.0	59.0	61.0	164.0	150.0	13.0	960.66	274.0	-144.0	-4.0	-961.0	1636893410.749025	
-7.0	0.0	-171.0	-8.0	0.0	0.0	59.0	61.0	165.0	150.0	13.0	960.59	274.0	-149.0	-1.0	-1003.0	1636893410.851026	
-7.0	0.0	-170.0	-8.0	0.0	0.0	59.0	61.0	164.0	150.0	13.0	960.72	274.0	-138.0	16.0	-1001.0	1636893410.951828	
-8.0	0.0	-171.0	-9.0	-1.0	0.0	59.0	61.0	165.0	150.0	13.0	960.64	274.0	-122.0	14.0	-992.0	1636893411.051509	
-7.0	0.0	-171.0	-9.0	-1.0	0.0	59.0	61.0	165.0	150.0	13.0	960.5	274.0	-147.0	9.0	-976.0	1636893411.157178	
-8.0	0.0	-171.0	-9.0	-1.0	0.0	59.0	61.0	165.0	150.0	13.0	960.55	274.0	-128.0	-8.0	-985.0	1636893411.259227	
-7.0	0.0	-171.0	-9.0	-1.0	0.0	59.0	61.0	164.0	150.0	13.0	960.62	274.0	-130.0	-7.0	-993.0	1636893411.360168	
-7.0	0.0	-171.0	-9.0	-1.0	0.0	59.0	61.0	165.0	150.0	13.0	960.54	274.0	-127.0	-2.0	-1000.0	1636893411.461751	
-7.0	0.0	-170.0	-9.0	-1.0	0.0	59.0	61.0	163.0	150.0	13.0	960.68	274.0	-145.0	-25.0	-1032.0	1636893411.571762	
-7.0	0.0	-170.0	-9.0	0.0	0.0	59.0	61.0	165.0	150.0	13.0	960.46	274.0	-125.0	-9.0	-963.0	1636893411.664283	
-7.0	0.0	-170.0	-9.0	0.0	0.0	59.0	61.0	164.0	150.0	13.0	960.42	275.0	-145.0	-5.0	-999.0	1636893411.768236	
-7.0	0.0	-170.0	-9.0	0.0	0.0	59.0	61.0	165.0	150.0	13.0	960.38	275.0	-134.0	1.0	-985.0	1636893411.869312	
-7.0	0.0	-171.0	-9.0	0.0	0.0	59.0	61.0	162.0	150.0	13.0	960.38	275.0	-140.0	-12.0	-978.0	1636893411.97256	
-7.0	0.0	-171.0	-9.0	-1.0	0.0	59.0	61.0	161.0	150.0	13.0	960.35	275.0	-144.0	-3.0	-982.0	1636893412.075378	
-7.0	0.0	-170.0	-9.0	-1.0	0.0	59.0	61.0	161.0	150.0	13.0	960.55	275.0	-152.0	10.0	-1006.0	1636893412.17332	
-7.0	0.0	-170.0	-9.0	-1.0	0.0	59.0	61.0	161.0	150.0	13.0	960.75	275.0	-141.0	-5.0	-1007.0	1636893412.278262	
-7.0	0.0	-170.0	-9.0	-1.0	0.0	59.0	61.0	161.0	150.0	13.0	960.56	275.0	-150.0	17.0	-1000.0	1636893412.379687	
-8.0	0.0	-171.0	-9.0	-1.0	0.0	59.0	61.0	161.0	150.0	13.0	960.39	275.0	-142.0	3.0	-960.0	1636893412.481991	
-7.0	0.0	-171.0	-9.0	-1.0	0.0	59.0	61.0	159.0	150.0	13.0	960.46	275.0	-150.0	-7.0	-1003.0	1636893412.581468	
-7.0	0.0	-170.0	-9.0	-1.0	0.0	59.0	61.0	159.0	150.0	13.0	960.49	275.0	-141.0	-4.0	-998.0	1636893412.688576	
-7.0	0.0	-170.0	-9.0	-1.0	0.0	59.0	61.0	160.0	150.0	13.0	960.48	276.0	-133.0	-1.0	-1004.0	1636893412.787776	
-7.0	0.0	-171.0	-9.0	-1.0	0.0	59.0	61.0	160.0	150.0	13.0	960.48	276.0	-130.0	-4.0	-996.0	1636893412.896627	
-7.0	0.0	-170.0	-9.0	-1.0	0.0	59.0	61.0	158.0	150.0	13.0	960.35	276.0	-154.0	-2.0	-979.0	1636893412.992753	
-7.0	0.0	-170.0	-9.0	-1.0	0.0	59.0	61.0	158.0	150.0	13.0	960.45	276.0	-154.0	-6.0	-987.0	1636893413.093019	
-7.0	0.0	-171.0	-9.0	-1.0	0.0	59.0	61.0	158.0	150.0	13.0	960.45	276.0	-144.0	8.0	-996.0	1636893413.196074	
-8.0	0.0	-171.0	-9.0	-1.0	0.0	59.0	61.0	158.0	150.0	13.0	960.39	276.0	-130.0	3.0	-1012.0	1636893413.298825	
-7.0	0.0	-170.0	-9.0	-1.0	0.0	59.0	61.0	159.0	150.0	13.0	960.43	276.0	-135.0	-4.0	-1012.0	1636893413.399738	
-7.0	0.0	-170.0	-9.0	-1.0	0.0	59.0	61.0	159.0	150.0	13.0	960.32	276.0	-135.0	-1.0	-997.0	1636893413.501283	
-7.0	0.0	-170.0	-9.0	-1.0	0.0	59.0	61.0	158.0	150.0	13.0	960.42	276.0	-147.0	-4.0	-1000.0	1636893413.605335	
-7.0	0.0	-170.0	-9.0	-1.0	0.0	59.0	61.0	159.0	150.0	13.0	960.46	276.0	-126.0	-8.0	-1013.0	1636893413.709496	
-7.0	0.0	-170.0	-9.0	-1.0	0.0	59.0	61.0	159.0	150.0	13.0	960.38	277.0	-136.0	20.0	-984.0	1636893413.811625	
-7.0	0.0	-170.0	-9.0	-1.0	0.0	59.0	61.0	160.0	150.0	13.0	960.42	277.0	-138.0	2.0	-997.0	1636893413.909213	
-7.0	0.0	-170.0	-9.0	-1.0	0.0	59.0	61.0	162.0	150.0	13.0	960.37	277.0	-163.0	2.0	-997.0	1636893414.011972	
-7.0	0.0	-171.0	-8.0	-1.0	0.0	59.0	61.0	160.0	150.0	13.0	960.47	277.0	-141.0	0.0	-993.0	1636893414.111077	
-7.0	0.0	-170.0	-8.0	-1.0	0.0	59.0	61.0	161.0	150.0	13.0	960.53	277.0	-161.0	6.0	-988.0	1636893414.221447	
-7.0	0.0	-170.0	-8.0	-1.0	0.0	59.0	61.0	161.0	150.0	13.0	960.36	277.0	-146.0	3.0	-998.0	1636893414.320819	
-8.0	0.0	-170.0	-8.0	-1.0	0.0	59.0	61.0	162.0	150.0	13.0	960.42	277.0	-158.0	1.0	-986.0	1636893414.422419	
-8.0	0.0	-170.0	-8.0	-1.0	0.0	59.0	61.0	161.0	150.0	13.0	960.43	277.0	-131.0	-17.0	-1001.0	1636893414.522853	
-7.0	0.0	-170.0	-8.0	-1.0	0.0	59.0	61.0	160.0	150.0	13.0	960.42	277.0	-132.0	2.0	-979.0	1636893414.628479	
-7.0	0.0	-170.0	-8.0	-1.0	0.0	59.0	61.0	160.0	150.0	13.0	960.5	278.0	-138.0	-8.0	-1006.0	1636893414.730039	
-7.0	0.0	-171.0	-8.0	-1.0	0.0	59.0	61.0	160.0	150.0	13.0	960.4	278.0	-147.0	0.0	-999.0	1636893414.83395	
-7.0	0.0	-170.0	-8.0	-1.0	0.0	59.0	61.0	160.0	150.0	13.0	960.49	278.0	-141.0	-9.0	-1014.0	1636893414.935668	
-7.0	0.0	-171.0	-8.0	-1.0	0.0	59.0	61.0	160.0	150.0	13.0	960.27	278.0	-149.0	0.0	-975.0	1636893415.040612	
-7.0	0.0	-171.0	-8.0	-1.0	0.0	58.0	61.0	159.0	150.0	13.0	960.46	278.0	-135.0	-14.0	-988.0	1636893415.133161	
-7.0	0.0	-171.0	-8.0	-1.0	0.0	58.0	61.0	161.0	150.0	13.0	960.42	278.0	-146.0	1.0	-994.0	1636893415.239178	
-8.0	0.0	-171.0	-8.0	-1.0	0.0	58.0	61.0	161.0	150.0	13.0	960.52	278.0	-142.0	12.0	-972.0	1636893415.341473	
-8.0	0.0	-171.0	-8.0	-1.0	0.0	58.0	61.0	161.0	150.0	13.0	960.48	278.0	-121.0	7.0	-1000.0	1636893415.392408	
-8.0	0.0	-171.0	-8.0	-1.0	0.0	58.0	61.0	159.0	150.0	13.0	960.63	278.0	-141.0	-4.0	-1018.0	1636893415.490714	
-7.0	0.0	-171.0	-8.0	-1.0	0.0	58.0	61.0	158.0	150.0	13.0	960.46	278.0	-129.0	-14.0	-1019.0	1636893415.594138	
-7.0	0.0	-171.0	-9.0	0.0	0.0	58.0	61.0	160.0	150.0	13.0	960.59	279.0	-117.0	-33.0	-996.0	1636893415.693433	
-7.0	0.0	-170.0	-9.0	0.0	0.0	58.0	61.0	160.0	150.0	13.0	960.42	279.0	-120.0	-14.0	-974.0	1636893415.795405	
-7.0	0.0	-170.0	-9.0	0.0	0.0	58.0	61.0	161.0	150.0	13.0	960.28	279.0	-128.0	-1.0	-1013.0	1636893415.896352	
-7.0	0.0	-170.0	-9.0	0.0	0.0	58.0	61.0	162.0	150.0	13.0	960.42	279.0	-147.0	-2.0	-987.0	1636893415.999209	
-7.0	0.0	-170.0	-9.0	0.0	0.0	59.0	62.0	161.0	150.0	13.0	960.49	279.0	-143.0	-3.0	-968.0	1636893416.104583	
-7.0	0.0	-171.0	-9.0	0.0	0.0	59.0	62.0	162.0	150.0	13.0	960.55	279.0	-124.0	6.0	-995.0	1636893416.20256	
-7.0	0.0	-171.0	-8.0	0.0	0.0	59.0	62.0	162.0	150.0	13.0	960.55	279.0	-141.0	-19.0	-989.0	1636893416.305515	
-7.0	0.0	-171.0	-8.0	0.0	0.0	59.0	62.0	161.0	150.0	13.0	960.53	279.0	-134.0	7.0	-1021.0	1636893416.408321	
-7.0	0.0	-171.0	-8.0	0.0	0.0	59.0	62.0	164.0	150.0	13.0	960.47	279.0	-127.0	14.0	-996.0	1636893416.508255	
-7.0	0.0	-171.0	-8.0	-1.0	0.0	59.0	62.0	163.0	150.0	13.0	960.46	279.0	-129.0	17.0	-982.0	1636893416.613627	
-7.0	0.0	-171.0	-8.0	-1.0	0.0	59.0	62.0	164.0	150.0	13.0	960.47	280.0	-137.0	21.0	-981.0	1636893416.714661	
-7.0	0.0	-171.0	-8.0	-1.0	0.0	59.0	62.0	162.0	150.0	13.0	960.68	280.0	-135.0	15.0	-974.0	1636893416.816765	
-7.0	0.0	-171.0	-8.0	-1.0	0.0	59.0	62.0	163.0	150.0	13.0	960.58	280.0	-139.0	21.0	-1013.0	1636893416.916029	
-7.0	0.0	-171.0	-8.0	-2.0	0.0	59.0	62.0	164.0	150.0	13.0	960.5	280.0	-136.0	-1.0	-993.0	1636893417.021682	
-7.0	0.0	-171.0	-8.0	-2.0	0.0	59.0	62.0	163.0	150.0	13.0	960.41	280.0	-142.0	-7.0	-995.0	1636893417.126647	
-8.0	0.0	-170.0	-8.0	-1.0	0.0	59.0	62.0	163.0	150.0	13.0	960.6	280.0	-138.0	7.0	-985.0	1636893417.226521	
-8.0	0.0	-171.0	-8.0	-2.0	0.0	59.0	62.0	165.0	150.0	13.0	960.62	280.0	-127.0	19.0	-980.0	1636893417.327921	
-8.0	0.0	-171.0	-8.0	-2.0	0.0	59.0	62.0	161.0	150.0	13.0	960.51	280.0	-115.0	-3.0	-991.0	1636893417.434983	
-8.0	0.0	-171.0	-8.0	-2.0	0.0	59.0	62.0	161.0	150.0	13.0	960.24	280.0	-119.0	12.0	-1012.0	1636893417.530514	
-7.0	0.0	-170.0	-9.0	-2.0	0.0	59.0	62.0	164.0	150.0	13.0	960.58	280.0	-126.0	14.0	-1011.0	1636893417.644045	
-7.0	0.0	-170.0	-9.0	-2.0	0.0	59.0	62.0	163.0	150.0	13.0	960.58	281.0	-121.0	15.0	-968.0	1636893417.738494	
-7.0	0.0	-170.0	-9.0	-2.0	0.0	59.0	62.0	162.0	150.0	13.0	960.53	281.0	-138.0	27.0	-1002.0	1636893417.837735	
-7.0	0.0	-170.0	-9.0	-2.0	0.0	59.0	62.0	161.0	150.0	13.0	960.32	281.0	-146.0	-3.0	-1010.0	1636893417.943543	
-7.0	0.0	-171.0	-8.0	-2.0	0.0	59.0	62.0	160.0	150.0	13.0	960.57	281.0	-147.0	20.0	-993.0	1636893418.043705	
-7.0	0.0	-171.0	-8.0	-2.0	0.0	59.0	62.0	160.0	150.0	13.0	960.35	281.0	-137.0	8.0	-992.0	1636893418.142795	
-7.0	0.0	-171.0	-8.0	-2.0	0.0	59.0	62.0	161.0	150.0	13.0	960.46	281.0	-137.0	10.0	-980.0	1636893418.242663	
-7.0	0.0	-170.0	-9.0	-2.0	0.0	59.0	62.0	162.0	150.0	13.0	960.4	281.0	-133.0	1.0	-1012.0	1636893418.346727	
-7.0	0.0	-170.0	-9.0	-2.0	0.0	59.0	62.0	161.0	150.0	13.0	960.49	281.0	-120.0	10.0	-974.0	1636893418.449546	
-7.0	0.0	-170.0	-8.0	-2.0	0.0	59.0	62.0	163.0	150.0	13.0	960.48	281.0	-142.0	14.0	-974.0	1636893418.548465	
-7.0	0.0	-170.0	-8.0	-3.0	0.0	59.0	62.0	162.0	150.0	13.0	960.55	281.0	-145.0	18.0	-993.0	1636893418.653599	
-7.0	0.0	-170.0	-9.0	-3.0	0.0	59.0	62.0	161.0	150.0	13.0	960.38	282.0	-134.0	6.0	-976.0	1636893418.751878	
-7.0	0.0	-170.0	-8.0	-3.0	0.0	59.0	62.0	164.0	150.0	13.0	960.36	282.0	-141.0	0.0	-986.0	1636893418.860934	
-7.0	0.0	-170.0	-8.0	-3.0	0.0	59.0	62.0	162.0	150.0	13.0	960.5	282.0	-144.0	4.0	-983.0	1636893418.962927	
-7.0	0.0	-170.0	-8.0	-2.0	0.0	59.0	62.0	162.0	150.0	13.0	960.48	282.0	-140.0	-3.0	-976.0	1636893419.062289	
-7.0	0.0	-170.0	-8.0	-2.0	0.0	59.0	61.0	163.0	150.0	13.0	960.55	282.0	-146.0	14.0	-987.0	1636893419.161424	
-7.0	0.0	-171.0	-8.0	-2.0	0.0	59.0	61.0	162.0	150.0	13.0	960.37	282.0	-143.0	11.0	-1000.0	1636893419.264476	
-7.0	0.0	-170.0	-8.0	-2.0	0.0	59.0	61.0	161.0	150.0	13.0	960.52	282.0	-146.0	-1.0	-992.0	1636893419.365683	
-7.0	0.0	-170.0	-8.0	-2.0	0.0	59.0	61.0	162.0	150.0	13.0	960.41	282.0	-140.0	1.0	-1001.0	1636893419.468497	
-7.0	0.0	-170.0	-8.0	-2.0	0.0	59.0	61.0	162.0	150.0	13.0	960.35	282.0	-144.0	-2.0	-973.0	1636893419.569326	
-7.0	0.0	-170.0	-8.0	-2.0	0.0	59.0	61.0	161.0	150.0	13.0	960.41	282.0	-140.0	2.0	-974.0	1636893419.675002	
-7.0	0.0	-170.0	-8.0	-2.0	0.0	59.0	61.0	162.0	150.0	13.0	960.4	283.0	-149.0	-5.0	-1010.0	1636893419.774265	
-7.0	0.0	-170.0	-8.0	-2.0	0.0	59.0	61.0	162.0	150.0	13.0	960.4	283.0	-139.0	-2.0	-988.0	1636893419.82881	
-7.0	0.0	-170.0	-8.0	-2.0	0.0	59.0	61.0	162.0	150.0	13.0	960.55	283.0	-143.0	8.0	-968.0	1636893419.929752	
-7.0	0.0	-170.0	-8.0	-2.0	0.0	59.0	61.0	162.0	150.0	13.0	960.52	283.0	-160.0	3.0	-980.0	1636893420.031169	
-7.0	0.0	-170.0	-8.0	-2.0	0.0	59.0	62.0	162.0	150.0	13.0	960.42	283.0	-137.0	-8.0	-984.0	1636893420.184633	
-7.0	0.0	-170.0	-8.0	-2.0	0.0	59.0	62.0	162.0	150.0	13.0	960.42	283.0	-140.0	0.0	-998.0	1636893420.235459	
-7.0	0.0	-170.0	-8.0	-1.0	0.0	59.0	62.0	162.0	150.0	13.0	960.36	283.0	-142.0	9.0	-1010.0	1636893420.334399	
-7.0	0.0	-170.0	-8.0	-1.0	0.0	59.0	62.0	162.0	150.0	13.0	960.32	283.0	-152.0	-1.0	-992.0	1636893420.439604	
-7.0	-1.0	-170.0	-8.0	-1.0	0.0	59.0	62.0	161.0	150.0	13.0	960.39	283.0	-150.0	-5.0	-1008.0	1636893420.539638	
-7.0	0.0	-170.0	-8.0	-1.0	0.0	59.0	62.0	162.0	150.0	13.0	960.53	283.0	-136.0	4.0	-958.0	1636893420.643235	
-5.0	0.0	-170.0	-8.0	-1.0	0.0	59.0	62.0	161.0	150.0	13.0	960.62	284.0	-126.0	14.0	-983.0	1636893420.744446	
-3.0	0.0	-171.0	-7.0	-1.0	0.0	59.0	62.0	162.0	150.0	13.0	960.4	284.0	-135.0	4.0	-994.0	1636893420.846984	
-3.0	0.0	-171.0	-6.0	-1.0	0.0	59.0	62.0	159.0	150.0	13.0	960.58	284.0	-137.0	13.0	-996.0	1636893420.946262	
-3.0	0.0	-171.0	-6.0	-1.0	0.0	59.0	62.0	162.0	150.0	13.0	960.6	284.0	-132.0	12.0	-1001.0	1636893421.060953	
-3.0	0.0	-171.0	-5.0	0.0	0.0	60.0	62.0	160.0	150.0	13.0	960.64	284.0	-114.0	20.0	-976.0	1636893421.153694	
-3.0	0.0	-171.0	-4.0	0.0	0.0	60.0	62.0	161.0	150.0	13.0	960.71	284.0	-119.0	5.0	-1007.0	1636893421.254677	
-3.0	0.0	-170.0	-4.0	0.0	0.0	60.0	62.0	162.0	150.0	13.0	960.6	284.0	-120.0	-2.0	-1006.0	1636893421.355786	
-3.0	0.0	-170.0	-3.0	0.0	0.0	60.0	62.0	160.0	150.0	13.0	960.52	284.0	-118.0	0.0	-986.0	1636893421.456322	
-4.0	0.0	-170.0	-3.0	0.0	0.0	60.0	62.0	161.0	150.0	13.0	960.5	284.0	-82.0	-23.0	-1003.0	1636893421.558056	
-4.0	0.0	-170.0	-2.0	0.0	0.0	60.0	62.0	161.0	150.0	13.0	960.72	284.0	-96.0	0.0	-1003.0	1636893421.664499	
-3.0	0.0	-171.0	-2.0	0.0	0.0	60.0	62.0	162.0	150.0	13.0	960.78	285.0	-87.0	1.0	-993.0	1636893421.766169	
-3.0	0.0	-171.0	-2.0	0.0	0.0	60.0	62.0	162.0	150.0	13.0	960.84	285.0	-83.0	-5.0	-987.0	1636893421.868493	
-3.0	0.0	-171.0	-2.0	0.0	0.0	60.0	62.0	163.0	150.0	13.0	960.72	285.0	-88.0	-3.0	-998.0	1636893421.969178	
-3.0	0.0	-171.0	-1.0	0.0	0.0	60.0	62.0	162.0	150.0	13.0	960.76	285.0	-78.0	4.0	-999.0	1636893422.068671	
-3.0	0.0	-171.0	-1.0	0.0	0.0	59.0	62.0	162.0	150.0	13.0	960.77	285.0	-64.0	-9.0	-977.0	1636893422.174349	
-1.0	0.0	-171.0	-1.0	0.0	0.0	59.0	62.0	161.0	150.0	13.0	960.82	285.0	-86.0	3.0	-1028.0	1636893422.272718	
0.0	0.0	-171.0	0.0	0.0	0.0	59.0	62.0	162.0	150.0	13.0	960.78	285.0	-74.0	-13.0	-1004.0	1636893422.378248	
-2.0	0.0	-171.0	0.0	0.0	0.0	59.0	62.0	161.0	150.0	13.0	960.69	285.0	-62.0	-21.0	-998.0	1636893422.479281	
-3.0	0.0	-171.0	0.0	0.0	0.0	59.0	62.0	163.0	150.0	13.0	960.78	285.0	-60.0	-13.0	-993.0	1636893422.580428	
-3.0	0.0	-171.0	0.0	0.0	0.0	59.0	62.0	163.0	150.0	13.0	960.83	285.0	-73.0	-7.0	-983.0	1636893422.684527	
-4.0	0.0	-171.0	0.0	0.0	0.0	59.0	62.0	165.0	150.0	13.0	960.72	286.0	-73.0	-7.0	-990.0	1636893422.789996	
-4.0	0.0	-171.0	0.0	0.0	0.0	59.0	62.0	164.0	150.0	13.0	960.84	286.0	-76.0	-8.0	-992.0	1636893422.887577	
-4.0	0.0	-171.0	0.0	0.0	0.0	59.0	62.0	166.0	150.0	13.0	960.81	286.0	-87.0	0.0	-1002.0	1636893422.993167	
-4.0	0.0	-171.0	0.0	0.0	0.0	59.0	62.0	164.0	150.0	13.0	960.89	286.0	-88.0	0.0	-996.0	1636893423.092206	
-4.0	0.0	-171.0	0.0	0.0	0.0	58.0	62.0	165.0	150.0	13.0	960.82	286.0	-71.0	-9.0	-976.0	1636893423.193872	
-4.0	0.0	-171.0	0.0	0.0	0.0	58.0	62.0	165.0	150.0	13.0	960.82	286.0	-73.0	-4.0	-998.0	1636893423.297339	
-4.0	0.0	-171.0	0.0	0.0	0.0	58.0	62.0	165.0	150.0	13.0	960.83	286.0	-70.0	-9.0	-989.0	1636893423.397894	
-4.0	0.0	-171.0	0.0	0.0	0.0	58.0	62.0	165.0	150.0	13.0	960.88	286.0	-83.0	6.0	-988.0	1636893423.49735	
-4.0	0.0	-171.0	0.0	0.0	0.0	58.0	62.0	166.0	150.0	13.0	960.94	286.0	-76.0	-3.0	-983.0	1636893423.604842	
-4.0	0.0	-170.0	0.0	0.0	0.0	58.0	62.0	164.0	150.0	13.0	960.79	286.0	-64.0	-9.0	-985.0	1636893423.651919	
-4.0	0.0	-170.0	0.0	0.0	0.0	58.0	62.0	164.0	150.0	13.0	960.9	287.0	-82.0	-10.0	-984.0	1636893423.755058	
-4.0	0.0	-170.0	0.0	0.0	0.0	58.0	62.0	166.0	150.0	13.0	960.86	287.0	-72.0	-14.0	-997.0	1636893423.857264	
-4.0	0.0	-170.0	0.0	0.0	0.0	58.0	62.0	164.0	150.0	13.0	960.85	287.0	-73.0	-11.0	-964.0	1636893423.956909	
1.0	0.0	-170.0	0.0	0.0	0.0	58.0	62.0	166.0	150.0	13.0	960.79	287.0	-78.0	0.0	-997.0	1636893424.060142	
7.0	-2.0	-171.0	1.0	0.0	0.0	59.0	62.0	163.0	150.0	13.0	960.89	287.0	-64.0	-7.0	-1003.0	1636893424.213711	
6.0	-2.0	-171.0	3.0	1.0	0.0	59.0	62.0	163.0	150.0	13.0	960.99	287.0	-49.0	-2.0	-1002.0	1636893424.262777	
6.0	-2.0	-171.0	5.0	2.0	0.0	59.0	62.0	162.0	150.0	13.0	960.92	287.0	-56.0	13.0	-1014.0	1636893424.36664	
6.0	-2.0	-171.0	6.0	2.0	0.0	59.0	62.0	162.0	150.0	13.0	960.99	287.0	-23.0	0.0	-1024.0	1636893424.467817	
6.0	-3.0	-171.0	8.0	3.0	0.0	59.0	62.0	163.0	150.0	13.0	961.05	287.0	-23.0	14.0	-1019.0	1636893424.571802	
6.0	-3.0	-171.0	9.0	4.0	0.0	59.0	62.0	161.0	150.0	13.0	961.05	287.0	-27.0	4.0	-1071.0	1636893424.670452	
0.0	-2.0	-171.0	10.0	5.0	0.0	59.0	62.0	160.0	150.0	13.0	961.08	288.0	8.0	22.0	-1009.0	1636893424.773151	
-4.0	0.0	-171.0	10.0	5.0	0.0	59.0	62.0	161.0	150.0	13.0	961.09	288.0	7.0	9.0	-977.0	1636893424.874819	
-5.0	0.0	-171.0	9.0	4.0	0.0	59.0	62.0	161.0	150.0	13.0	961.1	288.0	-9.0	15.0	-998.0	1636893424.977842	
-6.0	0.0	-171.0	8.0	4.0	0.0	59.0	62.0	162.0	150.0	13.0	961.09	288.0	-10.0	3.0	-995.0	1636893425.077798	
-6.0	0.0	-171.0	8.0	3.0	0.0	59.0	62.0	161.0	150.0	13.0	961.1	288.0	-35.0	19.0	-1030.0	1636893425.181746	
-6.0	0.0	-171.0	7.0	3.0	0.0	59.0	62.0	161.0	150.0	13.0	961.09	288.0	-40.0	20.0	-1018.0	1636893425.284866	
-6.0	0.0	-171.0	6.0	3.0	0.0	59.0	62.0	159.0	150.0	13.0	961.08	288.0	-28.0	4.0	-1000.0	1636893425.385578	
-6.0	0.0	-171.0	5.0	2.0	0.0	59.0	62.0	161.0	150.0	13.0	961.12	288.0	-33.0	-1.0	-998.0	1636893425.488901	
-6.0	0.0	-171.0	5.0	2.0	0.0	59.0	62.0	159.0	150.0	13.0	961.09	288.0	-46.0	0.0	-1006.0	1636893425.591419	
-6.0	0.0	-171.0	4.0	2.0	0.0	59.0	62.0	159.0	150.0	13.0	961.09	288.0	-55.0	-1.0	-1006.0	1636893425.693051	
-6.0	0.0	-170.0	4.0	2.0	0.0	59.0	62.0	159.0	150.0	13.0	961.08	289.0	-47.0	2.0	-1005.0	1636893425.793031	
-5.0	0.0	-171.0	3.0	1.0	0.0	59.0	62.0	159.0	150.0	13.0	961.02	289.0	-48.0	0.0	-997.0	1636893425.89426	
-5.0	0.0	-171.0	3.0	1.0	0.0	59.0	62.0	159.0	150.0	13.0	960.97	289.0	-57.0	5.0	-997.0	1636893425.997273	
-3.0	0.0	-171.0	2.0	1.0	0.0	59.0	62.0	157.0	150.0	13.0	961.06	289.0	-62.0	4.0	-990.0	1636893426.102057	
0.0	0.0	-170.0	3.0	1.0	0.0	59.0	62.0	157.0	150.0	13.0	960.97	289.0	-50.0	-1.0	-1002.0	1636893426.201956	
2.0	0.0	-170.0	4.0	1.0	0.0	59.0	62.0	157.0	150.0	13.0	961.08	289.0	-55.0	6.0	-1008.0	1636893426.307065	
3.0	0.0	-170.0	5.0	1.0	0.0	59.0	62.0	157.0	150.0	13.0	961.08	289.0	-35.0	0.0	-1010.0	1636893426.407381	
3.0	0.0	-170.0	6.0	1.0	0.0	59.0	62.0	157.0	150.0	13.0	961.0	289.0	-38.0	7.0	-1016.0	1636893426.507338	
2.0	0.0	-170.0	7.0	1.0	0.0	59.0	62.0	156.0	150.0	13.0	961.09	289.0	-26.0	-2.0	-1009.0	1636893426.611568	
1.0	0.0	-170.0	7.0	1.0	0.0	59.0	62.0	157.0	150.0	13.0	961.05	289.0	-23.0	-7.0	-1002.0	1636893426.710205	
0.0	0.0	-170.0	8.0	1.0	0.0	59.0	62.0	157.0	150.0	13.0	961.09	290.0	-24.0	11.0	-997.0	1636893426.811915	
0.0	0.0	-170.0	8.0	1.0	0.0	59.0	62.0	157.0	150.0	13.0	961.07	290.0	-24.0	11.0	-1017.0	1636893426.915116	
0.0	0.0	-170.0	8.0	1.0	0.0	59.0	62.0	156.0	150.0	13.0	961.08	290.0	-13.0	4.0	-982.0	1636893427.020654	
0.0	0.0	-171.0	9.0	1.0	0.0	59.0	62.0	156.0	150.0	13.0	961.12	290.0	-24.0	10.0	-987.0	1636893427.120585	
0.0	0.0	-170.0	9.0	1.0	0.0	59.0	61.0	157.0	150.0	13.0	961.15	290.0	-21.0	14.0	-1003.0	1636893427.222295	
0.0	0.0	-170.0	9.0	1.0	0.0	59.0	61.0	158.0	150.0	13.0	961.08	290.0	-19.0	8.0	-1017.0	1636893427.326159	
0.0	0.0	-170.0	9.0	1.0	0.0	59.0	61.0	157.0	150.0	13.0	961.19	290.0	-3.0	9.0	-986.0	1636893427.426138	
0.0	0.0	-170.0	9.0	1.0	0.0	59.0	61.0	156.0	150.0	13.0	961.12	290.0	-6.0	9.0	-997.0	1636893427.525829	
0.0	0.0	-170.0	9.0	1.0	0.0	59.0	61.0	157.0	150.0	13.0	961.09	290.0	-2.0	4.0	-978.0	1636893427.628569	
0.0	0.0	-170.0	9.0	1.0	0.0	59.0	61.0	158.0	150.0	13.0	961.16	291.0	-13.0	13.0	-996.0	1636893427.732621	
0.0	0.0	-170.0	9.0	1.0	0.0	59.0	61.0	156.0	150.0	13.0	961.18	291.0	-21.0	15.0	-976.0	1636893427.833927	
0.0	0.0	-170.0	9.0	1.0	0.0	59.0	61.0	156.0	150.0	12.0	961.25	291.0	-8.0	5.0	-1008.0	1636893427.934292	
0.0	0.0	-170.0	9.0	1.0	0.0	59.0	61.0	156.0	150.0	12.0	961.18	291.0	-21.0	10.0	-1008.0	1636893427.988028	
0.0	0.0	-170.0	9.0	1.0	0.0	59.0	61.0	155.0	150.0	12.0	961.15	291.0	-6.0	12.0	-1023.0	1636893428.089717	
0.0	0.0	-170.0	9.0	1.0	0.0	58.0	61.0	156.0	140.0	12.0	961.16	291.0	-7.0	10.0	-1016.0	1636893428.239772	
0.0	0.0	-170.0	9.0	1.0	0.0	58.0	61.0	155.0	140.0	12.0	961.17	291.0	-9.0	8.0	-1016.0	1636893428.347006	
0.0	0.0	-170.0	9.0	1.0	0.0	58.0	61.0	155.0	140.0	12.0	961.19	291.0	0.0	-4.0	-1010.0	1636893428.394943	
0.0	0.0	-170.0	9.0	1.0	0.0	58.0	61.0	156.0	150.0	12.0	961.18	291.0	-2.0	4.0	-1000.0	1636893428.497186	
0.0	0.0	-170.0	9.0	1.0	0.0	58.0	61.0	158.0	150.0	12.0	961.13	291.0	-3.0	0.0	-1016.0	1636893428.599565	
0.0	0.0	-171.0	9.0	1.0	0.0	58.0	61.0	157.0	150.0	12.0	961.19	292.0	-10.0	9.0	-999.0	1636893428.701702	
0.0	0.0	-171.0	9.0	1.0	0.0	58.0	61.0	157.0	150.0	12.0	961.09	292.0	-13.0	16.0	-1002.0	1636893428.803517	
0.0	0.0	-171.0	9.0	1.0	0.0	58.0	61.0	159.0	150.0	12.0	961.19	292.0	-2.0	-1.0	-984.0	1636893428.902897	
0.0	0.0	-170.0	9.0	1.0	0.0	58.0	61.0	158.0	150.0	12.0	961.22	292.0	-9.0	7.0	-986.0	1636893429.005986	
0.0	0.0	-170.0	9.0	1.0	0.0	58.0	61.0	159.0	150.0	12.0	961.18	292.0	5.0	1.0	-1008.0	1636893429.106579	
0.0	0.0	-170.0	9.0	1.0	0.0	59.0	61.0	159.0	150.0	12.0	961.17	292.0	13.0	-7.0	-990.0	1636893429.208312	
0.0	0.0	-170.0	9.0	1.0	0.0	59.0	61.0	160.0	150.0	12.0	961.15	292.0	7.0	5.0	-1004.0	1636893429.312181	
0.0	0.0	-170.0	9.0	1.0	0.0	59.0	61.0	161.0	150.0	12.0	961.17	292.0	13.0	-12.0	-989.0	1636893429.413972	
0.0	0.0	-170.0	9.0	1.0	0.0	59.0	61.0	161.0	150.0	12.0	961.23	292.0	19.0	-18.0	-986.0	1636893429.517296	
0.0	0.0	-170.0	9.0	1.0	0.0	59.0	61.0	161.0	150.0	12.0	961.2	292.0	17.0	-9.0	-987.0	1636893429.619895	
0.0	0.0	-170.0	9.0	1.0	0.0	59.0	61.0	163.0	150.0	12.0	961.23	293.0	18.0	-6.0	-997.0	1636893429.721442	
0.0	0.0	-170.0	9.0	1.0	0.0	59.0	61.0	162.0	150.0	12.0	961.25	293.0	12.0	-5.0	-993.0	1636893429.82098	
1.0	0.0	-170.0	9.0	1.0	0.0	59.0	61.0	162.0	150.0	12.0	961.22	293.0	14.0	-7.0	-994.0	1636893429.92627	
1.0	0.0	-171.0	9.0	1.0	0.0	59.0	61.0	162.0	150.0	12.0	961.27	293.0	17.0	-14.0	-995.0	1636893430.027811	
0.0	0.0	-171.0	9.0	1.0	0.0	59.0	61.0	162.0	150.0	12.0	961.31	293.0	5.0	-4.0	-990.0	1636893430.127369	
0.0	0.0	-171.0	9.0	1.0	0.0	59.0	62.0	163.0	150.0	12.0	961.28	293.0	5.0	-3.0	-988.0	1636893430.230291	
0.0	0.0	-171.0	9.0	1.0	0.0	59.0	62.0	161.0	150.0	12.0	961.26	293.0	19.0	-18.0	-973.0	1636893430.333675	
0.0	0.0	-171.0	9.0	1.0	0.0	59.0	62.0	160.0	150.0	12.0	961.29	293.0	20.0	-6.0	-988.0	1636893430.433545	
0.0	0.0	-171.0	9.0	1.0	0.0	59.0	62.0	160.0	150.0	12.0	961.22	293.0	11.0	-12.0	-1005.0	1636893430.535359	
0.0	0.0	-171.0	9.0	1.0	0.0	59.0	62.0	160.0	150.0	12.0	961.24	293.0	11.0	6.0	-1007.0	1636893430.636979	
0.0	0.0	-171.0	9.0	1.0	0.0	59.0	62.0	160.0	150.0	12.0	961.21	294.0	13.0	-5.0	-1016.0	1636893430.740114	
0.0	0.0	-171.0	9.0	1.0	0.0	59.0	62.0	160.0	150.0	12.0	961.23	294.0	29.0	-10.0	-1000.0	1636893430.844079	
0.0	0.0	-171.0	9.0	1.0	0.0	59.0	62.0	159.0	150.0	12.0	961.3	294.0	20.0	-5.0	-1004.0	1636893430.946005	
0.0	0.0	-171.0	9.0	1.0	0.0	59.0	62.0	159.0	150.0	12.0	961.32	294.0	22.0	-6.0	-1017.0	1636893431.045603	
0.0	0.0	-171.0	9.0	1.0	0.0	59.0	62.0	159.0	150.0	12.0	961.21	294.0	11.0	-7.0	-1008.0	1636893431.149032	
0.0	0.0	-171.0	9.0	1.0	0.0	59.0	61.0	162.0	150.0	12.0	961.26	294.0	31.0	-23.0	-990.0	1636893431.251517	
0.0	0.0	-171.0	9.0	1.0	0.0	59.0	61.0	161.0	150.0	12.0	961.31	294.0	19.0	-10.0	-1002.0	1636893431.354177	
0.0	0.0	-171.0	9.0	1.0	0.0	59.0	61.0	163.0	150.0	12.0	961.28	294.0	13.0	1.0	-977.0	1636893431.455496	
0.0	0.0	-171.0	9.0	1.0	0.0	59.0	61.0	163.0	150.0	12.0	961.25	294.0	11.0	9.0	-1002.0	1636893431.556915	
0.0	0.0	-171.0	9.0	1.0	0.0	59.0	61.0	162.0	150.0	12.0	961.3	294.0	3.0	17.0	-1008.0	1636893431.658839	
0.0	0.0	-171.0	9.0	1.0	0.0	59.0	61.0	163.0	150.0	12.0	961.26	295.0	8.0	7.0	-997.0	1636893431.758998	
0.0	0.0	-171.0	9.0	1.0	0.0	59.0	61.0	162.0	150.0	12.0	961.32	295.0	-4.0	12.0	-985.0	1636893431.863565	
0.0	0.0	-171.0	9.0	1.0	0.0	59.0	61.0	162.0	150.0	11.0	961.26	295.0	1.0	9.0	-994.0	1636893431.913512	
0.0	0.0	-171.0	9.0	1.0	0.0	59.0	61.0	163.0	150.0	11.0	961.29	295.0	7.0	10.0	-990.0	1636893432.016377	
0.0	0.0	-171.0	9.0	1.0	0.0	59.0	61.0	161.0	150.0	11.0	961.27	295.0	3.0	11.0	-1002.0	1636893432.117152	
0.0	0.0	-171.0	9.0	1.0	0.0	58.0	62.0	161.0	150.0	11.0	961.24	295.0	18.0	5.0	-998.0	1636893432.268883	
0.0	0.0	-171.0	9.0	1.0	0.0	58.0	62.0	161.0	150.0	11.0	961.23	295.0	23.0	-8.0	-990.0	1636893432.373301	
0.0	0.0	-171.0	9.0	1.0	0.0	58.0	62.0	160.0	150.0	11.0	961.25	295.0	0.0	13.0	-1011.0	1636893432.421248	
0.0	0.0	-171.0	9.0	1.0	0.0	58.0	62.0	159.0	150.0	11.0	961.26	295.0	-2.0	8.0	-996.0	1636893432.523811	
0.0	0.0	-171.0	9.0	1.0	0.0	58.0	62.0	158.0	150.0	11.0	961.19	295.0	8.0	0.0	-999.0	1636893432.629846	
0.0	0.0	-171.0	9.0	1.0	0.0	58.0	62.0	159.0	150.0	11.0	961.21	296.0	14.0	0.0	-1002.0	1636893432.730945	
0.0	0.0	-171.0	9.0	1.0	0.0	58.0	62.0	157.0	150.0	11.0	961.19	296.0	11.0	0.0	-1001.0	1636893432.833161	
0.0	0.0	-171.0	9.0	1.0	0.0	58.0	62.0	157.0	150.0	11.0	961.24	296.0	-1.0	2.0	-1003.0	1636893432.93303	
0.0	0.0	-171.0	9.0	1.0	0.0	58.0	62.0	156.0	150.0	11.0	961.27	296.0	3.0	3.0	-1017.0	1636893433.035225	
0.0	0.0	-171.0	9.0	1.0	0.0	58.0	62.0	156.0	150.0	11.0	961.23	296.0	0.0	2.0	-1019.0	1636893433.139589	
0.0	0.0	-171.0	9.0	1.0	0.0	58.0	61.0	156.0	150.0	11.0	961.23	296.0	10.0	0.0	-1009.0	1636893433.241923	
0.0	0.0	-171.0	9.0	1.0	0.0	58.0	61.0	157.0	150.0	11.0	961.21	296.0	1.0	1.0	-1005.0	1636893433.341482	
0.0	0.0	-171.0	9.0	1.0	0.0	58.0	61.0	157.0	150.0	11.0	961.19	296.0	21.0	-19.0	-986.0	1636893433.442668	
0.0	0.0	-171.0	9.0	1.0	0.0	58.0	61.0	156.0	150.0	11.0	961.25	296.0	-5.0	1.0	-1012.0	1636893433.547752	
0.0	0.0	-171.0	9.0	1.0	0.0	58.0	61.0	156.0	150.0	11.0	961.1	296.0	7.0	-10.0	-1009.0	1636893433.646533	
0.0	0.0	-171.0	9.0	1.0	0.0	58.0	61.0	157.0	150.0	11.0	961.09	297.0	10.0	-6.0	-996.0	1636893433.748559	
0.0	0.0	-171.0	8.0	1.0	0.0	58.0	61.0	157.0	150.0	11.0	961.19	297.0	-7.0	8.0	-1024.0	1636893433.852996	
0.0	0.0	-171.0	8.0	1.0	0.0	58.0	61.0	156.0	150.0	11.0	961.16	297.0	-7.0	1.0	-1015.0	1636893433.955388	
-2.0	0.0	-171.0	8.0	1.0	0.0	58.0	61.0	156.0	150.0	11.0	961.18	297.0	-17.0	12.0	-1012.0	1636893434.054398	
-4.0	0.0	-171.0	8.0	1.0	0.0	58.0	61.0	157.0	150.0	11.0	961.06	297.0	-15.0	12.0	-1009.0	1636893434.158229	
-5.0	0.0	-171.0	7.0	1.0	0.0	58.0	62.0	157.0	150.0	11.0	961.16	297.0	-27.0	11.0	-1012.0	1636893434.259192	
-5.0	0.0	-171.0	6.0	1.0	0.0	58.0	62.0	155.0	150.0	11.0	961.23	297.0	-23.0	7.0	-1010.0	1636893434.363704	
-5.0	0.0	-171.0	6.0	1.0	0.0	58.0	62.0	157.0	150.0	11.0	961.19	297.0	-21.0	-5.0	-1001.0	1636893434.464339	
-5.0	0.0	-170.0	5.0	0.0	0.0	58.0	62.0	157.0	150.0	11.0	961.15	297.0	-24.0	-5.0	-1001.0	1636893434.567723	
-5.0	0.0	-170.0	4.0	0.0	0.0	58.0	62.0	156.0	150.0	11.0	961.13	297.0	-39.0	1.0	-1011.0	1636893434.668254	
-7.0	0.0	-171.0	3.0	0.0	0.0	58.0	62.0	155.0	150.0	11.0	961.15	298.0	-40.0	0.0	-993.0	1636893434.770492	
-7.0	0.0	-170.0	2.0	0.0	0.0	58.0	62.0	156.0	140.0	11.0	961.15	298.0	-45.0	9.0	-1008.0	1636893434.872263	
-7.0	0.0	-170.0	2.0	0.0	0.0	58.0	62.0	156.0	140.0	11.0	961.17	298.0	-48.0	0.0	-1015.0	1636893434.973912	
-7.0	0.0	-170.0	1.0	0.0	0.0	58.0	62.0	156.0	140.0	11.0	961.24	298.0	-52.0	12.0	-997.0	1636893435.077347	
-7.0	0.0	-170.0	0.0	0.0	0.0	58.0	62.0	155.0	140.0	11.0	961.15	298.0	-55.0	5.0	-1002.0	1636893435.177692	
-7.0	0.0	-170.0	0.0	0.0	0.0	58.0	61.0	155.0	140.0	11.0	960.98	298.0	-61.0	1.0	-1004.0	1636893435.278854	
-7.0	0.0	-171.0	-1.0	0.0	0.0	58.0	61.0	157.0	140.0	11.0	960.99	298.0	-61.0	-9.0	-1004.0	1636893435.381769	
-7.0	0.0	-171.0	-1.0	0.0	0.0	58.0	61.0	156.0	140.0	11.0	961.05	298.0	-74.0	0.0	-1001.0	1636893435.48367	
-7.0	0.0	-171.0	-2.0	0.0	0.0	58.0	61.0	157.0	140.0	11.0	961.04	298.0	-89.0	-4.0	-1013.0	1636893435.584759	
-7.0	0.0	-171.0	-3.0	0.0	0.0	58.0	61.0	156.0	140.0	11.0	960.91	298.0	-91.0	-14.0	-999.0	1636893435.685991	
-7.0	0.0	-171.0	-3.0	0.0	0.0	58.0	61.0	158.0	140.0	11.0	960.91	299.0	-93.0	-7.0	-986.0	1636893435.791033	
-7.0	0.0	-171.0	-4.0	0.0	0.0	58.0	61.0	157.0	150.0	11.0	961.01	299.0	-82.0	-7.0	-1005.0	1636893435.896777	
-7.0	0.0	-171.0	-4.0	0.0	0.0	58.0	61.0	159.0	150.0	11.0	960.91	299.0	-79.0	-16.0	-998.0	1636893435.995307	
-7.0	0.0	-170.0	-4.0	0.0	0.0	58.0	61.0	159.0	150.0	11.0	960.89	299.0	-92.0	0.0	-1008.0	1636893436.042956	
-7.0	0.0	-170.0	-5.0	0.0	0.0	58.0	61.0	159.0	150.0	11.0	960.79	299.0	-102.0	2.0	-980.0	1636893436.149019	
-7.0	0.0	-170.0	-5.0	0.0	0.0	58.0	61.0	161.0	150.0	11.0	960.82	299.0	-96.0	-4.0	-1003.0	1636893436.297832	
-7.0	0.0	-170.0	-6.0	0.0	0.0	58.0	61.0	161.0	150.0	11.0	960.84	299.0	-106.0	3.0	-990.0	1636893436.351624	
-7.0	0.0	-170.0	-6.0	0.0	0.0	58.0	61.0	162.0	150.0	11.0	960.88	299.0	-118.0	18.0	-967.0	1636893436.451483	
-7.0	0.0	-170.0	-6.0	0.0	0.0	58.0	61.0	161.0	150.0	11.0	960.89	299.0	-95.0	5.0	-1002.0	1636893436.556575	
-7.0	0.0	-170.0	-6.0	0.0	0.0	58.0	61.0	160.0	150.0	11.0	960.91	299.0	-89.0	-5.0	-999.0	1636893436.658154	
-7.0	0.0	-171.0	-7.0	0.0	0.0	58.0	61.0	162.0	150.0	11.0	960.8	300.0	-101.0	-12.0	-1006.0	1636893436.760479	
-7.0	0.0	-171.0	-7.0	0.0	0.0	58.0	61.0	161.0	150.0	11.0	960.77	300.0	-111.0	-5.0	-994.0	1636893436.85975	
-7.0	0.0	-170.0	-7.0	0.0	0.0	58.0	61.0	160.0	150.0	11.0	960.85	300.0	-136.0	2.0	-1011.0	1636893436.962888	
-7.0	0.0	-170.0	-7.0	0.0	0.0	58.0	61.0	161.0	150.0	11.0	960.66	300.0	-121.0	-2.0	-989.0	1636893437.066615	
-7.0	0.0	-170.0	-7.0	0.0	0.0	58.0	61.0	161.0	150.0	11.0	960.78	300.0	-136.0	-2.0	-974.0	1636893437.169031	
-7.0	0.0	-170.0	-7.0	0.0	0.0	58.0	61.0	162.0	150.0	11.0	960.79	300.0	-127.0	16.0	-989.0	1636893437.267682	
-7.0	0.0	-170.0	-8.0	0.0	0.0	58.0	61.0	162.0	150.0	11.0	960.63	300.0	-131.0	5.0	-990.0	1636893437.371474	
-7.0	0.0	-170.0	-8.0	-1.0	0.0	58.0	61.0	161.0	150.0	11.0	960.76	300.0	-141.0	1.0	-987.0	1636893437.475103	
-7.0	0.0	-171.0	-8.0	-1.0	0.0	58.0	61.0	163.0	150.0	11.0	960.71	300.0	-135.0	-2.0	-985.0	1636893437.576434	
-7.0	0.0	-171.0	-8.0	-1.0	0.0	58.0	61.0	162.0	150.0	11.0	960.63	300.0	-138.0	9.0	-1000.0	1636893437.675465	
-7.0	0.0	-171.0	-8.0	-1.0	0.0	58.0	61.0	162.0	150.0	11.0	960.63	301.0	-148.0	-3.0	-1001.0	1636893437.778638	
-7.0	0.0	-170.0	-8.0	-1.0	0.0	58.0	61.0	162.0	150.0	11.0	960.72	301.0	-145.0	-2.0	-986.0	1636893437.882693	
-8.0	0.0	-171.0	-8.0	-1.0	0.0	58.0	61.0	163.0	150.0	11.0	960.62	301.0	-144.0	-6.0	-980.0	1636893437.984222	
-7.0	0.0	-170.0	-8.0	-1.0	0.0	58.0	61.0	162.0	150.0	11.0	960.55	301.0	-127.0	8.0	-998.0	1636893438.085147	
-8.0	0.0	-170.0	-8.0	-1.0	0.0	58.0	61.0	162.0	150.0	11.0	960.7	301.0	-132.0	-1.0	-990.0	1636893438.185884	
-7.0	0.0	-170.0	-8.0	-1.0	0.0	59.0	61.0	163.0	150.0	11.0	960.55	301.0	-130.0	4.0	-985.0	1636893438.290601	
-7.0	0.0	-171.0	-8.0	-1.0	0.0	59.0	61.0	163.0	150.0	11.0	960.57	301.0	-144.0	13.0	-994.0	1636893438.388953	
-7.0	0.0	-171.0	-8.0	-1.0	0.0	59.0	61.0	162.0	150.0	11.0	960.66	301.0	-142.0	-1.0	-1008.0	1636893438.492922	
-7.0	0.0	-171.0	-8.0	-1.0	0.0	59.0	61.0	163.0	150.0	11.0	960.6	301.0	-140.0	0.0	-984.0	1636893438.593617	
-7.0	0.0	-171.0	-8.0	-1.0	0.0	59.0	61.0	163.0	150.0	11.0	960.54	301.0	-144.0	8.0	-990.0	1636893438.69611	
-7.0	0.0	-171.0	-8.0	-1.0	0.0	59.0	61.0	164.0	150.0	11.0	960.54	302.0	-133.0	14.0	-1002.0	1636893438.804276	
-7.0	0.0	-171.0	-8.0	-1.0	0.0	59.0	61.0	162.0	150.0	11.0	960.6	302.0	-145.0	-8.0	-993.0	1636893438.89993	
-7.0	0.0	-171.0	-8.0	-1.0	0.0	59.0	61.0	164.0	150.0	11.0	960.67	302.0	-151.0	8.0	-982.0	1636893439.004621	
-8.0	0.0	-171.0	-8.0	-1.0	0.0	59.0	61.0	163.0	150.0	11.0	960.67	302.0	-130.0	4.0	-966.0	1636893439.11401	
-8.0	0.0	-171.0	-9.0	-1.0	0.0	59.0	61.0	163.0	150.0	11.0	960.66	302.0	-131.0	3.0	-979.0	1636893439.207326	
-7.0	0.0	-170.0	-9.0	-1.0	0.0	60.0	62.0	162.0	150.0	11.0	960.56	302.0	-153.0	-5.0	-988.0	1636893439.311113	
