timestamp	pitch	roll	yaw	vgx	vgy	vgz	templ	temph	tof	h	bat	baro	time	agx	agy	agz
1634986842.893795
1634986842.957641	2.0	1.0	0.0	0.0	0.0	0.0	73.0	76.0	75.0	10.0	84.0	971.75	4.0	47.0	-17.0	-1021.0
1634986843.056271	2.0	1.0	0.0	0.0	0.0	0.0	73.0	76.0	74.0	10.0	84.0	971.76	5.0	36.0	-27.0	-1014.0
1634986843.146967	2.0	1.0	0.0	0.0	0.0	0.0	73.0	76.0	73.0	10.0	84.0	971.7	5.0	53.0	-34.0	-1006.0
1634986843.254592	2.0	1.0	0.0	0.0	0.0	0.0	73.0	76.0	73.0	10.0	84.0	971.81	5.0	41.0	-19.0	-1021.0
1634986843.366455	2.0	1.0	0.0	0.0	0.0	0.0	73.0	75.0	72.0	10.0	84.0	971.8	5.0	54.0	-22.0	-1015.0
1634986843.456182	3.0	0.0	0.0	0.0	0.0	0.0	73.0	75.0	72.0	10.0	84.0	971.77	5.0	47.0	-6.0	-1005.0
1634986843.55586	3.0	0.0	0.0	0.0	0.0	0.0	73.0	75.0	71.0	10.0	84.0	971.71	5.0	37.0	-5.0	-979.0
1634986843.672503	2.0	0.0	0.0	0.0	0.0	0.0	73.0	75.0	71.0	10.0	84.0	971.76	5.0	40.0	-15.0	-1011.0
1634986843.774293	2.0	0.0	0.0	0.0	0.0	0.0	73.0	75.0	70.0	10.0	84.0	971.75	5.0	72.0	-26.0	-1000.0
1634986843.869293	2.0	0.0	1.0	0.0	0.0	0.0	73.0	75.0	70.0	10.0	84.0	971.58	5.0	41.0	-8.0	-997.0
1634986843.964202	3.0	0.0	1.0	0.0	0.0	0.0	73.0	75.0	70.0	10.0	84.0	971.77	6.0	60.0	1.0	-1047.0
1634986844.065166	3.0	0.0	1.0	0.0	0.0	0.0	73.0	75.0	71.0	10.0	84.0	971.69	6.0	52.0	-15.0	-990.0
1634986844.178527	3.0	0.0	1.0	0.0	0.0	0.0	73.0	75.0	70.0	10.0	84.0	971.67	6.0	54.0	-33.0	-996.0
1634986844.277371	4.0	0.0	1.0	0.0	0.0	0.0	73.0	75.0	71.0	10.0	84.0	971.73	6.0	63.0	-23.0	-994.0
1634986844.378218	3.0	0.0	0.0	0.0	0.0	0.0	72.0	76.0	71.0	10.0	84.0	971.74	6.0	39.0	-8.0	-1002.0
1634986844.474743	3.0	1.0	0.0	0.0	0.0	0.0	72.0	76.0	71.0	10.0	84.0	971.75	6.0	67.0	-25.0	-997.0
1634986844.585677	2.0	1.0	0.0	0.0	0.0	0.0	72.0	76.0	71.0	10.0	84.0	971.71	6.0	50.0	-5.0	-981.0
1634986844.638012	3.0	0.0	0.0	0.0	0.0	0.0	72.0	76.0	71.0	10.0	84.0	971.72	6.0	61.0	-17.0	-1010.0
1634986844.743428	3.0	0.0	0.0	0.0	0.0	0.0	72.0	76.0	71.0	10.0	84.0	971.66	6.0	68.0	-27.0	-1002.0
1634986844.842103	3.0	0.0	0.0	0.0	0.0	0.0	72.0	76.0	71.0	10.0	84.0	971.75	6.0	74.0	-20.0	-1014.0
1634986844.942193	3.0	0.0	0.0	0.0	0.0	0.0	72.0	76.0	72.0	10.0	84.0	971.81	7.0	33.0	-4.0	-991.0
1634986845.044975	3.0	0.0	0.0	0.0	0.0	0.0	72.0	76.0	71.0	10.0	84.0	971.73	7.0	44.0	8.0	-1010.0
1634986845.139958	3.0	0.0	0.0	0.0	0.0	0.0	72.0	76.0	71.0	10.0	84.0	971.66	7.0	53.0	16.0	-1029.0
1634986845.250801	2.0	0.0	0.0	0.0	0.0	0.0	72.0	76.0	71.0	10.0	84.0	971.71	7.0	83.0	-26.0	-1009.0
1634986845.35281	3.0	0.0	0.0	0.0	0.0	0.0	72.0	75.0	72.0	10.0	84.0	971.64	7.0	72.0	-3.0	-990.0
1634986845.457255	4.0	0.0	0.0	0.0	0.0	0.0	72.0	75.0	72.0	10.0	84.0	971.74	7.0	60.0	-16.0	-1002.0
1634986845.555341	4.0	0.0	0.0	0.0	0.0	0.0	72.0	75.0	73.0	10.0	84.0	971.73	7.0	76.0	-21.0	-1001.0
1634986845.656458	3.0	0.0	0.0	0.0	0.0	0.0	72.0	75.0	74.0	10.0	84.0	971.71	7.0	72.0	-5.0	-1014.0
1634986845.755094	3.0	0.0	0.0	0.0	0.0	0.0	72.0	75.0	74.0	10.0	84.0	971.7	7.0	36.0	4.0	-1012.0
1634986845.850638	1.0	0.0	0.0	0.0	0.0	0.0	72.0	75.0	74.0	10.0	84.0	971.7	7.0	48.0	-12.0	-956.0
1634986845.961408	-3.0	0.0	0.0	0.0	0.0	0.0	72.0	75.0	74.0	10.0	84.0	971.66	8.0	54.0	-18.0	-993.0
1634986846.062405	-7.0	0.0	0.0	2.0	0.0	0.0	72.0	75.0	75.0	10.0	84.0	971.75	8.0	60.0	-26.0	-985.0
1634986846.159365	-8.0	1.0	0.0	4.0	0.0	0.0	72.0	75.0	75.0	10.0	84.0	971.77	8.0	74.0	-23.0	-994.0
1634986846.268715	-2.0	1.0	0.0	6.0	0.0	0.0	72.0	75.0	74.0	10.0	84.0	971.67	8.0	59.0	-25.0	-979.0
1634986846.364791	3.0	1.0	0.0	6.0	0.0	0.0	73.0	75.0	75.0	10.0	84.0	971.79	8.0	48.0	-5.0	-1002.0
1634986846.4774	4.0	1.0	0.0	5.0	0.0	0.0	73.0	75.0	75.0	10.0	84.0	971.74	8.0	55.0	-39.0	-1045.0
1634986846.574221	3.0	1.0	0.0	4.0	0.0	0.0	73.0	75.0	75.0	10.0	84.0	971.79	8.0	0.0	-12.0	-1030.0
1634986846.673382	3.0	1.0	0.0	4.0	0.0	0.0	73.0	75.0	76.0	10.0	84.0	971.79	8.0	20.0	-30.0	-1008.0
1634986846.770702	3.0	1.0	0.0	3.0	0.0	0.0	73.0	75.0	75.0	10.0	84.0	971.8	8.0	46.0	-29.0	-998.0
1634986846.880053	3.0	1.0	0.0	3.0	0.0	0.0	73.0	75.0	75.0	10.0	84.0	971.72	8.0	33.0	-8.0	-952.0
1634986846.977239	2.0	1.0	0.0	3.0	0.0	0.0	73.0	75.0	75.0	10.0	84.0	971.79	9.0	31.0	-6.0	-973.0
1634986847.086591	-2.0	0.0	0.0	3.0	0.0	0.0	73.0	75.0	74.0	10.0	84.0	971.75	9.0	23.0	-9.0	-1006.0
1634986847.185192	-5.0	0.0	0.0	4.0	0.0	0.0	73.0	75.0	74.0	10.0	84.0	971.74	9.0	34.0	-18.0	-982.0
1634986847.283232	-5.0	0.0	0.0	6.0	0.0	0.0	73.0	75.0	73.0	10.0	84.0	971.71	9.0	43.0	-15.0	-994.0
1634986847.395598	-4.0	0.0	0.0	7.0	0.0	0.0	71.0	75.0	72.0	10.0	84.0	971.7	9.0	12.0	-15.0	-1000.0
1634986847.492201	-3.0	0.0	0.0	8.0	0.0	0.0	71.0	75.0	72.0	10.0	84.0	971.8	9.0	0.0	-1.0	-988.0
1634986847.589785	1.0	0.0	0.0	8.0	0.0	0.0	71.0	75.0	72.0	10.0	84.0	971.68	9.0	2.0	-15.0	-1025.0
1634986847.687872	3.0	0.0	0.0	7.0	0.0	0.0	71.0	75.0	72.0	10.0	84.0	971.75	9.0	9.0	12.0	-1019.0
1634986847.798969	4.0	0.0	1.0	7.0	0.0	0.0	71.0	75.0	72.0	10.0	84.0	971.75	9.0	19.0	0.0	-998.0
1634986847.900945	4.0	0.0	1.0	6.0	0.0	0.0	71.0	75.0	72.0	10.0	84.0	971.72	9.0	-2.0	12.0	-1002.0
1634986847.993649	3.0	0.0	0.0	5.0	0.0	0.0	71.0	75.0	72.0	10.0	84.0	971.8	10.0	12.0	0.0	-990.0
1634986848.104672	3.0	0.0	0.0	5.0	0.0	0.0	71.0	75.0	71.0	10.0	84.0	971.65	10.0	14.0	0.0	-990.0
1634986848.208541	3.0	0.0	0.0	4.0	0.0	0.0	71.0	75.0	72.0	10.0	84.0	971.68	10.0	21.0	-3.0	-1020.0
1634986848.305699	3.0	0.0	0.0	4.0	0.0	0.0	71.0	75.0	72.0	10.0	84.0	971.72	10.0	20.0	8.0	-1001.0
1634986848.403616	4.0	0.0	0.0	3.0	0.0	0.0	73.0	75.0	72.0	10.0	84.0	971.81	10.0	13.0	7.0	-1003.0
1634986848.504885	4.0	-1.0	0.0	3.0	0.0	0.0	73.0	75.0	72.0	10.0	84.0	971.8	10.0	22.0	7.0	-1006.0
1634986848.616033	3.0	-1.0	0.0	3.0	0.0	0.0	73.0	75.0	72.0	10.0	84.0	971.74	10.0	25.0	0.0	-1017.0
1634986848.670075	3.0	0.0	0.0	3.0	0.0	0.0	73.0	75.0	72.0	10.0	84.0	971.7	10.0	4.0	34.0	-997.0
1634986848.761905	3.0	0.0	0.0	2.0	0.0	0.0	73.0	75.0	72.0	10.0	84.0	971.75	10.0	27.0	-1.0	-1002.0
1634986848.87286	0.0	0.0	0.0	2.0	0.0	0.0	73.0	75.0	72.0	10.0	84.0	971.79	10.0	16.0	2.0	-1010.0
1634986848.968177	-4.0	0.0	0.0	3.0	0.0	0.0	73.0	75.0	73.0	10.0	84.0	971.78	11.0	20.0	18.0	-1006.0
1634986849.068474	-5.0	0.0	0.0	4.0	0.0	0.0	73.0	75.0	73.0	10.0	84.0	971.76	11.0	18.0	10.0	-998.0
1634986849.180135	-5.0	0.0	0.0	5.0	0.0	0.0	73.0	75.0	74.0	10.0	84.0	971.67	11.0	28.0	-2.0	-1009.0
1634986849.268837	-4.0	0.0	0.0	6.0	0.0	0.0	73.0	75.0	74.0	10.0	84.0	971.68	11.0	5.0	20.0	-1018.0
1634986849.384669	-1.0	0.0	0.0	7.0	0.0	0.0	72.0	75.0	75.0	10.0	84.0	971.76	11.0	2.0	7.0	-993.0
1634986849.481278	2.0	0.0	0.0	7.0	0.0	0.0	72.0	75.0	76.0	10.0	84.0	971.82	11.0	4.0	-8.0	-999.0
1634986849.582198	3.0	0.0	0.0	6.0	0.0	0.0	72.0	75.0	77.0	10.0	84.0	971.82	11.0	22.0	-14.0	-992.0
1634986849.68112	3.0	0.0	0.0	5.0	0.0	0.0	72.0	75.0	78.0	10.0	84.0	971.78	11.0	13.0	4.0	-1009.0
1634986849.77991	3.0	0.0	0.0	5.0	0.0	0.0	72.0	75.0	79.0	10.0	84.0	971.77	11.0	39.0	-13.0	-989.0
1634986849.886489	3.0	0.0	0.0	5.0	0.0	0.0	72.0	75.0	79.0	10.0	84.0	971.79	11.0	34.0	0.0	-967.0
1634986849.986197	4.0	1.0	0.0	4.0	0.0	0.0	72.0	75.0	79.0	10.0	84.0	971.7	12.0	20.0	-1.0	-1012.0
1634986850.091603	4.0	0.0	0.0	4.0	0.0	0.0	72.0	75.0	79.0	10.0	84.0	971.69	12.0	48.0	-13.0	-1009.0
1634986850.200174	4.0	0.0	0.0	4.0	0.0	0.0	72.0	75.0	79.0	10.0	84.0	971.82	12.0	30.0	-5.0	-971.0
1634986850.300582	4.0	0.0	0.0	3.0	0.0	0.0	72.0	75.0	78.0	10.0	84.0	971.7	12.0	70.0	-38.0	-1014.0
1634986850.404567	4.0	0.0	0.0	3.0	0.0	0.0	72.0	75.0	78.0	10.0	84.0	971.83	12.0	41.0	-4.0	-1013.0
1634986850.497039	0.0	0.0	0.0	3.0	0.0	0.0	72.0	75.0	77.0	10.0	84.0	971.76	12.0	52.0	-6.0	-1010.0
1634986850.607534	-4.0	0.0	0.0	4.0	0.0	0.0	72.0	75.0	77.0	10.0	84.0	971.64	12.0	24.0	-1.0	-965.0
1634986850.710158	-5.0	0.0	0.0	5.0	0.0	0.0	72.0	75.0	76.0	10.0	84.0	971.75	12.0	15.0	2.0	-1017.0
1634986850.880707	-5.0	0.0	0.0	6.0	0.0	0.0	72.0	75.0	76.0	10.0	84.0	971.76	12.0	37.0	-11.0	-1081.0
1634986850.900876	-5.0	0.0	0.0	7.0	0.0	0.0	72.0	75.0	76.0	10.0	84.0	971.75	12.0	8.0	-3.0	-968.0
1634986851.12473	-4.0	0.0	0.0	8.0	0.0	0.0	72.0	75.0	75.0	10.0	84.0	971.61	13.0	23.0	-42.0	-1055.0
1634986851.12473	0.0	0.0	0.0	9.0	0.0	0.0	72.0	75.0	75.0	10.0	84.0	971.67	13.0	6.0	-21.0	-1017.0
1634986851.264986	2.0	1.0	0.0	9.0	0.0	0.0	72.0	75.0	74.0	10.0	84.0	971.78	13.0	21.0	-27.0	-976.0
1634986851.430798	4.0	1.0	0.0	8.0	0.0	0.0	72.0	75.0	73.0	10.0	84.0	971.71	13.0	32.0	-37.0	-1006.0
1634986851.431185	4.0	0.0	0.0	7.0	0.0	0.0	71.0	75.0	72.0	10.0	84.0	971.69	13.0	24.0	-32.0	-963.0
1634986851.515122	4.0	1.0	0.0	6.0	0.0	0.0	71.0	75.0	72.0	10.0	84.0	971.67	13.0	30.0	-26.0	-988.0
1634986851.624476	4.0	1.0	0.0	6.0	0.0	0.0	71.0	75.0	71.0	10.0	84.0	971.62	13.0	5.0	-11.0	-995.0
1634986851.733939	4.0	1.0	0.0	5.0	0.0	0.0	71.0	75.0	69.0	10.0	84.0	971.63	13.0	28.0	-29.0	-991.0
1634986851.837933	4.0	1.0	0.0	5.0	0.0	0.0	71.0	75.0	68.0	10.0	84.0	971.59	13.0	34.0	-12.0	-1009.0
1634986851.924224	4.0	1.0	0.0	5.0	0.0	0.0	71.0	75.0	67.0	10.0	84.0	971.6	13.0	43.0	-27.0	-1019.0
1634986852.04876	4.0	1.0	0.0	5.0	0.0	0.0	71.0	75.0	66.0	10.0	84.0	971.53	14.0	50.0	-29.0	-1046.0
1634986852.19682	4.0	1.0	0.0	4.0	0.0	0.0	71.0	75.0	64.0	10.0	84.0	971.51	14.0	61.0	-23.0	-1008.0
1634986852.239875	4.0	1.0	0.0	4.0	0.0	0.0	71.0	75.0	63.0	0.0	84.0	971.43	14.0	50.0	-25.0	-997.0
1634986852.290972	4.0	0.0	0.0	4.0	0.0	0.0	71.0	75.0	62.0	0.0	84.0	971.57	14.0	52.0	-23.0	-1028.0
1634986852.4438	4.0	0.0	0.0	4.0	0.0	0.0	72.0	74.0	61.0	0.0	84.0	971.54	14.0	82.0	-43.0	-1027.0
1634986852.545289	4.0	1.0	1.0	3.0	0.0	0.0	72.0	74.0	61.0	0.0	84.0	971.59	14.0	42.0	-15.0	-1026.0
1634986852.640152	4.0	1.0	0.0	3.0	0.0	0.0	72.0	74.0	60.0	0.0	84.0	971.57	14.0	34.0	-5.0	-1028.0
1634986852.7355	4.0	1.0	0.0	2.0	0.0	0.0	72.0	74.0	61.0	0.0	84.0	971.4	14.0	54.0	-76.0	-1043.0
1634986852.844999	4.0	1.0	0.0	2.0	0.0	0.0	72.0	74.0	61.0	0.0	84.0	971.46	14.0	75.0	-27.0	-1035.0
1634986852.938732	4.0	1.0	0.0	2.0	0.0	0.0	72.0	74.0	62.0	0.0	84.0	971.55	14.0	64.0	-17.0	-997.0
1634986853.002556	4.0	1.0	0.0	2.0	0.0	0.0	72.0	74.0	63.0	0.0	84.0	971.52	15.0	77.0	-41.0	-996.0
1634986853.093558	4.0	1.0	0.0	2.0	0.0	0.0	72.0	74.0	64.0	0.0	84.0	971.49	15.0	70.0	-13.0	-1039.0
1634986853.196724	4.0	0.0	0.0	1.0	0.0	-1.0	72.0	74.0	66.0	0.0	84.0	971.48	15.0	87.0	-22.0	-1145.0
1634986853.307983	4.0	0.0	0.0	1.0	0.0	-2.0	72.0	74.0	68.0	0.0	84.0	971.61	15.0	63.0	-5.0	-1226.0
1634986853.407368	4.0	0.0	0.0	1.0	0.0	-5.0	71.0	75.0	76.0	10.0	84.0	971.67	15.0	87.0	-18.0	-1155.0
1634986853.506043	5.0	0.0	0.0	1.0	0.0	-6.0	71.0	75.0	83.0	10.0	84.0	971.64	15.0	81.0	-22.0	-1042.0
1634986853.617042	5.0	0.0	0.0	1.0	0.0	-7.0	71.0	75.0	90.0	20.0	84.0	971.72	15.0	64.0	-23.0	-863.0
1634986853.705111	6.0	0.0	0.0	0.0	0.0	-6.0	71.0	75.0	97.0	30.0	84.0	971.71	15.0	75.0	-15.0	-861.0
1634986853.817749	5.0	0.0	0.0	0.0	0.0	-4.0	71.0	75.0	100.0	30.0	84.0	971.74	15.0	59.0	-9.0	-875.0
1634986853.91939	5.0	1.0	1.0	0.0	0.0	-3.0	71.0	75.0	103.0	40.0	84.0	971.86	15.0	85.0	-46.0	-871.0
1634986854.016773	5.0	1.0	1.0	0.0	0.0	-2.0	71.0	75.0	105.0	40.0	83.0	971.88	16.0	57.0	-35.0	-918.0
1634986854.111999	4.0	0.0	0.0	0.0	0.0	-1.0	71.0	75.0	107.0	40.0	83.0	971.9	16.0	60.0	-35.0	-931.0
1634986854.217728	4.0	2.0	0.0	0.0	0.0	0.0	71.0	75.0	108.0	40.0	83.0	971.77	16.0	80.0	-42.0	-973.0
1634986854.331033	4.0	2.0	0.0	0.0	0.0	0.0	71.0	75.0	109.0	40.0	83.0	971.81	16.0	48.0	-16.0	-979.0
1634986854.430351	4.0	2.0	0.0	0.0	0.0	0.0	71.0	75.0	108.0	40.0	83.0	971.85	16.0	82.0	-28.0	-961.0
1634986854.520456	4.0	2.0	0.0	0.0	0.0	0.0	71.0	75.0	109.0	40.0	83.0	971.84	16.0	129.0	-48.0	-977.0
1634986854.629801	4.0	1.0	0.0	0.0	0.0	0.0	71.0	75.0	108.0	40.0	83.0	971.79	16.0	89.0	-41.0	-1024.0
1634986854.72353	4.0	1.0	1.0	0.0	0.0	0.0	71.0	75.0	108.0	40.0	83.0	971.87	16.0	61.0	-37.0	-1009.0
1634986854.841039	4.0	0.0	1.0	0.0	0.0	0.0	71.0	75.0	108.0	40.0	83.0	971.87	16.0	90.0	-71.0	-967.0
1634986854.930381	5.0	2.0	0.0	0.0	0.0	0.0	71.0	75.0	108.0	40.0	83.0	971.78	16.0	70.0	-48.0	-987.0
1634986855.044948	6.0	1.0	0.0	-1.0	0.0	0.0	71.0	75.0	108.0	40.0	83.0	971.82	17.0	72.0	-41.0	-1007.0
1634986855.134311	6.0	1.0	0.0	-1.0	0.0	0.0	71.0	75.0	107.0	40.0	83.0	971.77	17.0	89.0	-33.0	-971.0
1634986855.245497	5.0	1.0	0.0	-2.0	0.0	0.0	71.0	75.0	108.0	40.0	83.0	971.97	17.0	103.0	-37.0	-968.0
1634986855.342794	5.0	1.0	0.0	-2.0	0.0	0.0	71.0	75.0	107.0	40.0	83.0	971.86	17.0	86.0	-25.0	-1000.0
1634986855.447721	5.0	1.0	0.0	-2.0	0.0	0.0	71.0	75.0	108.0	40.0	83.0	971.86	17.0	101.0	-39.0	-996.0
1634986855.542256	5.0	2.0	0.0	-2.0	0.0	0.0	71.0	75.0	109.0	40.0	83.0	971.91	17.0	105.0	-47.0	-1009.0
1634986855.651608	5.0	1.0	0.0	-2.0	0.0	0.0	71.0	75.0	108.0	40.0	83.0	971.96	17.0	104.0	-63.0	-983.0
1634986855.745881	5.0	1.0	0.0	-2.0	0.0	0.0	71.0	75.0	108.0	40.0	83.0	971.93	17.0	108.0	-52.0	-1002.0
1634986855.861035	5.0	2.0	0.0	-2.0	-1.0	0.0	71.0	75.0	109.0	40.0	83.0	971.87	17.0	99.0	-57.0	-990.0
1634986855.96036	5.0	2.0	0.0	-2.0	-1.0	0.0	71.0	75.0	109.0	40.0	83.0	971.88	17.0	80.0	-6.0	-980.0
1634986856.049524	5.0	3.0	0.0	-2.0	0.0	0.0	71.0	75.0	110.0	40.0	83.0	971.86	18.0	94.0	-34.0	-960.0
1634986856.164217	4.0	2.0	0.0	-2.0	0.0	0.0	71.0	75.0	110.0	40.0	83.0	972.01	18.0	87.0	-40.0	-980.0
1634986856.260809	5.0	2.0	0.0	-2.0	0.0	0.0	71.0	75.0	110.0	40.0	83.0	971.93	18.0	101.0	-49.0	-981.0
1634986856.367823	4.0	3.0	0.0	-2.0	0.0	0.0	71.0	75.0	108.0	40.0	83.0	972.11	18.0	118.0	-43.0	-989.0
1634986856.467864	4.0	2.0	0.0	-2.0	0.0	0.0	72.0	75.0	110.0	40.0	83.0	971.92	18.0	79.0	-45.0	-996.0
1634986856.564944	4.0	2.0	0.0	-2.0	0.0	0.0	72.0	75.0	109.0	40.0	83.0	971.91	18.0	96.0	-40.0	-981.0
1634986856.671112	3.0	3.0	0.0	-2.0	0.0	0.0	72.0	75.0	109.0	40.0	83.0	971.84	18.0	64.0	-39.0	-999.0
1634986856.768268	4.0	3.0	0.0	-2.0	0.0	0.0	72.0	75.0	109.0	40.0	83.0	971.89	18.0	102.0	-56.0	-985.0
1634986856.819412	6.0	2.0	0.0	-2.0	0.0	0.0	72.0	75.0	110.0	40.0	83.0	971.9	18.0	79.0	-37.0	-1016.0
1634986856.928159	6.0	0.0	1.0	-2.0	0.0	0.0	72.0	75.0	110.0	40.0	83.0	971.87	18.0	63.0	-96.0	-1058.0
1634986857.027693	6.0	2.0	1.0	-3.0	-1.0	0.0	72.0	75.0	111.0	50.0	82.0	971.96	19.0	79.0	-56.0	-969.0
1634986857.123862	5.0	3.0	1.0	-3.0	-1.0	0.0	72.0	75.0	111.0	50.0	82.0	972.02	19.0	84.0	-68.0	-960.0
1634986857.226668	4.0	3.0	1.0	-3.0	-1.0	0.0	72.0	75.0	111.0	50.0	82.0	971.94	19.0	71.0	-48.0	-975.0
1634986857.3328	3.0	5.0	1.0	-3.0	-1.0	0.0	72.0	75.0	111.0	50.0	82.0	971.97	19.0	102.0	-72.0	-971.0
1634986857.42653	5.0	2.0	0.0	-3.0	0.0	0.0	72.0	75.0	111.0	50.0	82.0	971.96	19.0	95.0	-67.0	-987.0
1634986857.529378	5.0	2.0	0.0	-3.0	0.0	0.0	72.0	75.0	110.0	50.0	82.0	972.02	19.0	119.0	-63.0	-990.0
1634986857.64015	5.0	2.0	0.0	-3.0	-1.0	0.0	72.0	75.0	110.0	50.0	82.0	972.01	19.0	97.0	-67.0	-976.0
1634986857.73387	5.0	3.0	0.0	-4.0	-1.0	0.0	72.0	75.0	110.0	50.0	82.0	971.97	19.0	114.0	-82.0	-998.0
1634986857.836534	4.0	4.0	0.0	-4.0	-1.0	0.0	72.0	75.0	109.0	50.0	82.0	971.87	19.0	72.0	-60.0	-1013.0
1634986857.949144	4.0	4.0	1.0	-3.0	0.0	0.0	72.0	75.0	108.0	50.0	82.0	971.89	20.0	128.0	-53.0	-961.0
1634986858.04652	5.0	3.0	0.0	-3.0	0.0	0.0	72.0	75.0	108.0	40.0	82.0	971.87	20.0	128.0	-60.0	-969.0
1634986858.142068	6.0	2.0	0.0	-3.0	0.0	0.0	72.0	75.0	108.0	40.0	82.0	971.84	20.0	97.0	-34.0	-998.0
1634986858.246429	5.0	2.0	0.0	-3.0	0.0	0.0	72.0	75.0	107.0	40.0	82.0	971.86	20.0	106.0	-38.0	-992.0
1634986858.347198	5.0	2.0	0.0	-4.0	0.0	0.0	72.0	75.0	106.0	40.0	82.0	971.8	20.0	100.0	-50.0	-1012.0
1634986858.449589	4.0	2.0	1.0	-4.0	0.0	0.0	71.0	75.0	105.0	40.0	82.0	971.77	20.0	114.0	-34.0	-1011.0
1634986858.552157	3.0	1.0	0.0	-3.0	0.0	0.0	71.0	75.0	104.0	40.0	82.0	971.76	20.0	102.0	-35.0	-1005.0
1634986858.661496	5.0	2.0	0.0	-3.0	0.0	0.0	71.0	75.0	104.0	40.0	82.0	971.87	20.0	98.0	-25.0	-976.0
1634986858.767044	6.0	0.0	0.0	-3.0	0.0	0.0	71.0	75.0	104.0	40.0	82.0	971.79	20.0	100.0	-26.0	-981.0
1634986858.864248	5.0	1.0	0.0	-4.0	0.0	0.0	71.0	75.0	105.0	40.0	82.0	971.81	20.0	107.0	-42.0	-991.0
1634986858.969096	5.0	2.0	0.0	-4.0	0.0	0.0	71.0	75.0	104.0	40.0	82.0	971.8	21.0	108.0	-35.0	-1004.0
1634986859.072321	5.0	2.0	0.0	-4.0	0.0	0.0	71.0	75.0	104.0	40.0	82.0	971.75	21.0	107.0	-43.0	-1004.0
1634986859.172113	4.0	2.0	0.0	-4.0	0.0	0.0	71.0	75.0	104.0	40.0	82.0	971.81	21.0	90.0	-21.0	-1007.0
1634986859.267503	3.0	2.0	0.0	-4.0	0.0	0.0	71.0	75.0	103.0	40.0	82.0	971.71	21.0	108.0	-30.0	-1012.0
1634986859.36905	6.0	1.0	0.0	-4.0	0.0	0.0	71.0	75.0	104.0	40.0	82.0	971.74	21.0	112.0	-44.0	-979.0
1634986859.481845	6.0	0.0	0.0	-4.0	0.0	0.0	71.0	75.0	105.0	40.0	82.0	971.74	21.0	102.0	-46.0	-968.0
1634986859.579026	6.0	1.0	0.0	-4.0	0.0	0.0	71.0	75.0	104.0	40.0	82.0	971.74	21.0	74.0	-15.0	-986.0
1634986859.685642	5.0	1.0	0.0	-5.0	0.0	0.0	71.0	75.0	103.0	40.0	82.0	971.79	21.0	83.0	-30.0	-974.0
1634986859.782439	4.0	2.0	0.0	-5.0	0.0	0.0	71.0	75.0	102.0	40.0	82.0	971.83	21.0	60.0	-18.0	-1005.0
1634986859.879373	2.0	2.0	0.0	-5.0	0.0	0.0	71.0	75.0	102.0	40.0	82.0	971.73	21.0	73.0	-16.0	-997.0
1634986859.979976	3.0	2.0	0.0	-4.0	0.0	0.0	71.0	75.0	103.0	40.0	82.0	971.77	22.0	108.0	-39.0	-992.0
1634986860.082428	6.0	0.0	0.0	-4.0	0.0	0.0	71.0	75.0	103.0	40.0	81.0	971.76	22.0	95.0	-19.0	-1010.0
1634986860.195759	5.0	1.0	0.0	-4.0	0.0	0.0	71.0	75.0	103.0	40.0	81.0	971.82	22.0	114.0	-28.0	-984.0
1634986860.290779	4.0	1.0	0.0	-4.0	0.0	0.0	71.0	75.0	104.0	40.0	81.0	971.81	22.0	104.0	-35.0	-1040.0
1634986860.386563	3.0	1.0	0.0	-4.0	0.0	0.0	71.0	75.0	103.0	40.0	81.0	971.72	22.0	108.0	-25.0	-1018.0
1634986860.495416	3.0	1.0	0.0	-4.0	0.0	0.0	71.0	75.0	103.0	40.0	81.0	971.71	22.0	94.0	-26.0	-991.0
1634986860.599616	2.0	1.0	0.0	-4.0	0.0	0.0	71.0	75.0	103.0	40.0	81.0	971.74	22.0	80.0	-31.0	-981.0
1634986860.696614	4.0	1.0	0.0	-3.0	0.0	0.0	71.0	75.0	104.0	40.0	81.0	971.73	22.0	94.0	-31.0	-985.0
1634986860.80614	6.0	1.0	0.0	-4.0	0.0	0.0	71.0	75.0	105.0	40.0	81.0	971.69	22.0	91.0	-43.0	-1003.0
1634986860.900454	5.0	1.0	0.0	-4.0	0.0	0.0	71.0	75.0	103.0	40.0	81.0	971.66	22.0	95.0	-24.0	-992.0
1634986861.005949	4.0	1.0	0.0	-4.0	0.0	0.0	71.0	75.0	103.0	40.0	81.0	971.72	23.0	111.0	-50.0	-971.0
1634986861.099849	2.0	1.0	0.0	-4.0	0.0	0.0	71.0	75.0	103.0	40.0	81.0	971.8	23.0	82.0	-13.0	-967.0
1634986861.162848	1.0	1.0	0.0	-4.0	0.0	0.0	71.0	75.0	102.0	40.0	81.0	971.73	23.0	81.0	-22.0	-988.0
1634986861.258385	2.0	1.0	0.0	-3.0	0.0	0.0	71.0	75.0	103.0	40.0	81.0	971.73	23.0	97.0	-61.0	-970.0
1634986861.369636	3.0	1.0	0.0	-3.0	0.0	0.0	71.0	75.0	103.0	40.0	81.0	971.73	23.0	79.0	-35.0	-979.0
1634986861.468806	6.0	1.0	0.0	-3.0	0.0	0.0	72.0	76.0	102.0	40.0	81.0	971.71	23.0	74.0	-33.0	-1014.0
1634986861.567712	5.0	1.0	0.0	-4.0	0.0	0.0	72.0	76.0	102.0	40.0	81.0	971.65	23.0	72.0	-46.0	-1028.0
1634986861.66144	5.0	2.0	0.0	-4.0	0.0	0.0	72.0	76.0	102.0	40.0	81.0	971.75	23.0	54.0	-37.0	-976.0
1634986861.764198	4.0	3.0	0.0	-5.0	0.0	0.0	72.0	76.0	101.0	40.0	81.0	971.77	23.0	70.0	-67.0	-995.0
1634986861.877084	2.0	3.0	0.0	-5.0	0.0	0.0	72.0	76.0	100.0	40.0	81.0	971.79	23.0	90.0	-60.0	-1026.0
1634986861.970819	1.0	3.0	0.0	-4.0	0.0	0.0	72.0	76.0	98.0	40.0	81.0	971.79	24.0	56.0	-36.0	-968.0
1634986862.071368	1.0	1.0	0.0	-4.0	0.0	0.0	72.0	76.0	99.0	40.0	80.0	971.81	24.0	77.0	-76.0	-1016.0
1634986862.182213	1.0	2.0	0.0	-3.0	0.0	0.0	72.0	76.0	97.0	40.0	80.0	971.81	24.0	63.0	-62.0	-996.0
1634986862.352688	1.0	3.0	0.0	-3.0	0.0	0.0	72.0	76.0	99.0	40.0	80.0	971.83	24.0	86.0	-46.0	-1033.0
1634986862.499505	3.0	4.0	0.0	-2.0	0.0	0.0	72.0	76.0	99.0	40.0	80.0	971.87	24.0	101.0	-13.0	-994.0
1634986862.507622	5.0	1.0	0.0	-3.0	0.0	0.0	72.0	75.0	100.0	40.0	80.0	971.63	24.0	86.0	-22.0	-1006.0
1634986862.64457	6.0	0.0	0.0	-3.0	0.0	0.0	72.0	75.0	100.0	40.0	80.0	971.78	24.0	79.0	-15.0	-1020.0
1634986862.78693	5.0	0.0	0.0	-3.0	0.0	0.0	72.0	75.0	101.0	40.0	80.0	971.71	24.0	73.0	0.0	-970.0
1634986862.798141	5.0	0.0	0.0	-4.0	0.0	0.0	72.0	75.0	100.0	40.0	80.0	971.7	24.0	86.0	-31.0	-973.0
1634986862.897324	5.0	1.0	0.0	-4.0	0.0	0.0	72.0	75.0	102.0	40.0	80.0	971.89	24.0	81.0	-25.0	-985.0
1634986863.098623	4.0	2.0	0.0	-4.0	0.0	0.0	72.0	75.0	102.0	40.0	80.0	971.73	25.0	74.0	-18.0	-949.0
1634986863.098623	2.0	2.0	0.0	-4.0	0.0	0.0	72.0	75.0	101.0	40.0	80.0	971.64	25.0	101.0	-31.0	-984.0
1634986863.208449	4.0	1.0	0.0	-4.0	0.0	0.0	72.0	75.0	100.0	40.0	80.0	971.8	25.0	69.0	-18.0	-957.0
1634986863.340202	5.0	0.0	0.0	-4.0	0.0	0.0	72.0	75.0	99.0	40.0	80.0	971.75	25.0	94.0	-7.0	-1008.0
1634986863.47544	6.0	0.0	0.0	-4.0	0.0	0.0	72.0	75.0	99.0	40.0	80.0	971.78	25.0	97.0	-10.0	-965.0
1634986863.508565	6.0	0.0	0.0	-4.0	0.0	0.0	71.0	74.0	98.0	40.0	80.0	971.84	25.0	101.0	-23.0	-986.0
1634986863.715479	5.0	0.0	0.0	-4.0	0.0	0.0	71.0	74.0	96.0	40.0	80.0	971.79	25.0	84.0	-16.0	-1021.0
1634986863.715479	5.0	1.0	0.0	-4.0	0.0	0.0	71.0	74.0	96.0	40.0	80.0	971.8	25.0	100.0	-29.0	-1016.0
1634986863.86142	5.0	2.0	0.0	-4.0	0.0	0.0	71.0	74.0	95.0	40.0	80.0	971.69	25.0	97.0	-30.0	-987.0
1634986864.034248	5.0	1.0	0.0	-4.0	0.0	0.0	71.0	74.0	95.0	40.0	80.0	971.71	25.0	85.0	-14.0	-1005.0
1634986864.034248	5.0	0.0	0.0	-4.0	0.0	0.0	71.0	74.0	94.0	40.0	80.0	971.73	26.0	86.0	-8.0	-982.0
1634986864.115793	5.0	0.0	0.0	-4.0	0.0	0.0	71.0	74.0	93.0	40.0	80.0	971.7	26.0	80.0	4.0	-1046.0
1634986864.225504	5.0	0.0	1.0	-4.0	0.0	0.0	71.0	74.0	94.0	40.0	80.0	971.61	26.0	95.0	-24.0	-1009.0
1634986864.32777	5.0	0.0	1.0	-5.0	0.0	0.0	71.0	74.0	93.0	40.0	80.0	971.66	26.0	91.0	-26.0	-993.0
1634986864.41959	5.0	0.0	1.0	-5.0	0.0	0.0	71.0	74.0	93.0	40.0	80.0	971.52	26.0	79.0	-11.0	-1001.0
1634986864.516619	5.0	2.0	0.0	-5.0	0.0	0.0	72.0	74.0	92.0	40.0	80.0	971.7	26.0	99.0	-27.0	-971.0
1634986864.618349	4.0	2.0	0.0	-5.0	0.0	0.0	72.0	74.0	93.0	40.0	80.0	971.65	26.0	63.0	0.0	-974.0
1634986864.729244	2.0	2.0	0.0	-5.0	0.0	0.0	72.0	74.0	92.0	40.0	80.0	971.62	26.0	70.0	-4.0	-1011.0
1634986864.824678	1.0	1.0	0.0	-5.0	0.0	0.0	72.0	74.0	91.0	40.0	80.0	971.63	26.0	74.0	-18.0	-1022.0
1634986864.926397	1.0	1.0	0.0	-4.0	0.0	0.0	72.0	74.0	90.0	40.0	80.0	971.61	26.0	102.0	-28.0	-987.0
1634986864.974993	1.0	1.0	0.0	-4.0	0.0	0.0	72.0	74.0	90.0	30.0	80.0	971.73	27.0	70.0	-14.0	-991.0
1634986865.087658	1.0	0.0	0.0	-4.0	0.0	0.0	72.0	74.0	90.0	30.0	80.0	971.69	27.0	72.0	-24.0	-1034.0
1634986865.190666	1.0	0.0	0.0	-3.0	0.0	0.0	72.0	74.0	91.0	30.0	80.0	971.71	27.0	33.0	-12.0	-994.0
1634986865.284394	1.0	1.0	0.0	-3.0	0.0	0.0	72.0	74.0	92.0	30.0	80.0	971.58	27.0	45.0	-21.0	-1011.0
1634986865.39375	0.0	1.0	0.0	-3.0	0.0	0.0	72.0	74.0	91.0	30.0	80.0	971.65	27.0	39.0	0.0	-1012.0
1634986865.544186	0.0	1.0	0.0	-3.0	0.0	0.0	72.0	75.0	92.0	30.0	80.0	971.74	27.0	37.0	-19.0	-1004.0
1634986865.594471	0.0	0.0	0.0	-3.0	0.0	0.0	72.0	75.0	93.0	30.0	80.0	971.8	27.0	60.0	-20.0	-1025.0
1634986865.705141	0.0	0.0	0.0	-2.0	0.0	0.0	72.0	75.0	94.0	30.0	80.0	971.75	27.0	50.0	-5.0	-1028.0
1634986865.792237	0.0	0.0	0.0	-2.0	0.0	0.0	72.0	75.0	96.0	40.0	80.0	971.69	27.0	50.0	-8.0	-999.0
1634986865.909041	0.0	0.0	0.0	-2.0	0.0	0.0	72.0	75.0	96.0	40.0	80.0	971.69	27.0	50.0	-8.0	-999.0
1634986865.909041	0.0	0.0	0.0	-2.0	0.0	0.0	72.0	75.0	97.0	40.0	80.0	971.83	27.0	49.0	-7.0	-977.0
1634986866.009967	0.0	0.0	0.0	-2.0	0.0	0.0	72.0	75.0	98.0	40.0	80.0	971.85	28.0	51.0	4.0	-1005.0
1634986866.110372	-4.0	0.0	0.0	-1.0	0.0	0.0	72.0	75.0	100.0	40.0	80.0	971.78	28.0	50.0	11.0	-996.0
1634986866.209448	-5.0	0.0	0.0	0.0	0.0	0.0	72.0	75.0	100.0	40.0	80.0	971.83	28.0	31.0	12.0	-998.0
1634986866.317806	-5.0	0.0	0.0	0.0	0.0	0.0	72.0	75.0	102.0	40.0	80.0	971.9	28.0	49.0	1.0	-982.0
1634986866.417235	-5.0	0.0	0.0	1.0	0.0	0.0	72.0	75.0	102.0	40.0	80.0	971.97	28.0	28.0	16.0	-988.0
1634986866.516537	-5.0	0.0	0.0	2.0	1.0	0.0	72.0	74.0	105.0	40.0	80.0	971.96	28.0	8.0	17.0	-980.0
1634986866.611179	-3.0	-1.0	0.0	3.0	1.0	0.0	72.0	74.0	105.0	40.0	80.0	971.96	28.0	-6.0	1.0	-996.0
1634986866.714008	0.0	-1.0	0.0	3.0	1.0	0.0	72.0	74.0	107.0	40.0	80.0	972.04	28.0	-13.0	16.0	-1001.0
1634986866.825201	0.0	-1.0	0.0	3.0	0.0	0.0	72.0	74.0	107.0	40.0	80.0	972.08	28.0	-7.0	3.0	-986.0
1634986866.918926	0.0	-1.0	0.0	2.0	0.0	0.0	72.0	74.0	107.0	40.0	80.0	972.1	28.0	-23.0	18.0	-1003.0
1634986867.028155	0.0	0.0	0.0	2.0	0.0	0.0	72.0	74.0	109.0	40.0	79.0	972.15	29.0	-13.0	19.0	-1003.0
1634986867.123628	0.0	0.0	0.0	1.0	0.0	0.0	72.0	74.0	109.0	40.0	79.0	972.09	29.0	-16.0	27.0	-1000.0
1634986867.222061	0.0	0.0	0.0	1.0	0.0	0.0	72.0	74.0	110.0	40.0	79.0	972.15	29.0	-7.0	1.0	-988.0
1634986867.329385	0.0	-1.0	0.0	1.0	0.0	0.0	72.0	74.0	110.0	50.0	79.0	972.11	29.0	2.0	-8.0	-992.0
1634986867.424952	0.0	-1.0	0.0	1.0	0.0	0.0	72.0	74.0	111.0	50.0	79.0	972.14	29.0	-7.0	12.0	-998.0
1634986867.537457	0.0	-1.0	0.0	1.0	0.0	0.0	71.0	74.0	111.0	50.0	79.0	972.18	29.0	-13.0	18.0	-1006.0
1634986867.630982	-3.0	-1.0	0.0	1.0	0.0	0.0	71.0	74.0	111.0	50.0	79.0	972.17	29.0	20.0	1.0	-964.0
1634986867.731701	-6.0	0.0	0.0	2.0	0.0	0.0	71.0	74.0	112.0	50.0	79.0	972.19	29.0	0.0	25.0	-989.0
1634986867.844268	-6.0	0.0	0.0	3.0	0.0	0.0	71.0	74.0	113.0	50.0	79.0	972.14	29.0	-10.0	-14.0	-990.0
1634986867.936713	-6.0	-1.0	0.0	4.0	0.0	0.0	71.0	74.0	112.0	50.0	79.0	972.04	29.0	-30.0	6.0	-1019.0
1634986868.051324	-5.0	0.0	1.0	5.0	0.0	0.0	71.0	74.0	113.0	50.0	79.0	972.06	30.0	-58.0	8.0	-999.0
1634986868.146703	-5.0	0.0	1.0	5.0	0.0	0.0	71.0	74.0	113.0	50.0	79.0	972.03	30.0	-46.0	-7.0	-1000.0
1634986868.252612	-4.0	0.0	1.0	5.0	0.0	0.0	71.0	74.0	113.0	50.0	79.0	972.12	30.0	-42.0	-38.0	-1021.0
1634986868.348371	-1.0	0.0	1.0	5.0	0.0	0.0	71.0	74.0	113.0	50.0	79.0	972.05	30.0	-48.0	-32.0	-991.0
1634986868.44613	0.0	0.0	0.0	4.0	0.0	0.0	71.0	74.0	113.0	50.0	79.0	971.98	30.0	-50.0	-46.0	-996.0
1634986868.556117	0.0	0.0	0.0	4.0	0.0	0.0	72.0	75.0	114.0	50.0	79.0	972.04	30.0	-55.0	-23.0	-989.0
1634986868.663749	0.0	1.0	0.0	3.0	0.0	0.0	72.0	75.0	112.0	50.0	79.0	972.09	30.0	-15.0	-59.0	-990.0
1634986868.760955	0.0	1.0	0.0	3.0	0.0	0.0	72.0	75.0	112.0	50.0	79.0	972.07	30.0	-44.0	-28.0	-1009.0
1634986868.861029	-3.0	2.0	1.0	3.0	0.0	0.0	72.0	75.0	111.0	40.0	79.0	972.14	30.0	-14.0	-60.0	-969.0
1634986868.95643	-6.0	1.0	0.0	3.0	0.0	0.0	72.0	75.0	110.0	40.0	79.0	972.14	30.0	-40.0	-28.0	-1035.0
1634986869.069063	-6.0	0.0	0.0	4.0	0.0	0.0	72.0	75.0	110.0	40.0	79.0	972.24	31.0	-48.0	-41.0	-1011.0
1634986869.166452	-5.0	1.0	0.0	5.0	0.0	0.0	72.0	75.0	109.0	40.0	79.0	972.14	31.0	-17.0	-19.0	-989.0
1634986869.21493	-5.0	2.0	0.0	6.0	0.0	0.0	72.0	75.0	109.0	40.0	79.0	972.09	31.0	-14.0	-27.0	-980.0
1634986869.32627	-3.0	2.0	0.0	6.0	0.0	0.0	72.0	75.0	106.0	40.0	79.0	972.08	31.0	-55.0	-5.0	-1040.0
1634986869.416148	0.0	1.0	0.0	6.0	0.0	0.0	72.0	75.0	105.0	40.0	79.0	972.09	31.0	-24.0	-45.0	-1063.0
1634986869.579611	0.0	0.0	0.0	5.0	0.0	0.0	72.0	74.0	106.0	40.0	79.0	972.08	31.0	-30.0	-40.0	-994.0
1634986869.681836	0.0	0.0	0.0	5.0	0.0	0.0	72.0	74.0	106.0	40.0	79.0	972.08	31.0	-29.0	-60.0	-993.0
1634986869.779862	0.0	2.0	1.0	4.0	0.0	0.0	72.0	74.0	105.0	40.0	79.0	972.18	31.0	-6.0	-53.0	-1054.0
1634986869.873775	0.0	3.0	1.0	3.0	0.0	0.0	72.0	74.0	105.0	40.0	79.0	972.14	31.0	-30.0	-44.0	-999.0
1634986869.976901	-3.0	2.0	0.0	2.0	0.0	0.0	72.0	74.0	103.0	40.0	79.0	972.05	32.0	-46.0	-81.0	-1006.0
1634986870.041044	-6.0	2.0	0.0	3.0	0.0	0.0	72.0	74.0	102.0	40.0	78.0	972.13	32.0	-37.0	-21.0	-965.0
1634986870.136376	-6.0	0.0	0.0	4.0	0.0	0.0	72.0	74.0	102.0	40.0	78.0	972.09	32.0	-37.0	-31.0	-1007.0
1634986870.24413	-6.0	0.0	0.0	5.0	0.0	0.0	72.0	74.0	102.0	40.0	78.0	972.04	32.0	-10.0	-26.0	-1010.0
1634986870.332649	-6.0	1.0	0.0	6.0	0.0	0.0	72.0	74.0	100.0	40.0	78.0	972.08	32.0	1.0	-20.0	-1043.0
1634986870.449662	-5.0	1.0	0.0	7.0	0.0	0.0	72.0	74.0	99.0	40.0	78.0	972.01	32.0	-35.0	-19.0	-1034.0
1634986870.539131	-2.0	2.0	0.0	7.0	0.0	0.0	71.0	75.0	99.0	40.0	78.0	972.01	32.0	-3.0	-37.0	-1006.0
1634986870.652035	1.0	2.0	0.0	7.0	0.0	0.0	71.0	75.0	97.0	40.0	78.0	971.97	32.0	-30.0	-18.0	-1020.0
1634986870.747304	1.0	1.0	0.0	6.0	0.0	0.0	71.0	75.0	99.0	40.0	78.0	972.01	32.0	-51.0	-5.0	-1001.0
1634986870.846393	1.0	1.0	0.0	5.0	0.0	0.0	71.0	75.0	97.0	40.0	78.0	972.02	32.0	-21.0	-29.0	-1002.0
1634986870.957586	0.0	1.0	0.0	5.0	0.0	0.0	71.0	75.0	98.0	40.0	78.0	971.97	33.0	-38.0	-14.0	-1025.0
1634986871.059211	0.0	1.0	0.0	4.0	0.0	0.0	71.0	75.0	98.0	40.0	78.0	972.01	33.0	-47.0	11.0	-999.0
1634986871.154294	1.0	1.0	0.0	4.0	0.0	0.0	71.0	75.0	98.0	40.0	78.0	972.03	33.0	-13.0	-26.0	-995.0
1634986871.251474	1.0	1.0	0.0	3.0	0.0	0.0	71.0	75.0	98.0	40.0	78.0	972.01	33.0	-8.0	-27.0	-1002.0
1634986871.354069	1.0	1.0	0.0	3.0	0.0	0.0	71.0	75.0	99.0	40.0	78.0	972.03	33.0	-12.0	-13.0	-1010.0
1634986871.468389	0.0	1.0	0.0	3.0	0.0	0.0	71.0	75.0	99.0	40.0	78.0	972.1	33.0	-14.0	-15.0	-997.0
1634986871.568506	-4.0	1.0	0.0	3.0	0.0	0.0	71.0	74.0	102.0	40.0	78.0	972.01	33.0	-5.0	-20.0	-1045.0
1634986871.665658	-6.0	0.0	0.0	4.0	0.0	0.0	71.0	74.0	103.0	40.0	78.0	972.01	33.0	-26.0	-16.0	-1023.0
1634986871.766789	-5.0	0.0	0.0	5.0	0.0	0.0	71.0	74.0	104.0	40.0	78.0	971.95	33.0	-9.0	-6.0	-1014.0
1634986871.864714	-5.0	0.0	0.0	5.0	0.0	0.0	71.0	74.0	105.0	40.0	78.0	971.94	33.0	-23.0	-10.0	-1004.0
1634986871.974068	-6.0	0.0	0.0	6.0	0.0	0.0	71.0	74.0	106.0	40.0	78.0	971.92	34.0	-25.0	-20.0	-1016.0
1634986872.06595	-5.0	0.0	0.0	6.0	0.0	0.0	71.0	74.0	108.0	40.0	78.0	971.92	34.0	-46.0	0.0	-1004.0
1634986872.178936	-6.0	0.0	0.0	7.0	0.0	0.0	71.0	74.0	108.0	40.0	78.0	971.97	34.0	-39.0	-2.0	-972.0
1634986872.272658	-6.0	0.0	0.0	7.0	0.0	0.0	71.0	74.0	108.0	40.0	78.0	972.0	34.0	-62.0	5.0	-983.0
1634986872.373711	-6.0	0.0	0.0	7.0	0.0	0.0	71.0	74.0	111.0	40.0	78.0	971.99	34.0	-31.0	2.0	-980.0
1634986872.488092	-6.0	0.0	0.0	8.0	0.0	0.0	71.0	74.0	111.0	40.0	78.0	972.05	34.0	-55.0	0.0	-989.0
1634986872.588099	-6.0	0.0	0.0	9.0	0.0	0.0	71.0	74.0	113.0	40.0	78.0	972.05	34.0	-35.0	2.0	-996.0
1634986872.678981	-6.0	0.0	0.0	9.0	0.0	0.0	71.0	74.0	114.0	40.0	78.0	972.02	34.0	-41.0	0.0	-999.0
1634986872.790157	-6.0	0.0	0.0	10.0	0.0	0.0	71.0	74.0	114.0	50.0	78.0	972.0	34.0	-52.0	12.0	-1029.0
1634986872.887734	-6.0	0.0	0.0	10.0	0.0	0.0	71.0	74.0	116.0	50.0	78.0	971.92	34.0	-38.0	9.0	-1004.0
1634986872.887734	-6.0	0.0	0.0	10.0	0.0	0.0	71.0	74.0	116.0	50.0	78.0	971.92	34.0	-38.0	9.0	-1004.0
1634986872.997264	-4.0	0.0	0.0	11.0	0.0	0.0	71.0	74.0	117.0	50.0	78.0	972.11	35.0	-43.0	9.0	-984.0
1634986873.085807	0.0	0.0	0.0	11.0	0.0	0.0	71.0	74.0	119.0	50.0	77.0	972.01	35.0	-39.0	-13.0	-983.0
1634986873.196711	1.0	0.0	0.0	10.0	0.0	0.0	71.0	74.0	119.0	50.0	77.0	971.96	35.0	-57.0	3.0	-980.0
1634986873.303138	2.0	0.0	0.0	9.0	0.0	0.0	71.0	74.0	120.0	50.0	77.0	971.97	35.0	-34.0	-32.0	-984.0
1634986873.398706	2.0	0.0	0.0	8.0	0.0	0.0	71.0	74.0	122.0	50.0	77.0	971.94	35.0	-40.0	-18.0	-980.0
1634986873.496039	2.0	1.0	0.0	7.0	0.0	0.0	71.0	74.0	120.0	50.0	77.0	972.11	35.0	-34.0	-23.0	-979.0
1634986873.605555	2.0	0.0	0.0	6.0	0.0	0.0	72.0	75.0	121.0	50.0	77.0	972.08	35.0	-51.0	-10.0	-990.0
1634986873.701063	2.0	1.0	0.0	6.0	0.0	0.0	72.0	75.0	120.0	50.0	77.0	972.14	35.0	-24.0	-26.0	-971.0
1634986873.810411	2.0	1.0	0.0	5.0	0.0	0.0	72.0	75.0	120.0	50.0	77.0	972.16	35.0	-33.0	-19.0	-977.0
1634986873.916111	2.0	0.0	0.0	5.0	0.0	0.0	72.0	75.0	119.0	50.0	77.0	972.23	35.0	-16.0	-35.0	-977.0
1634986874.014839	2.0	1.0	0.0	4.0	0.0	0.0	72.0	75.0	119.0	50.0	77.0	972.16	36.0	-16.0	-31.0	-970.0
1634986874.061697	2.0	1.0	0.0	4.0	0.0	0.0	72.0	75.0	118.0	50.0	77.0	972.19	36.0	-6.0	-42.0	-990.0
1634986874.204989	2.0	1.0	0.0	3.0	0.0	0.0	72.0	75.0	117.0	50.0	77.0	972.12	36.0	-29.0	-20.0	-990.0
1634986874.329595	1.0	2.0	0.0	3.0	0.0	1.0	72.0	75.0	116.0	50.0	77.0	972.18	36.0	-8.0	-37.0	-1033.0
1634986874.361021	1.0	2.0	0.0	3.0	0.0	0.0	72.0	75.0	115.0	50.0	77.0	972.2	36.0	-13.0	-32.0	-1007.0
1634986874.574108	0.0	1.0	0.0	2.0	0.0	0.0	72.0	75.0	112.0	50.0	77.0	972.09	36.0	-26.0	-28.0	-1036.0
1634986874.575179	-6.0	2.0	0.0	3.0	0.0	0.0	71.0	74.0	112.0	50.0	77.0	972.13	36.0	10.0	-27.0	-985.0
1634986874.703628	-6.0	1.0	0.0	4.0	0.0	0.0	71.0	74.0	111.0	50.0	77.0	972.05	36.0	-20.0	-24.0	-1000.0
1634986874.788703	-6.0	1.0	0.0	5.0	0.0	0.0	71.0	74.0	109.0	50.0	77.0	972.02	36.0	-29.0	-24.0	-1016.0
1634986874.930727	-5.0	1.0	0.0	6.0	0.0	0.0	71.0	74.0	109.0	50.0	77.0	972.0	36.0	-45.0	4.0	-1004.0
1634986875.086938	-5.0	1.0	0.0	6.0	0.0	0.0	71.0	74.0	108.0	40.0	77.0	971.96	37.0	-20.0	-13.0	-984.0
1634986875.086938	-1.0	1.0	1.0	6.0	0.0	0.0	71.0	74.0	107.0	40.0	77.0	971.9	37.0	-72.0	20.0	-1036.0
1634986875.236931	0.0	1.0	0.0	6.0	0.0	0.0	71.0	74.0	105.0	40.0	77.0	971.92	37.0	-32.0	-5.0	-1013.0
1634986875.397973	0.0	0.0	0.0	5.0	0.0	0.0	71.0	74.0	105.0	40.0	77.0	971.88	37.0	-39.0	-10.0	-997.0
1634986875.397973	0.0	0.0	0.0	4.0	0.0	0.0	71.0	74.0	105.0	40.0	77.0	971.91	37.0	-28.0	-20.0	-980.0
1634986875.53804	0.0	0.0	0.0	4.0	0.0	0.0	71.0	74.0	104.0	40.0	77.0	971.93	37.0	-40.0	-8.0	-994.0
1634986875.682279	0.0	1.0	0.0	4.0	0.0	0.0	70.0	74.0	104.0	40.0	77.0	971.97	37.0	-19.0	-24.0	-1016.0
1634986875.697896	0.0	1.0	0.0	3.0	0.0	0.0	70.0	74.0	104.0	40.0	77.0	971.99	37.0	5.0	-32.0	-1026.0
1634986875.830616	0.0	0.0	0.0	3.0	0.0	0.0	70.0	74.0	104.0	40.0	77.0	972.0	37.0	-20.0	-25.0	-1026.0
1634986876.005308	0.0	0.0	0.0	3.0	0.0	0.0	70.0	74.0	104.0	40.0	77.0	971.96	37.0	-28.0	-17.0	-1001.0
1634986876.005308	0.0	0.0	0.0	2.0	0.0	0.0	70.0	74.0	105.0	40.0	77.0	971.97	38.0	-40.0	0.0	-1031.0
1634986876.145096	-6.0	0.0	0.0	3.0	0.0	0.0	70.0	74.0	107.0	40.0	77.0	971.9	38.0	-15.0	-11.0	-962.0
1634986876.308466	-6.0	0.0	0.0	3.0	0.0	0.0	70.0	74.0	106.0	40.0	77.0	972.08	38.0	-44.0	-5.0	-1005.0
1634986876.308466	-6.0	0.0	0.0	4.0	0.0	0.0	70.0	74.0	106.0	40.0	77.0	971.91	38.0	-42.0	-6.0	-986.0
1634986876.45779	-6.0	0.0	0.0	5.0	0.0	0.0	70.0	74.0	106.0	40.0	77.0	971.99	38.0	-38.0	0.0	-1010.0
1634986876.60268	-6.0	0.0	0.0	6.0	0.0	0.0	70.0	74.0	108.0	40.0	77.0	972.02	38.0	-40.0	1.0	-1006.0
1634986876.618299	-6.0	0.0	0.0	6.0	0.0	0.0	70.0	74.0	107.0	40.0	77.0	971.93	38.0	0.0	-34.0	-989.0
1634986876.752564	-5.0	0.0	0.0	7.0	0.0	0.0	70.0	74.0	110.0	40.0	77.0	971.98	38.0	-42.0	-1.0	-992.0
1634986876.92781	-6.0	0.0	0.0	7.0	0.0	0.0	70.0	74.0	110.0	40.0	77.0	971.92	38.0	-35.0	5.0	-997.0
1634986876.92781	-5.0	0.0	0.0	7.0	0.0	0.0	70.0	74.0	110.0	40.0	77.0	971.95	38.0	-33.0	7.0	-997.0
1634986877.069726	-5.0	0.0	0.0	8.0	0.0	0.0	70.0	74.0	113.0	40.0	77.0	972.02	39.0	-48.0	12.0	-980.0
1634986877.244082	-6.0	0.0	0.0	8.0	0.0	0.0	70.0	74.0	111.0	40.0	77.0	971.94	39.0	-41.0	12.0	-979.0
1634986877.244082	-6.0	0.0	0.0	9.0	0.0	0.0	70.0	74.0	112.0	40.0	77.0	971.93	39.0	-39.0	-7.0	-995.0
1634986877.3791	-6.0	0.0	0.0	9.0	0.0	0.0	70.0	74.0	114.0	50.0	77.0	972.01	39.0	-68.0	14.0	-1026.0
1634986877.542378	-5.0	0.0	0.0	10.0	0.0	0.0	70.0	74.0	115.0	50.0	77.0	971.84	39.0	-58.0	20.0	-987.0
1634986877.551236	-6.0	0.0	0.0	10.0	0.0	0.0	70.0	74.0	117.0	50.0	77.0	971.92	39.0	-56.0	4.0	-971.0
1634986877.686207	-6.0	0.0	0.0	10.0	0.0	0.0	70.0	73.0	113.0	50.0	77.0	971.88	39.0	-52.0	8.0	-999.0
1634986877.734676	-6.0	0.0	0.0	11.0	0.0	0.0	70.0	73.0	114.0	50.0	77.0	971.75	39.0	-67.0	2.0	-974.0
1634986877.844451	-6.0	0.0	0.0	11.0	0.0	0.0	70.0	73.0	115.0	50.0	77.0	971.79	39.0	-84.0	32.0	-983.0
1634986877.99927	-5.0	0.0	0.0	11.0	0.0	0.0	70.0	73.0	120.0	50.0	77.0	971.7	39.0	-100.0	13.0	-985.0
1634986878.036519	-6.0	0.0	0.0	11.0	0.0	0.0	70.0	73.0	117.0	50.0	76.0	971.85	40.0	-76.0	-37.0	-988.0
1634986878.148788	-6.0	0.0	0.0	12.0	0.0	0.0	70.0	73.0	115.0	50.0	76.0	971.87	40.0	-85.0	-16.0	-964.0
1634986878.246543	-6.0	0.0	0.0	12.0	0.0	0.0	70.0	73.0	115.0	50.0	76.0	971.63	40.0	-97.0	4.0	-997.0
1634986878.351406	-5.0	0.0	0.0	12.0	0.0	0.0	70.0	73.0	113.0	50.0	76.0	971.73	40.0	-105.0	-2.0	-985.0
1634986878.449531	-6.0	0.0	0.0	12.0	0.0	0.0	70.0	73.0	116.0	50.0	76.0	971.7	40.0	-75.0	-13.0	-1001.0
1634986878.541955	-6.0	0.0	0.0	12.0	0.0	0.0	70.0	73.0	113.0	50.0	76.0	971.9	40.0	-108.0	26.0	-981.0
1634986878.658547	-6.0	0.0	0.0	12.0	0.0	0.0	71.0	74.0	113.0	50.0	76.0	971.74	40.0	-83.0	0.0	-1003.0
1634986878.706616	-6.0	0.0	1.0	13.0	0.0	0.0	71.0	74.0	114.0	50.0	76.0	971.66	40.0	-70.0	-1.0	-976.0
1634986878.810942	-6.0	0.0	0.0	13.0	0.0	0.0	71.0	74.0	113.0	50.0	76.0	971.62	40.0	-111.0	-6.0	-980.0
1634986878.908071	-6.0	-1.0	0.0	13.0	0.0	0.0	71.0	74.0	109.0	50.0	76.0	971.46	40.0	-96.0	-2.0	-982.0
1634986879.005386	-2.0	0.0	0.0	13.0	0.0	0.0	71.0	74.0	111.0	50.0	76.0	971.71	41.0	-91.0	-7.0	-972.0
1634986879.106832	0.0	0.0	0.0	13.0	0.0	0.0	71.0	74.0	106.0	50.0	76.0	971.59	41.0	-73.0	8.0	-1055.0
1634986879.219589	2.0	0.0	0.0	12.0	0.0	0.0	71.0	74.0	107.0	50.0	76.0	971.42	41.0	-94.0	20.0	-975.0
1634986879.313353	2.0	0.0	0.0	10.0	0.0	0.0	71.0	74.0	107.0	50.0	76.0	971.46	41.0	-73.0	-8.0	-1004.0
1634986879.417089	2.0	-1.0	0.0	9.0	0.0	0.0	71.0	74.0	107.0	40.0	76.0	971.57	41.0	-82.0	-20.0	-1002.0
1634986879.514404	1.0	0.0	0.0	8.0	0.0	0.0	71.0	74.0	105.0	40.0	76.0	971.44	41.0	-80.0	-19.0	-1003.0
1634986879.612671	1.0	0.0	0.0	7.0	0.0	0.0	71.0	73.0	105.0	40.0	76.0	971.58	41.0	-83.0	-3.0	-975.0
1634986879.719519	1.0	0.0	0.0	7.0	0.0	0.0	71.0	73.0	102.0	40.0	76.0	971.5	41.0	-83.0	-7.0	-996.0
1634986879.832331	1.0	0.0	0.0	6.0	0.0	0.0	71.0	73.0	101.0	40.0	76.0	971.68	41.0	-49.0	-13.0	-1007.0
1634986879.927557	1.0	0.0	0.0	6.0	0.0	0.0	71.0	73.0	100.0	40.0	76.0	971.46	41.0	-51.0	-10.0	-1013.0
1634986879.969849	1.0	0.0	0.0	6.0	0.0	0.0	71.0	73.0	100.0	40.0	76.0	971.46	41.0	-51.0	-10.0	-1013.0
1634986880.033888	1.0	0.0	0.0	5.0	0.0	0.0	71.0	73.0	101.0	40.0	76.0	971.69	42.0	-43.0	-6.0	-1024.0
1634986880.129435	1.0	0.0	0.0	4.0	0.0	0.0	71.0	73.0	99.0	40.0	76.0	971.65	42.0	-37.0	1.0	-1018.0
1634986880.237903	1.0	1.0	1.0	4.0	0.0	0.0	71.0	73.0	99.0	40.0	76.0	971.6	42.0	-29.0	-19.0	-1046.0
1634986880.338441	1.0	1.0	1.0	4.0	0.0	0.0	71.0	73.0	100.0	40.0	76.0	971.83	42.0	-27.0	-15.0	-1004.0
1634986880.436577	1.0	1.0	1.0	3.0	0.0	0.0	71.0	73.0	99.0	40.0	76.0	971.8	42.0	-38.0	8.0	-968.0
1634986880.545014	5.0	0.0	1.0	3.0	0.0	0.0	71.0	73.0	101.0	40.0	76.0	971.71	42.0	-15.0	-28.0	-1006.0
1634986880.647429	5.0	0.0	1.0	2.0	0.0	0.0	70.0	74.0	99.0	40.0	76.0	971.7	42.0	-31.0	-30.0	-993.0
1634986880.745276	5.0	0.0	0.0	0.0	0.0	0.0	70.0	74.0	97.0	40.0	76.0	971.69	42.0	-27.0	-12.0	-1027.0
1634986880.851666	5.0	0.0	1.0	0.0	0.0	0.0	70.0	74.0	97.0	40.0	76.0	971.84	42.0	-11.0	5.0	-1122.0
1634986880.94854	5.0	0.0	1.0	0.0	0.0	0.0	70.0	74.0	94.0	40.0	76.0	971.86	42.0	-6.0	-29.0	-988.0
1634986881.048757	5.0	0.0	1.0	-1.0	0.0	0.0	70.0	74.0	91.0	40.0	76.0	971.84	43.0	-6.0	2.0	-1007.0
1634986881.154954	5.0	0.0	1.0	-2.0	0.0	0.0	70.0	74.0	89.0	40.0	76.0	971.84	43.0	-6.0	-27.0	-1017.0
1634986881.250207	5.0	0.0	1.0	-3.0	0.0	0.0	70.0	74.0	90.0	40.0	76.0	971.87	43.0	19.0	-57.0	-1039.0
1634986881.361625	5.0	0.0	1.0	-4.0	0.0	0.0	70.0	74.0	87.0	30.0	76.0	971.87	43.0	-9.0	-8.0	-1073.0
1634986881.453948	5.0	0.0	1.0	-5.0	-1.0	0.0	70.0	74.0	84.0	30.0	76.0	971.92	43.0	-10.0	23.0	-978.0
1634986881.565015	4.0	0.0	1.0	-5.0	-1.0	0.0	70.0	74.0	82.0	30.0	76.0	971.81	43.0	-6.0	1.0	-1020.0
1634986881.658744	4.0	0.0	1.0	-6.0	-2.0	0.0	71.0	74.0	80.0	30.0	76.0	971.7	43.0	27.0	-11.0	-1028.0
1634986881.769094	4.0	1.0	1.0	-6.0	-2.0	0.0	71.0	74.0	77.0	30.0	76.0	971.62	43.0	17.0	-35.0	-990.0
1634986881.86457	3.0	3.0	0.0	-7.0	-2.0	0.0	71.0	74.0	76.0	30.0	76.0	971.75	43.0	39.0	-38.0	-1013.0
1634986881.958296	2.0	4.0	0.0	-7.0	-1.0	-2.0	71.0	74.0	74.0	30.0	76.0	971.71	44.0	17.0	-2.0	-1220.0
1634986882.065153	1.0	3.0	0.0	-6.0	0.0	-4.0	71.0	74.0	76.0	40.0	76.0	971.75	44.0	81.0	-16.0	-1271.0
1634986882.176183	0.0	1.0	0.0	-6.0	0.0	-6.0	71.0	74.0	77.0	40.0	76.0	971.74	44.0	61.0	-23.0	-1191.0
1634986882.274303	0.0	0.0	0.0	-5.0	0.0	-7.0	71.0	74.0	83.0	50.0	76.0	971.64	44.0	51.0	-21.0	-1119.0
1634986882.377547	0.0	0.0	0.0	-5.0	0.0	-8.0	71.0	74.0	88.0	60.0	76.0	971.73	44.0	45.0	-34.0	-990.0
1634986882.475668	0.0	1.0	0.0	-4.0	0.0	-6.0	71.0	74.0	94.0	60.0	76.0	971.87	44.0	35.0	-12.0	-873.0
1634986882.571256	0.0	1.0	0.0	-4.0	0.0	-4.0	71.0	74.0	98.0	70.0	76.0	971.85	44.0	39.0	-11.0	-835.0
1634986882.674314	0.0	1.0	0.0	-3.0	0.0	-2.0	70.0	74.0	101.0	70.0	76.0	971.93	44.0	36.0	-8.0	-868.0
1634986882.780723	0.0	1.0	0.0	-3.0	0.0	0.0	70.0	74.0	104.0	70.0	76.0	971.87	44.0	24.0	-50.0	-905.0
1634986882.890439	-1.0	1.0	0.0	-3.0	0.0	0.0	70.0	74.0	102.0	70.0	76.0	972.05	44.0	20.0	-21.0	-929.0
1634986882.942319	-1.0	1.0	0.0	-3.0	0.0	0.0	70.0	74.0	102.0	70.0	76.0	971.96	45.0	19.0	-28.0	-949.0
1634986883.029455	-1.0	1.0	0.0	-2.0	0.0	0.0	70.0	74.0	104.0	70.0	76.0	971.94	45.0	1.0	-28.0	-983.0
1634986883.145504	0.0	1.0	0.0	-2.0	0.0	0.0	70.0	74.0	105.0	70.0	76.0	971.95	45.0	-6.0	-14.0	-1007.0
1634986883.247069	4.0	1.0	0.0	-2.0	0.0	0.0	70.0	74.0	104.0	70.0	76.0	971.97	45.0	-20.0	-4.0	-1009.0
1634986883.340796	6.0	0.0	0.0	-3.0	0.0	0.0	70.0	74.0	106.0	70.0	76.0	971.97	45.0	-21.0	-22.0	-1024.0
1634986883.444938	5.0	0.0	0.0	-5.0	0.0	0.0	70.0	74.0	104.0	70.0	76.0	972.03	45.0	-6.0	-2.0	-1012.0
1634986883.542213	5.0	0.0	0.0	-6.0	0.0	0.0	70.0	74.0	107.0	70.0	76.0	972.05	45.0	9.0	-14.0	-1008.0
1634986883.651562	5.0	0.0	0.0	-7.0	0.0	0.0	70.0	73.0	106.0	70.0	76.0	972.0	45.0	13.0	-12.0	-1004.0
1634986883.750426	5.0	0.0	0.0	-7.0	0.0	0.0	70.0	73.0	107.0	70.0	76.0	972.05	45.0	-5.0	-12.0	-1032.0
1634986883.845593	5.0	0.0	0.0	-8.0	-1.0	0.0	70.0	73.0	108.0	70.0	76.0	972.04	45.0	6.0	-8.0	-984.0
1634986883.962395	5.0	0.0	0.0	-8.0	-1.0	0.0	70.0	73.0	110.0	70.0	76.0	971.97	46.0	60.0	-24.0	-991.0
1634986884.056076	5.0	0.0	0.0	-8.0	-1.0	0.0	70.0	73.0	111.0	70.0	75.0	971.94	46.0	79.0	-20.0	-1001.0
1634986884.159129	5.0	0.0	0.0	-8.0	-1.0	0.0	70.0	73.0	110.0	70.0	75.0	972.1	46.0	81.0	-26.0	-958.0
1634986884.254572	5.0	0.0	0.0	-9.0	-1.0	0.0	70.0	73.0	113.0	70.0	75.0	972.1	46.0	99.0	-29.0	-971.0
1634986884.36866	5.0	0.0	0.0	-8.0	-1.0	0.0	70.0	73.0	114.0	80.0	75.0	972.14	46.0	122.0	-59.0	-956.0
1634986884.464104	5.0	0.0	0.0	-8.0	-1.0	0.0	70.0	73.0	118.0	80.0	75.0	972.24	46.0	99.0	-19.0	-959.0
1634986884.56049	5.0	0.0	0.0	-8.0	-2.0	0.0	70.0	73.0	120.0	80.0	75.0	972.18	46.0	105.0	-33.0	-990.0
1634986884.675442	6.0	0.0	0.0	-8.0	-2.0	0.0	70.0	73.0	121.0	80.0	75.0	972.18	46.0	85.0	-11.0	-976.0
1634986884.774088	6.0	0.0	0.0	-8.0	-2.0	0.0	70.0	73.0	121.0	80.0	75.0	972.18	46.0	106.0	-43.0	-973.0
1634986884.867999	6.0	1.0	0.0	-8.0	-2.0	0.0	70.0	73.0	125.0	80.0	75.0	972.12	46.0	102.0	-32.0	-973.0
1634986884.971944	6.0	1.0	0.0	-8.0	-2.0	0.0	70.0	73.0	125.0	80.0	75.0	972.2	47.0	86.0	-36.0	-954.0
1634986885.069564	6.0	0.0	0.0	-8.0	-3.0	0.0	70.0	73.0	126.0	90.0	75.0	972.2	47.0	83.0	-49.0	-954.0
1634986885.184808	6.0	2.0	0.0	-9.0	-3.0	0.0	70.0	73.0	129.0	90.0	75.0	972.17	47.0	72.0	-53.0	-957.0
1634986885.27335	5.0	2.0	0.0	-9.0	-3.0	0.0	70.0	73.0	126.0	90.0	75.0	972.23	47.0	96.0	-67.0	-984.0
1634986885.38453	5.0	3.0	0.0	-9.0	-3.0	0.0	70.0	73.0	125.0	90.0	75.0	972.15	47.0	74.0	-48.0	-966.0
1634986885.484828	4.0	4.0	0.0	-9.0	-3.0	1.0	70.0	73.0	126.0	90.0	75.0	972.18	47.0	93.0	-48.0	-987.0
1634986885.580269	3.0	5.0	0.0	-9.0	-3.0	1.0	70.0	73.0	125.0	90.0	75.0	972.17	47.0	89.0	-28.0	-952.0
1634986885.692935	1.0	1.0	0.0	-8.0	-2.0	1.0	70.0	74.0	124.0	90.0	75.0	972.13	47.0	109.0	-50.0	-956.0
1634986885.790232	0.0	-6.0	1.0	-8.0	-3.0	1.0	70.0	74.0	122.0	90.0	75.0	972.14	47.0	84.0	-54.0	-1022.0
1634986885.890342	-1.0	-6.0	1.0	-7.0	-5.0	1.0	70.0	74.0	124.0	90.0	75.0	972.06	47.0	78.0	-33.0	-1030.0
1634986886.001924	0.0	-5.0	1.0	-6.0	-7.0	1.0	70.0	74.0	121.0	90.0	75.0	972.11	48.0	72.0	-15.0	-985.0
1634986886.103754	0.0	-6.0	1.0	-5.0	-8.0	1.0	70.0	74.0	121.0	80.0	75.0	972.09	48.0	88.0	-47.0	-1057.0
1634986886.204311	0.0	-6.0	1.0	-5.0	-9.0	1.0	70.0	74.0	118.0	80.0	75.0	971.93	48.0	63.0	-15.0	-1065.0
1634986886.29818	-1.0	-6.0	1.0	-4.0	-10.0	1.0	70.0	74.0	115.0	80.0	75.0	971.98	48.0	61.0	-16.0	-1015.0
1634986886.402339	-2.0	-1.0	0.0	-3.0	-11.0	1.0	70.0	74.0	114.0	80.0	75.0	971.97	48.0	16.0	60.0	-1024.0
1634986886.500208	0.0	3.0	-9.0	-3.0	-11.0	1.0	70.0	74.0	113.0	80.0	75.0	972.02	48.0	50.0	17.0	-977.0
1634986886.609741	0.0	4.0	-18.0	-2.0	-10.0	1.0	70.0	74.0	109.0	80.0	75.0	972.06	48.0	28.0	17.0	-967.0
1634986886.701627	1.0	4.0	-24.0	-2.0	-9.0	1.0	71.0	73.0	109.0	80.0	75.0	971.97	48.0	15.0	-3.0	-1034.0
1634986886.81763	1.0	6.0	-25.0	-2.0	-8.0	1.0	71.0	73.0	107.0	80.0	75.0	971.93	48.0	25.0	29.0	-997.0
1634986886.914136	0.0	6.0	-26.0	-1.0	-7.0	1.0	71.0	73.0	105.0	80.0	75.0	971.94	48.0	40.0	12.0	-1040.0
