agz	pitch	roll	yaw	vgx	vgy	vgz	templ	temph	tof	h	bat	baro	time	agx	agy	timestamp
0	2	-7	-6	0	1	62	66	253	240	17	974.36	43	96	-50	-963	1634988040.0089
0	2	-7	-6	0	1	62	66	253	240	17	974.36	43	96	-50	-963	1634988040.06003
1	2	-7	-5	0	1	62	66	255	240	17	974.39	43	75	-31	-1006	1634988040.10813
2	2	-7	-5	0	1	62	66	250	240	17	974.36	43	66	-10	-1002	1634988040.20353
1	2	-7	-5	0	1	62	66	254	240	17	974.34	43	116	-49	-979	1634988040.30267
3	2	-7	-4	0	1	62	66	263	240	17	974.38	44	72	-9	-980	1634988040.4024
10	0	-7	-5	0	1	62	66	262	240	17	974.34	44	65	-42	-996	1634988040.5202
9	0	-7	-6	0	1	62	66	263	240	17	974.41	44	63	-6	-994	1634988040.62108
8	0	-7	-7	0	0	64	66	260	240	17	974.3	44	86	-13	-985	1634988040.71914
8	1	-7	-8	0	0	64	66	265	240	17	974.42	44	85	-19	-996	1634988040.81445
8	1	-7	-9	0	0	64	66	263	250	17	974.55	44	75	-6	-1027	1634988040.91907
7	2	-6	-9	0	0	64	66	259	250	17	974.41	44	107	-23	-1001	1634988041.0304
2	1	-6	-10	0	0	64	66	264	250	17	974.49	44	80	-24	-941	1634988041.07727
0	1	-7	-9	0	0	64	66	262	250	17	974.43	44	68	-4	-967	1634988041.18212
0	1	-7	-8	0	1	64	66	266	250	17	974.42	44	94	-38	-929	1634988041.27936
0	1	-7	-7	0	1	64	66	259	250	17	974.44	45	49	-10	-963	1634988041.37466
0	1	-6	-7	0	1	64	66	261	250	17	974.45	45	76	-5	-953	1634988041.47326
9	0	-6	-6	0	1	64	66	266	250	16	974.52	45	79	-8	-957	1634988041.59032
8	0	-6	-7	0	1	63	66	266	240	16	974.46	45	87	-9	-1068	1634988041.69171
8	0	-6	-8	0	1	63	66	261	240	16	974.49	45	72	-10	-1008	1634988041.79435
8	0	-7	-9	0	1	63	66	268	240	16	974.42	45	92	-14	-979	1634988041.89647
7	1	-7	-10	0	1	63	66	268	240	16	974.38	45	94	-23	-1005	1634988041.99213
2	1	-7	-10	0	1	63	66	260	240	16	974.45	45	114	-22	-979	1634988042.09178
0	1	-6	-9	1	1	63	66	260	240	16	974.53	45	75	-2	-1034	1634988042.20041
0	0	-7	-8	1	1	63	66	261	240	16	974.49	46	98	-7	-1017	1634988042.30437
0	0	-7	-7	0	1	63	66	259	240	16	974.44	46	97	-12	-1026	1634988042.40641
0	0	-7	-7	0	1	63	66	256	240	16	974.41	46	72	9	-962	1634988042.50772
0	1	-7	-6	0	1	63	66	254	240	16	974.37	46	70	-11	-1055	1634988042.604
0	1	-7	-6	0	1	63	66	253	240	16	974.41	46	56	-4	-1010	1634988042.70259
7	0	-7	-6	0	0	63	66	259	240	16	974.46	46	44	-21	-991	1634988042.79973
9	0	-7	-7	0	0	63	66	263	230	16	974.48	46	40	-7	-1024	1634988042.91084
8	0	-7	-8	0	0	63	66	263	230	16	974.56	46	52	6	-1000	1634988043.01778
2	1	-7	-9	0	0	63	66	263	230	16	974.45	46	74	-26	-1059	1634988043.11339
0	2	-7	-9	0	0	63	66	256	230	16	974.46	46	65	-3	-980	1634988043.21205
-2	1	-7	-8	0	0	63	66	261	230	16	974.41	47	63	5	-994	1634988043.3147
-1	0	-7	-7	1	0	63	66	260	230	16	974.59	47	50	-6	-981	1634988043.42602
-1	0	-7	-6	1	0	63	66	261	230	16	974.44	47	47	14	-1024	1634988043.52264
0	0	-7	-5	1	0	63	66	258	230	15	974.46	47	59	13	-1041	1634988043.62537
0	0	-7	-5	1	0	64	67	255	230	15	974.47	47	47	16	-1004	1634988043.72654
0	-1	-7	-4	1	0	64	67	262	230	15	974.52	47	38	-4	-994	1634988043.88377
0	-1	-7	-4	0	0	64	67	263	230	15	974.64	47	39	9	-1052	1634988044.02654
0	0	-7	-3	0	0	64	67	263	240	15	974.55	47	48	-16	-1028	1634988044.02654
4	0	-6	-4	0	0	64	67	267	240	15	974.57	47	63	-19	-925	1634988044.17754
9	0	-6	-5	0	0	64	67	272	240	15	974.62	47	36	-17	-1014	1634988044.32087
8	0	-6	-6	0	0	64	67	273	240	15	974.62	48	68	-41	-1000	1634988044.33789
8	1	-6	-7	0	0	64	67	270	240	15	974.61	48	70	-41	-1024	1634988044.44105
8	3	-6	-8	0	0	64	67	271	240	15	974.58	48	63	-33	-1010	1634988044.62297
4	3	-6	-9	0	0	64	67	270	240	15	974.62	48	65	-39	-1066	1634988044.7632
0	2	-6	-9	0	0	64	67	260	240	15	974.7	48	39	-55	-923	1634988044.7632
-1	2	-7	-8	0	1	64	67	258	240	15	974.63	48	63	-67	-907	1634988044.94046
-2	3	-7	-7	0	1	64	67	260	240	15	974.66	48	51	-62	-945	1634988044.95606
-1	2	-7	-6	0	1	64	67	262	240	15	974.64	48	29	-45	-978	1634988045.09191
-1	2	-7	-6	0	1	64	67	255	230	15	974.67	48	37	-57	-956	1634988045.25522
-1	2	-7	-5	0	1	64	67	252	230	15	974.62	48	44	-50	-1010	1634988045.26111
-2	2	-7	-5	0	1	64	67	254	230	15	974.65	49	39	-41	-1041	1634988045.35052
-1	3	-7	-5	0	0	64	67	254	230	15	974.61	49	10	-71	-1010	1634988045.46617
-2	4	-7	-4	0	0	64	67	253	230	15	974.54	49	-7	-34	-1131	1634988045.56427
-8	2	-6	-3	0	0	64	67	252	230	14	974.52	49	11	-44	-1066	1634988045.65884
-7	3	-6	-2	0	0	64	67	248	230	14	974.54	49	-19	-35	-1112	1634988045.75931
-4	2	-6	-1	0	0	64	67	243	230	14	974.52	49	-36	-37	-1000	1634988045.87571
-3	2	-7	-1	0	0	64	67	243	230	14	974.57	49	-23	-36	-981	1634988045.96496
-2	2	-7	-1	0	0	64	67	244	230	14	974.61	49	-16	-52	-1140	1634988046.07587
-2	2	-7	-1	0	0	64	67	236	230	14	974.42	49	-25	-24	-968	1634988046.17297
-3	2	-7	-1	0	0	64	67	233	230	14	974.45	49	-44	-36	-977	1634988046.22552
-9	1	-7	-1	0	0	64	67	232	230	14	974.37	50	-16	-35	-979	1634988046.32212
-8	1	-7	0	0	0	64	67	227	220	14	974.37	50	-47	-20	-993	1634988046.43299
-8	1	-8	0	0	0	64	67	225	220	14	974.14	50	-48	-32	-1063	1634988046.53935
-7	3	-8	1	-1	1	64	67	222	220	14	974.25	50	-23	-29	-1071	1634988046.63751
-5	3	-8	2	0	0	63	67	225	210	14	974.25	50	-23	-34	-1021	1634988046.78585
-2	3	-8	2	0	0	63	67	216	210	14	974.3	50	-34	-63	-997	1634988046.88148
-1	2	-8	2	0	0	63	67	216	210	14	974.32	50	-41	-20	-1075	1634988046.99234
-2	2	-8	2	0	0	63	67	213	210	14	974.24	50	-19	-49	-1072	1634988047.09121
-9	2	-8	2	0	0	63	67	214	210	14	974.18	50	-9	-39	-1028	1634988047.14125
-8	3	-8	3	0	0	63	67	218	210	14	974.28	50	-29	-35	-1038	1634988047.23658
-5	3	-8	5	0	0	63	67	214	210	14	974.13	51	-41	-28	-1050	1634988047.34105
-1	1	-8	5	0	-1	63	67	216	210	14	974.08	51	-41	-76	-1023	1634988047.44483
0	2	-7	5	0	-1	63	67	220	210	13	974.22	51	-52	4	-1067	1634988047.55798
0	3	-7	4	0	-1	63	67	220	210	13	974.26	51	-57	-1	-998	1634988047.64611
0	2	-7	4	0	-1	65	67	224	210	13	974.32	51	-66	42	-996	1634988047.76182
0	0	-7	3	0	-1	65	67	230	210	13	974.34	51	18	-13	-1024	1634988047.86425
0	0	-7	2	0	-1	65	67	236	210	13	974.35	51	-9	-11	-994	1634988047.96602
0	1	-7	2	0	-1	65	67	236	210	13	974.31	51	-15	-25	-960	1634988048.06115
-7	0	-7	2	0	-2	65	67	242	220	13	974.24	51	-14	-3	-924	1634988048.15819
-6	0	-7	3	0	-2	65	67	242	220	13	974.39	51	-56	16	-973	1634988048.26751
-1	1	-7	4	0	-2	65	67	250	220	13	974.47	52	-48	-11	-1007	1634988048.367
0	0	-7	4	0	-1	65	67	255	220	13	974.47	52	-29	-5	-965	1634988048.46254
0	0	-7	4	0	-1	65	67	251	220	13	974.62	52	-43	10	-959	1634988048.57794
0	0	-6	3	0	-1	65	67	260	230	13	974.64	52	-12	-4	-923	1634988048.6768
0	0	-6	3	0	-1	64	68	268	230	13	974.75	52	-17	-16	-922	1634988048.77552
0	-1	-6	2	0	-1	64	68	261	230	13	974.94	52	-19	-12	-907	1634988048.87539
-1	0	-6	2	0	0	64	68	275	240	13	974.8	52	-26	8	-1019	1634988048.9752
-8	0	-6	2	0	0	64	68	274	240	13	974.71	52	-11	-28	-955	1634988049.07761
-8	0	-6	4	0	0	64	68	281	240	13	974.66	52	-18	-35	-944	1634988049.18721
-8	0	-6	5	0	0	64	68	281	240	13	974.59	52	-7	-33	-929	1634988049.28507
-5	1	-6	6	0	0	64	68	278	240	13	974.76	53	-18	-33	-927	1634988049.38318
0	0	-6	7	0	0	64	68	275	240	13	974.73	53	-49	-23	-1008	1634988049.48615
1	1	-6	6	0	0	64	68	275	240	12	974.8	53	-28	-40	-1002	1634988049.58356
1	1	-6	5	0	0	64	68	281	240	12	974.86	53	-31	-39	-964	1634988049.69459
0	1	-6	4	0	0	65	68	277	240	12	974.72	53	-37	-45	-953	1634988049.78719
0	2	-6	3	0	0	65	68	276	240	12	974.69	53	-56	-18	-982	1634988049.90283
0	2	-6	2	0	0	65	68	269	240	12	974.78	53	-55	-25	-977	1634988049.99801
-2	2	-6	2	0	0	65	68	279	240	12	974.87	53	-22	-37	-992	1634988050.09736
-8	1	-7	3	0	1	65	68	282	240	12	974.83	53	-25	-65	-970	1634988050.20989
-8	0	-7	4	0	1	65	68	271	240	12	974.79	53	-40	-68	-962	1634988050.2579
-6	2	-7	6	-1	1	65	68	269	240	12	974.61	54	-63	-34	-1092	1634988050.34832
-1	2	-6	6	-1	1	65	68	262	240	12	974.62	54	-51	-64	-1058	1634988050.46487
0	3	-6	6	-1	1	65	68	263	240	12	974.65	54	-51	-19	-1041	1634988050.56152
0	3	-6	5	0	0	65	68	265	240	12	974.76	54	-38	-45	-926	1634988050.65965
1	1	-7	4	0	0	64	68	268	240	12	974.7	54	-30	-71	-959	1634988050.80741
0	1	-7	3	-1	1	64	68	258	230	12	974.61	54	-41	-66	-960	1634988050.90938
0	2	-7	3	-1	1	64	68	255	230	12	974.51	54	-22	-81	-997	1634988050.97527
0	3	-7	2	-1	1	64	68	254	230	12	974.53	54	-47	-54	-1092	1634988051.07186
-4	4	-7	3	-1	0	64	68	253	230	12	974.48	54	-21	-44	-984	1634988051.19073
-9	2	-7	4	-1	0	64	68	255	230	12	974.42	54	-29	-43	-1023	1634988051.27233
-8	1	-7	5	-1	0	64	68	245	230	12	974.38	55	-47	-29	-991	1634988051.36775
-8	1	-7	6	-1	0	64	68	243	230	12	974.31	55	-59	-31	-1082	1634988051.47677
-8	2	-7	7	-1	0	64	68	245	230	11	974.16	55	-74	-38	-1012	1634988051.57401
-7	3	-7	8	-1	0	64	68	246	230	11	974.26	55	-70	-23	-938	1634988051.68519
-3	2	-7	9	-1	0	65	67	241	230	11	974.32	55	-60	-49	-1023	1634988051.79128
0	2	-6	8	-1	0	65	67	236	230	11	974.35	55	-33	-67	-1007	1634988051.88958
0	2	-6	8	-1	0	65	67	232	230	11	974.46	55	-24	-54	-957	1634988051.98648
0	3	-6	7	-1	0	65	67	237	220	11	974.41	55	-18	-72	-904	1634988052.08948
0	2	-7	6	-1	0	65	67	231	220	11	974.3	55	-17	-65	-1025	1634988052.185
-7	2	-7	6	-1	0	65	67	235	220	11	974.37	55	-16	-47	-980	1634988052.29566
-7	3	-7	8	-2	0	65	67	226	220	11	974.33	56	-14	-71	-1007	1634988052.39513
-1	4	-7	9	-2	0	65	67	224	220	11	974.24	56	-41	-73	-956	1634988052.49227
2	4	-6	8	-1	0	65	67	223	220	11	974.35	56	-25	-59	-1077	1634988052.6018
2	3	-6	7	-1	0	65	67	222	210	11	974.11	56	-43	-74	-1044	1634988052.69606
1	3	-6	5	-1	0	64	67	221	210	11	974.01	56	-49	-49	-1075	1634988052.8124
0	4	-7	4	-1	0	64	67	219	210	11	973.93	56	-35	-42	-977	1634988052.90729
0	3	-7	4	0	0	64	67	212	200	11	973.96	56	-53	-5	-999	1634988053.00788
0	2	-7	4	0	0	64	67	214	200	11	974.06	56	-48	-24	-1011	1634988053.10317
0	1	-7	3	0	-1	64	67	209	200	11	974.1	56	-62	-26	-1013	1634988053.21435
-2	0	-7	3	0	-1	64	67	209	200	11	974.01	57	-64	-12	-1009	1634988053.31903
-9	0	-7	3	0	-1	64	67	214	200	11	974.06	57	-36	-20	-993	1634988053.41275
-9	0	-7	5	0	-1	64	67	213	200	11	974.1	57	-36	-7	-1005	1634988053.51173
-8	0	-7	6	0	-2	64	67	212	200	10	974.18	57	-61	-29	-1025	1634988053.62512
-8	0	-7	7	0	-1	64	67	214	200	10	974.06	57	-49	-55	-953	1634988053.73096
-8	1	-7	8	0	-1	64	68	212	200	10	973.88	57	-35	-62	-990	1634988053.82944
-5	2	-7	9	0	-2	64	68	211	210	10	973.98	57	-46	-28	-991	1634988053.92665
0	1	-7	9	0	-2	64	68	217	210	10	973.93	57	-74	-28	-1014	1634988054.02362
0	1	-7	8	0	-1	64	68	219	210	10	973.95	57	-48	-49	-964	1634988054.13608
1	1	-7	7	0	-1	64	68	219	210	10	974.07	57	-50	-35	-957	1634988054.22856
1	1	-7	6	0	-1	64	68	218	210	10	974.12	58	-44	-44	-1013	1634988054.3401
0	2	-7	6	0	-1	64	68	221	210	10	974.1	58	-70	-3	-1046	1634988054.43661
0	2	-7	5	0	-1	64	68	223	210	10	974.17	58	-52	-16	-1041	1634988054.54397
0	2	-7	5	0	-1	64	68	226	210	10	974.27	58	-32	-35	-1033	1634988054.6341
-2	1	-7	4	0	-1	64	68	229	210	10	974.24	58	-13	-32	-1051	1634988054.74581
-9	0	-6	5	0	-1	65	68	231	210	10	974.27	58	5	-32	-984	1634988054.83543
-9	1	-7	7	-1	-1	65	68	232	210	10	974.25	58	-25	-20	-1037	1634988054.94984
-8	1	-7	9	-1	-1	65	68	238	210	10	974.33	58	-18	-47	-1000	1634988055.04519
-4	2	-7	10	-1	-1	65	68	240	210	10	974.31	58	-31	-60	-1147	1634988055.14635
0	2	-7	10	-1	-1	65	68	240	210	10	974.37	58	-28	-21	-958	1634988055.2438
2	2	-7	9	0	-1	65	68	241	220	10	974.33	59	-38	-11	-1009	1634988055.39992
2	0	-6	7	0	-1	65	68	249	220	10	974.24	59	-39	-6	-996	1634988055.54621
1	1	-6	6	0	-1	65	68	246	220	10	974.39	59	-38	-9	-986	1634988055.56182
5	0	-6	6	0	-1	65	68	256	220	9	974.45	59	-11	-17	-985	1634988055.68894
9	0	-6	4	0	-1	65	68	255	220	9	974.45	59	12	-38	-1036	1634988055.70456
8	0	-6	3	0	-1	65	68	258	230	9	974.58	59	0	-3	-1003	1634988055.8562
8	-1	-6	1	-1	-1	65	68	258	230	9	974.59	59	4	-27	-980	1634988055.99264
8	0	-6	0	-1	0	65	68	263	230	9	974.63	59	10	-27	-967	1634988056.12654
8	0	-6	0	-1	0	65	68	265	230	9	974.68	59	11	-7	-976	1634988056.17679
8	0	-6	-1	-1	0	65	68	261	230	9	974.54	59	22	-23	-1105	1634988056.31066
8	0	-6	-2	-1	0	65	68	254	230	9	974.57	60	17	-32	-924	1634988056.32816
8	0	-6	-3	-1	0	65	68	262	230	9	974.68	60	0	-16	-1023	1634988056.45669
7	-1	-6	-4	-2	0	65	68	254	230	9	974.6	60	24	-49	-1003	1634988056.62149
8	0	-7	-5	-2	0	65	68	250	230	9	974.54	60	61	-67	-1027	1634988056.63476
8	3	-6	-5	-2	0	65	68	248	230	9	974.5	60	68	-60	-1054	1634988056.7279
7	3	-7	-6	-2	0	65	67	245	230	9	974.61	60	75	-36	-996	1634988056.83945
5	4	-7	-7	-1	0	65	67	240	230	9	974.55	60	52	8	-956	1634988056.93717
2	4	-8	-6	0	0	65	67	233	230	9	974.35	60	75	7	-943	1634988057.03593
1	2	-8	-6	0	0	65	67	229	230	9	974.44	60	66	24	-981	1634988057.14558
0	0	-8	-5	0	0	65	67	229	220	9	974.35	60	74	21	-976	1634988057.24309
1	0	-8	-4	0	0	65	67	227	220	9	974.41	61	58	45	-1003	1634988057.35083
1	0	-8	-3	0	0	65	67	221	220	9	974.37	61	57	24	-997	1634988057.45193
7	-1	-7	-3	0	0	65	67	225	210	9	974.33	61	51	28	-1061	1634988057.55397
9	-1	-7	-5	0	0	65	67	223	210	9	974.36	61	46	16	-1070	1634988057.6477
7	-1	-7	-6	0	0	65	67	220	210	9	974.4	61	62	0	-1061	1634988057.74306
1	0	-7	-7	0	0	64	68	216	210	9	974.4	61	83	-1	-1035	1634988057.85912
0	0	-7	-6	0	0	64	68	218	210	9	974.37	61	60	-7	-1064	1634988057.95593
-1	1	-7	-5	0	-1	64	68	222	200	9	974.39	61	91	10	-1072	1634988058.05775
0	0	-7	-4	0	-1	64	68	226	210	9	974.28	61	62	-1	-997	1634988058.1533
1	0	-6	-3	0	-1	64	68	231	210	9	974.4	61	59	-36	-907	1634988058.26444
1	1	-6	-3	0	0	64	68	233	210	9	974.4	62	66	-29	-901	1634988058.36656
1	1	-6	-3	0	0	64	68	233	210	9	974.49	62	47	-20	-896	1634988058.46028
1	2	-6	-3	0	0	64	68	231	210	9	974.41	62	51	-3	-843	1634988058.559
2	2	-7	-3	0	2	64	68	231	210	9	974.36	62	46	10	-832	1634988058.66236
7	1	-6	-3	0	3	64	68	234	210	9	974.3	62	61	-22	-858	1634988058.77352
8	0	-7	-4	0	4	65	67	234	200	9	974.3	62	71	-22	-847	1634988058.86994
5	0	-7	-5	0	5	65	67	225	200	9	974.33	62	59	-8	-882	1634988058.96949
2	1	-7	-5	0	7	65	67	220	190	9	974.29	62	40	-34	-888	1634988059.07015
1	1	-7	-5	0	8	65	67	212	180	9	974.29	62	47	-19	-925	1634988059.17036
0	1	-7	-4	0	8	65	67	208	180	9	974.24	62	64	-53	-931	1634988059.28367
0	2	-7	-3	0	9	65	67	200	170	9	974.15	63	51	-26	-951	1634988059.38101
1	2	-7	-3	0	9	65	67	193	160	9	974.19	63	38	-39	-964	1634988059.49111
1	2	-7	-3	0	9	65	67	189	150	8	974.1	63	64	-41	-931	1634988059.58687
1	1	-7	-2	0	10	65	67	183	140	8	974.07	63	2	-16	-1000	1634988059.69533
1	2	-8	-2	0	9	65	67	174	140	8	973.9	63	66	-38	-1015	1634988059.79744
0	3	-8	-2	0	9	65	69	163	130	8	973.85	63	55	-60	-1049	1634988059.8842
0	3	-8	-2	0	8	65	69	162	120	8	973.91	63	47	-53	-1026	1634988059.9991
0	3	-7	-2	0	8	65	69	157	120	8	974.06	63	37	-68	-1027	1634988060.09349
0	2	-7	-1	0	7	65	69	149	110	8	973.98	63	30	-53	-1122	1634988060.1519
-1	2	-8	-1	0	7	65	69	146	110	8	973.88	63	43	-27	-1004	1634988060.25438
-1	4	-9	-1	0	6	65	69	143	110	8	973.67	64	38	-50	-1165	1634988060.35176
0	3	-9	0	0	5	65	69	139	100	8	973.83	64	26	-46	-978	1634988060.46025
0	3	-8	0	0	4	65	69	138	100	8	973.71	64	9	-14	-1033	1634988060.55831
0	3	-7	0	0	4	65	69	133	90	8	973.68	64	54	-99	-1061	1634988060.65269
0	3	-7	0	0	4	65	69	132	90	8	973.56	64	17	-27	-1022	1634988060.752
0	3	-7	0	0	3	65	68	128	90	8	973.5	64	16	-43	-1045	1634988060.86595
0	2	-6	0	0	3	65	68	126	80	8	973.44	64	43	-48	-982	1634988060.96229
0	2	-6	0	0	3	65	68	123	80	8	973.43	64	42	-36	-976	1634988061.06709
1	2	-6	0	0	3	65	68	122	80	8	973.38	64	0	-28	-990	1634988061.16497
2	3	-6	0	0	3	65	68	118	70	8	973.38	64	6	-21	-1007	1634988061.26107
1	3	-6	0	0	3	65	68	115	70	8	973.32	65	22	-50	-973	1634988061.36383
1	2	-6	0	0	3	65	68	112	70	8	973.25	65	45	-50	-964	1634988061.47785
1	2	-6	0	0	3	65	68	107	70	8	973.25	65	14	-56	-921	1634988061.57304
1	1	-6	0	0	4	65	68	102	60	8	973.25	65	17	-43	-957	1634988061.68108
1	2	-6	0	0	4	65	68	97	60	8	973.14	65	14	-46	-1023	1634988061.77653
2	2	-6	0	0	4	65	69	91	50	8	973.12	65	23	-84	-1057	1634988061.88155
2	2	-6	0	0	4	65	69	85	50	8	973	65	9	-65	-1071	1634988061.98514
1	3	-6	0	0	4	65	69	78	40	8	972.94	65	22	-81	-965	1634988062.08088
1	4	-6	0	0	4	65	69	70	40	8	972.81	65	7	-66	-1072	1634988062.19199
1	4	-6	0	0	4	65	69	62	30	8	972.85	65	24	-66	-956	1634988062.2972
1	4	-6	0	0	4	65	69	54	30	8	972.75	66	8	-64	-1030	1634988062.39391
0	4	-6	0	0	4	65	69	45	20	8	972.74	66	14	-87	-1015	1634988062.49248
0	4	-6	0	0	4	65	69	36	20	8	972.61	66	10	-62	-949	1634988062.59171
0	2	-6	0	0	4	65	69	27	20	8	972.39	66	-3	-57	-1069	1634988062.69193
0	2	-6	0	0	4	65	69	19	10	8	972.26	66	7	-48	-1139	1634988062.80127
0	3	-7	0	0	5	66	68	14	0	8	970.22	66	31	-54	-1113	1634988062.90723
0	2	-7	0	0	4	66	68	11	0	8	967.19	66	-23	-26	-1244	1634988063.00807
0	2	-7	0	0	4	66	68	11	0	8	967.19	66	-23	-26	-1244	1634988063.05493
0	0	-6	0	0	0	66	68	10	0	8	970.72	66	12	-5	-876	1634988063.10335
6	14	-4	0	0	0	66	68	10	0	8	971.14	66	54	-14	-285	1634988063.20886
-1	0	-3	0	0	3	66	68	10	0	8	971.53	66	-86	13	-636	1634988063.30678
-1	0	-2	0	0	2	66	68	10	0	8	971.8	66	-23	13	-965	1634988063.41632
-1	0	-2	0	0	3	66	68	10	0	8	971.89	66	-23	18	-966	1634988063.51011
-1	0	-2	0	0	3	66	68	10	0	8	972.01	66	-15	13	-965	1634988063.62128
-1	0	-2	0	0	4	66	68	10	0	8	972.03	66	-30	9	-963	1634988063.7239
-1	0	-2	0	0	5	66	68	10	0	8	972.1	66	-21	17	-968	1634988063.81599
-1	0	-2	0	0	6	66	68	10	-10	8	972.15	66	-32	31	-961	1634988063.92923
-1	0	-2	0	0	6	66	68	10	-10	8	972.15	66	-12	15	-969	1634988064.02608
-1	-1	-2	0	0	6	66	68	10	-20	8	972.18	66	-20	20	-969	1634988064.13047
-1	-1	-2	0	0	6	66	68	10	-20	8	972.15	66	-22	21	-967	1634988064.22726
-1	-1	-2	0	0	0	66	68	10	-20	8	972.18	66	-20	18	-969	1634988064.27433
-1	-1	-2	0	0	0	66	68	10	-20	8	972.2	66	-20	19	-969	1634988064.37739
-1	-1	-2	0	0	0	66	68	10	-10	8	972.2	66	-20	18	-969	1634988064.48137
-1	-1	-2	0	0	0	66	68	10	-10	8	972.19	66	-19	20	-968	1634988064.57861
-1	-1	-2	0	0	0	66	68	10	-10	8	972.13	66	-20	19	-973	1634988064.69417
-1	-1	-2	0	0	0	66	68	10	0	8	972.16	66	-21	19	-969	1634988064.79681
-1	-1	-2	0	0	0	66	68	10	0	8	972.21	66	-22	20	-970	1634988064.89787
-1	-1	-2	0	0	0	66	68	10	0	8	972.16	66	-19	19	-971	1634988064.9899
-1	-1	-2	0	0	0	66	68	10	0	8	972.19	66	-20	20	-972	1634988065.10222
-1	-1	-2	0	0	0	66	68	10	0	8	972.18	66	-21	20	-972	1634988065.19722
-1	-1	-2	0	0	0	66	68	10	0	8	972.2	66	-22	20	-976	1634988065.30325
-1	-1	-2	0	0	0	66	68	10	0	8	972.15	66	-20	19	-974	1634988065.39874
-1	-1	-2	0	0	0	66	68	10	0	8	972.24	66	-21	18	-978	1634988065.51009
-1	-1	-2	0	0	0	66	68	10	0	8	972.21	66	-20	19	-977	1634988065.59771
-1	-1	-2	0	0	0	66	68	10	0	8	972.2	66	-18	19	-977	1634988065.7085
-1	-1	-2	0	0	0	66	68	10	0	8	972.23	66	-22	19	-976	1634988065.81665
-1	-1	-2	0	0	0	65	68	10	0	8	972.24	66	-20	19	-979	1634988065.90506
-1	-1	-2	0	0	0	65	68	10	0	8	972.19	66	-20	17	-980	1634988066.02004
-1	-1	-2	0	0	0	65	68	10	0	8	972.16	66	-20	20	-982	1634988066.11502
-1	-1	-2	0	0	0	65	68	10	0	8	972.22	66	-21	19	-981	1634988066.21943
-1	-1	-2	0	0	0	65	68	10	0	8	972.21	66	-19	20	-981	1634988066.31673
-1	-1	-2	0	0	0	65	68	10	0	8	972.21	66	-19	19	-983	1634988066.42607
-1	-1	-2	0	0	0	65	68	10	0	8	972.12	66	-20	20	-983	1634988066.51601
-1	-1	-2	0	0	0	65	68	10	0	8	972.21	66	-20	18	-980	1634988066.63027
-1	-1	-2	0	0	0	65	68	10	0	8	972.23	66	-32	38	-970	1634988066.76565
-1	-1	-2	0	0	0	65	68	10	0	8	972.26	66	-10	32	-983	1634988066.92209
1	-2	-1	0	1	-1	66	68	10	0	8	972.22	66	-114	28	-1460	1634988066.93896
0	-5	-4	0	1	-5	66	68	10	0	8	972.26	66	149	210	-1337	1634988067.06547
-4	-9	-1	1	2	-8	66	68	10	0	8	972.38	66	52	184	-1376	1634988067.21405
-9	-13	5	2	2	-12	66	68	30	20	8	972.53	66	-260	204	-1365	1634988067.24386
-14	-17	11	2	1	-15	66	68	48	30	8	972.66	66	-356	241	-1096	1634988067.36387
-19	-19	18	1	0	-16	66	68	69	50	8	972.81	66	-459	297	-866	1634988067.49465
-26	-23	28	0	0	-16	66	68	98	70	8	972.98	66	-413	313	-615	1634988067.54415
-36	-30	41	0	0	-13	66	68	136	80	8	973.18	66	-193	236	-404	1634988067.67997
-45	-35	50	1	0	-8	66	68	181	100	8	973.23	66	-222	240	-290	1634988067.82142
-52	-37	54	1	1	-2	66	68	223	100	8	973.25	66	-315	208	-229	1634988067.84177
-52	-38	56	1	1	0	66	69	233	110	8	973.32	66	-703	373	-368	1634988067.9806
-51	-35	53	1	1	0	66	69	220	110	8	973.29	66	-849	292	-519	1634988068.13122
-51	-35	52	1	0	0	66	69	211	110	8	973.28	66	-796	314	-451	1634988068.13222
-51	-34	51	0	0	0	66	69	208	110	8	973.26	66	-717	301	-468	1634988068.21378
-49	-34	51	0	1	0	66	69	200	0	8	973.25	66	-921	487	-525	1634988068.3158
-50	-35	50	0	0	-1	66	69	206	0	8	973.26	66	-810	327	-516	1634988068.41805
-52	-35	50	0	0	-1	66	69	213	0	8	973.29	66	-672	327	-467	1634988068.51895
-51	-37	50	0	1	0	66	69	208	0	8	973.27	66	-755	473	-409	1634988068.6126
-50	-36	46	-1	1	0	66	69	207	0	8	973.28	66	-858	360	-525	1634988068.72219
