timestamp	pitch	roll	yaw	vgx	vgy	vgz	templ	temph	tof	h	bat	baro	time	agx	agy	agz
1634987988.34141
1634987988.447978	-1.0	0.0	0.0	0.0	0.0	0.0	51.0	55.0	10.0	0.0	39.0	971.57	0.0	-24.0	14.0	-1001.0
1634987988.550871	-1.0	0.0	0.0	0.0	0.0	0.0	51.0	55.0	10.0	0.0	39.0	971.57	0.0	-27.0	15.0	-996.0
1634987988.652186	-1.0	0.0	0.0	0.0	0.0	0.0	51.0	55.0	10.0	0.0	39.0	971.59	0.0	-25.0	15.0	-999.0
1634987988.751656	-1.0	0.0	0.0	0.0	0.0	0.0	51.0	55.0	10.0	0.0	39.0	971.6	0.0	-27.0	13.0	-998.0
1634987988.855907	-1.0	0.0	0.0	0.0	0.0	0.0	51.0	55.0	10.0	0.0	39.0	971.61	0.0	-25.0	14.0	-999.0
1634987988.957774	-1.0	0.0	0.0	0.0	0.0	0.0	51.0	55.0	10.0	0.0	39.0	971.61	0.0	-24.0	13.0	-999.0
1634987989.045772	-1.0	0.0	0.0	0.0	0.0	0.0	51.0	55.0	10.0	0.0	39.0	971.54	0.0	-25.0	13.0	-999.0
1634987989.162313	-1.0	0.0	0.0	0.0	0.0	0.0	51.0	55.0	10.0	0.0	39.0	971.59	0.0	-25.0	13.0	-997.0
1634987989.264298	-1.0	0.0	0.0	0.0	0.0	0.0	51.0	55.0	10.0	0.0	39.0	971.54	0.0	-24.0	12.0	-999.0
1634987989.363729	-1.0	0.0	0.0	0.0	0.0	0.0	51.0	56.0	10.0	0.0	39.0	971.52	0.0	-25.0	14.0	-997.0
1634987989.467099	-1.0	0.0	0.0	0.0	0.0	0.0	51.0	56.0	10.0	0.0	39.0	971.5	0.0	-24.0	14.0	-1001.0
1634987989.56947	-1.0	0.0	0.0	0.0	0.0	0.0	51.0	56.0	10.0	0.0	39.0	971.56	0.0	-26.0	12.0	-998.0
1634987989.667262	-1.0	0.0	0.0	0.0	0.0	0.0	51.0	56.0	10.0	0.0	39.0	971.55	0.0	-25.0	14.0	-998.0
1634987989.773793	-1.0	0.0	0.0	0.0	0.0	0.0	51.0	56.0	10.0	0.0	39.0	971.58	0.0	-24.0	13.0	-998.0
1634987989.877587	-1.0	0.0	0.0	0.0	0.0	0.0	51.0	56.0	10.0	0.0	39.0	971.57	0.0	-24.0	13.0	-1000.0
1634987989.976088	-1.0	0.0	0.0	0.0	0.0	0.0	51.0	56.0	10.0	0.0	39.0	971.55	0.0	-26.0	14.0	-999.0
1634987990.079522	-1.0	0.0	0.0	0.0	0.0	0.0	51.0	56.0	10.0	0.0	39.0	971.57	0.0	-25.0	14.0	-1001.0
1634987990.177342	-1.0	0.0	0.0	0.0	0.0	0.0	51.0	56.0	10.0	0.0	39.0	971.52	0.0	-26.0	14.0	-999.0
1634987990.2768	-1.0	0.0	0.0	0.0	0.0	0.0	51.0	56.0	10.0	0.0	39.0	971.55	0.0	-24.0	15.0	-1001.0
1634987990.383631	-1.0	0.0	0.0	0.0	0.0	0.0	53.0	55.0	10.0	0.0	39.0	971.5	0.0	-24.0	14.0	-1001.0
1634987990.47754	-1.0	0.0	0.0	0.0	0.0	0.0	53.0	55.0	10.0	0.0	39.0	971.54	0.0	-24.0	13.0	-1001.0
1634987990.540637	-1.0	0.0	0.0	0.0	0.0	0.0	53.0	55.0	10.0	0.0	38.0	971.56	0.0	-25.0	14.0	-999.0
1634987990.630524	-1.0	0.0	0.0	0.0	0.0	0.0	53.0	55.0	10.0	0.0	38.0	971.53	0.0	-25.0	15.0	-1000.0
1634987990.729295	-1.0	0.0	0.0	0.0	0.0	0.0	53.0	55.0	10.0	0.0	38.0	971.5	0.0	-25.0	14.0	-998.0
1634987990.836761	-1.0	0.0	0.0	0.0	0.0	0.0	53.0	55.0	10.0	0.0	38.0	971.49	0.0	-26.0	14.0	-1000.0
1634987990.947633	-1.0	0.0	0.0	0.0	0.0	0.0	53.0	55.0	10.0	0.0	38.0	971.52	0.0	-25.0	13.0	-999.0
1634987991.047146	-1.0	0.0	0.0	0.0	0.0	0.0	53.0	55.0	10.0	0.0	38.0	971.53	0.0	-25.0	12.0	-997.0
1634987991.142581	-1.0	0.0	0.0	0.0	0.0	0.0	53.0	55.0	10.0	0.0	38.0	971.53	0.0	-25.0	13.0	-996.0
1634987991.248555	-1.0	0.0	0.0	0.0	0.0	0.0	53.0	55.0	10.0	0.0	38.0	971.5	0.0	-26.0	12.0	-1001.0
1634987991.342279	-1.0	0.0	0.0	0.0	0.0	0.0	53.0	55.0	10.0	0.0	38.0	971.49	0.0	-26.0	14.0	-1002.0
1634987991.454764	-1.0	0.0	0.0	0.0	0.0	0.0	53.0	55.0	10.0	0.0	38.0	971.51	0.0	-26.0	14.0	-998.0
1634987991.545455	-1.0	0.0	0.0	0.0	0.0	0.0	53.0	55.0	10.0	0.0	38.0	971.48	0.0	-26.0	14.0	-998.0
1634987991.657922	-1.0	0.0	0.0	0.0	0.0	0.0	53.0	55.0	10.0	0.0	38.0	971.49	0.0	-25.0	15.0	-1000.0
1634987991.764216	-1.0	0.0	0.0	0.0	0.0	0.0	53.0	55.0	10.0	0.0	38.0	971.48	0.0	-27.0	13.0	-998.0
1634987991.866787	-1.0	0.0	0.0	0.0	0.0	0.0	53.0	55.0	10.0	0.0	38.0	971.47	0.0	-25.0	14.0	-997.0
1634987991.963481	-1.0	0.0	0.0	0.0	0.0	0.0	53.0	55.0	10.0	0.0	38.0	971.5	0.0	-26.0	12.0	-999.0
1634987992.060551	-1.0	0.0	0.0	0.0	0.0	0.0	53.0	55.0	10.0	0.0	38.0	971.48	0.0	-25.0	14.0	-998.0
1634987992.168094	-1.0	0.0	0.0	0.0	0.0	0.0	53.0	55.0	10.0	0.0	38.0	971.49	0.0	-24.0	14.0	-999.0
1634987992.268706	-1.0	0.0	0.0	0.0	0.0	0.0	53.0	55.0	10.0	0.0	38.0	971.51	0.0	-26.0	13.0	-999.0
1634987992.362437	-1.0	0.0	0.0	0.0	0.0	0.0	53.0	56.0	10.0	0.0	38.0	971.49	0.0	-27.0	15.0	-1000.0
1634987992.47635	-1.0	0.0	0.0	0.0	0.0	0.0	53.0	56.0	10.0	0.0	38.0	971.47	0.0	-26.0	14.0	-1000.0
1634987992.578885	-1.0	0.0	0.0	0.0	0.0	0.0	53.0	56.0	10.0	0.0	38.0	971.5	0.0	-26.0	14.0	-998.0
1634987992.674306	-1.0	0.0	0.0	0.0	0.0	0.0	53.0	56.0	10.0	0.0	38.0	971.47	0.0	-25.0	13.0	-1000.0
1634987992.773123	-1.0	0.0	0.0	0.0	0.0	0.0	53.0	56.0	10.0	0.0	38.0	971.46	0.0	-25.0	14.0	-998.0
1634987992.886423	-1.0	0.0	0.0	0.0	0.0	0.0	53.0	56.0	10.0	0.0	38.0	971.42	0.0	-25.0	14.0	-1000.0
1634987992.981415	-1.0	0.0	0.0	0.0	0.0	0.0	53.0	56.0	10.0	0.0	38.0	971.45	0.0	-26.0	14.0	-1000.0
1634987993.080329	-1.0	0.0	0.0	0.0	0.0	0.0	53.0	56.0	10.0	0.0	38.0	971.46	0.0	-23.0	13.0	-1000.0
1634987993.12719	-1.0	0.0	0.0	0.0	0.0	0.0	53.0	56.0	10.0	0.0	38.0	971.45	0.0	-25.0	13.0	-997.0
1634987993.236542	-1.0	0.0	0.0	0.0	0.0	0.0	53.0	56.0	10.0	0.0	38.0	971.48	0.0	-26.0	14.0	-998.0
1634987993.338908	-1.0	0.0	0.0	0.0	0.0	0.0	54.0	56.0	10.0	0.0	38.0	971.44	0.0	-25.0	13.0	-1000.0
1634987993.446843	-1.0	0.0	0.0	0.0	0.0	0.0	54.0	56.0	10.0	0.0	38.0	971.46	0.0	-25.0	15.0	-1000.0
1634987993.545173	-1.0	0.0	0.0	0.0	0.0	0.0	54.0	56.0	10.0	0.0	38.0	971.49	0.0	-25.0	12.0	-999.0
1634987993.635556	-1.0	0.0	0.0	0.0	0.0	0.0	54.0	56.0	10.0	0.0	38.0	971.45	0.0	-25.0	14.0	-997.0
1634987993.749547	-1.0	0.0	0.0	0.0	0.0	0.0	54.0	56.0	10.0	0.0	38.0	971.45	0.0	-27.0	14.0	-998.0
1634987993.855515	-1.0	0.0	0.0	0.0	0.0	0.0	54.0	56.0	10.0	0.0	38.0	971.47	0.0	-25.0	12.0	-998.0
1634987993.942053	-1.0	0.0	0.0	0.0	0.0	0.0	54.0	56.0	10.0	0.0	38.0	971.5	0.0	-27.0	14.0	-999.0
1634987994.053278	-1.0	0.0	0.0	0.0	0.0	0.0	54.0	56.0	10.0	0.0	38.0	971.5	0.0	-24.0	13.0	-997.0
1634987994.147006	-1.0	0.0	0.0	0.0	0.0	0.0	54.0	56.0	10.0	0.0	38.0	971.5	0.0	-25.0	12.0	-998.0
1634987994.262237	-1.0	0.0	0.0	0.0	0.0	0.0	54.0	56.0	10.0	0.0	38.0	971.49	0.0	-26.0	13.0	-997.0
1634987994.359183	-1.0	0.0	0.0	0.0	0.0	0.0	54.0	57.0	10.0	0.0	38.0	971.5	0.0	-25.0	14.0	-999.0
1634987994.452915	-1.0	0.0	0.0	0.0	0.0	0.0	54.0	57.0	10.0	0.0	38.0	971.49	0.0	-25.0	15.0	-1000.0
1634987994.568566	-1.0	0.0	0.0	0.0	0.0	0.0	54.0	57.0	10.0	0.0	38.0	971.54	0.0	-27.0	11.0	-1000.0
1634987994.667409	-1.0	0.0	0.0	0.0	0.0	0.0	54.0	57.0	10.0	0.0	38.0	971.52	0.0	-27.0	13.0	-999.0
1634987994.766539	-1.0	0.0	0.0	0.0	0.0	0.0	54.0	57.0	10.0	0.0	38.0	971.56	0.0	-25.0	13.0	-998.0
1634987994.869741	-1.0	0.0	0.0	0.0	0.0	0.0	54.0	57.0	10.0	0.0	38.0	971.49	0.0	-26.0	14.0	-1001.0
1634987994.963468	-1.0	0.0	0.0	0.0	0.0	0.0	54.0	57.0	10.0	0.0	38.0	971.49	0.0	-25.0	14.0	-1000.0
1634987995.072818	-1.0	0.0	0.0	0.0	0.0	0.0	54.0	57.0	10.0	0.0	38.0	971.5	0.0	-27.0	14.0	-998.0
1634987995.171679	-1.0	0.0	0.0	0.0	0.0	0.0	54.0	57.0	10.0	0.0	38.0	971.52	0.0	-25.0	14.0	-1000.0
1634987995.28274	-1.0	0.0	0.0	0.0	0.0	0.0	54.0	57.0	10.0	0.0	38.0	971.53	0.0	-27.0	14.0	-997.0
1634987995.380949	-1.0	0.0	0.0	0.0	0.0	0.0	54.0	57.0	10.0	0.0	38.0	971.5	0.0	-25.0	13.0	-998.0
1634987995.486788	-1.0	0.0	0.0	0.0	0.0	0.0	54.0	57.0	10.0	0.0	38.0	971.54	0.0	-25.0	15.0	-1000.0
1634987995.584225	-1.0	0.0	0.0	0.0	0.0	0.0	54.0	57.0	10.0	0.0	38.0	971.51	0.0	-26.0	13.0	-999.0
1634987995.631269	-1.0	0.0	0.0	0.0	0.0	0.0	54.0	57.0	10.0	0.0	38.0	971.5	0.0	-26.0	13.0	-998.0
1634987995.733385	-1.0	0.0	0.0	0.0	0.0	0.0	54.0	57.0	10.0	0.0	38.0	971.54	0.0	-27.0	15.0	-998.0
1634987995.843791	-1.0	0.0	0.0	0.0	0.0	0.0	54.0	57.0	10.0	0.0	38.0	971.55	0.0	-26.0	13.0	-997.0
1634987995.94036	-1.0	0.0	0.0	0.0	0.0	0.0	54.0	57.0	10.0	0.0	38.0	971.56	0.0	-27.0	14.0	-998.0
1634987996.039411	-1.0	0.0	0.0	0.0	0.0	0.0	54.0	57.0	10.0	0.0	38.0	971.5	0.0	-27.0	14.0	-996.0
1634987996.148755	-1.0	0.0	0.0	0.0	0.0	0.0	54.0	57.0	10.0	0.0	38.0	971.55	0.0	-26.0	12.0	-997.0
1634987996.242486	-1.0	0.0	0.0	0.0	0.0	0.0	54.0	57.0	10.0	0.0	38.0	971.56	0.0	-27.0	14.0	-997.0
1634987996.343191	-1.0	0.0	0.0	0.0	0.0	0.0	55.0	57.0	10.0	0.0	38.0	971.54	0.0	-24.0	13.0	-998.0
1634987996.454154	-1.0	0.0	0.0	0.0	0.0	0.0	55.0	57.0	10.0	0.0	38.0	971.54	0.0	-26.0	13.0	-1001.0
1634987996.549519	-1.0	0.0	0.0	0.0	0.0	0.0	55.0	57.0	10.0	0.0	38.0	971.54	0.0	-28.0	14.0	-1000.0
1634987996.644874	-1.0	0.0	0.0	0.0	0.0	0.0	55.0	57.0	10.0	0.0	38.0	971.54	0.0	-26.0	11.0	-1002.0
1634987996.756035	-1.0	0.0	0.0	0.0	0.0	0.0	55.0	57.0	10.0	0.0	38.0	971.54	0.0	-32.0	29.0	-1000.0
1634987996.879382	-1.0	0.0	-1.0	0.0	0.0	0.0	55.0	57.0	10.0	0.0	38.0	971.54	0.0	-24.0	-1.0	-985.0
1634987997.019779	-2.0	0.0	-1.0	0.0	0.0	0.0	55.0	57.0	10.0	0.0	38.0	971.54	0.0	0.0	-6.0	-1002.0
1634987997.167273	-2.0	-1.0	-2.0	1.0	0.0	-1.0	55.0	57.0	20.0	0.0	38.0	971.54	0.0	28.0	-12.0	-992.0
1634987997.167273	2.0	0.0	-2.0	2.0	-1.0	-4.0	55.0	57.0	20.0	0.0	38.0	971.54	0.0	36.0	-11.0	-1091.0
1634987997.309435	5.0	2.0	-2.0	2.0	-1.0	-6.0	55.0	57.0	19.0	10.0	38.0	971.69	0.0	39.0	-20.0	-1185.0
1634987997.371927	5.0	1.0	-2.0	2.0	0.0	-7.0	55.0	58.0	20.0	20.0	38.0	971.84	1.0	132.0	-4.0	-1062.0
1634987997.499711	7.0	1.0	-2.0	2.0	0.0	-8.0	55.0	58.0	26.0	20.0	38.0	972.06	1.0	125.0	-39.0	-1123.0
1634987997.674827	9.0	2.0	-2.0	2.0	0.0	-8.0	55.0	58.0	34.0	30.0	38.0	972.1	1.0	108.0	-21.0	-957.0
1634987997.689172	9.0	2.0	-2.0	2.0	0.0	-7.0	55.0	58.0	43.0	40.0	38.0	972.16	1.0	112.0	-19.0	-922.0
1634987997.776805	8.0	1.0	-2.0	0.0	0.0	-6.0	55.0	58.0	50.0	40.0	38.0	972.3	1.0	89.0	-43.0	-916.0
1634987997.947197	6.0	1.0	-2.0	0.0	0.0	-5.0	55.0	58.0	56.0	50.0	38.0	972.34	1.0	105.0	-40.0	-868.0
1634987998.081942	6.0	2.0	-2.0	0.0	0.0	-4.0	55.0	58.0	61.0	60.0	38.0	972.4	1.0	89.0	-35.0	-888.0
1634987998.081942	6.0	2.0	-2.0	0.0	0.0	-3.0	55.0	58.0	65.0	60.0	38.0	972.42	1.0	96.0	-38.0	-894.0
1634987998.253794	7.0	2.0	-2.0	0.0	0.0	-2.0	55.0	58.0	68.0	60.0	38.0	972.36	1.0	91.0	-47.0	-904.0
1634987998.253794	7.0	3.0	-2.0	0.0	0.0	-1.0	55.0	58.0	69.0	60.0	38.0	972.37	1.0	73.0	-17.0	-926.0
1634987998.337385	6.0	3.0	-2.0	0.0	0.0	-1.0	55.0	58.0	71.0	60.0	38.0	972.37	2.0	70.0	-19.0	-938.0
1634987998.452896	6.0	1.0	-2.0	0.0	0.0	0.0	55.0	58.0	71.0	70.0	38.0	972.46	2.0	84.0	-42.0	-982.0
1634987998.532652	5.0	1.0	-2.0	0.0	0.0	0.0	55.0	58.0	72.0	70.0	37.0	972.42	2.0	116.0	-50.0	-1012.0
1634987998.648045	5.0	3.0	-2.0	0.0	0.0	0.0	55.0	58.0	73.0	70.0	37.0	972.36	2.0	95.0	-30.0	-1005.0
1634987998.746015	6.0	2.0	-2.0	0.0	0.0	0.0	55.0	58.0	74.0	70.0	37.0	972.37	2.0	73.0	-21.0	-1005.0
1634987998.841045	5.0	1.0	-2.0	0.0	0.0	0.0	55.0	58.0	75.0	70.0	37.0	972.35	2.0	101.0	-21.0	-1018.0
1634987998.946223	5.0	1.0	-2.0	0.0	0.0	0.0	55.0	58.0	76.0	70.0	37.0	972.41	2.0	97.0	-32.0	-1012.0
1634987999.043175	5.0	1.0	-2.0	0.0	0.0	0.0	55.0	58.0	77.0	70.0	37.0	972.35	2.0	108.0	-33.0	-1025.0
1634987999.152711	5.0	2.0	-2.0	0.0	0.0	0.0	55.0	58.0	78.0	70.0	37.0	972.42	2.0	90.0	-16.0	-983.0
1634987999.253651	5.0	1.0	-2.0	0.0	0.0	0.0	55.0	58.0	79.0	70.0	37.0	972.38	2.0	78.0	-18.0	-1000.0
1634987999.359169	4.0	1.0	-2.0	-1.0	0.0	0.0	55.0	59.0	80.0	70.0	37.0	972.37	3.0	54.0	-7.0	-975.0
1634987999.458141	4.0	1.0	-2.0	-1.0	0.0	0.0	55.0	59.0	81.0	70.0	37.0	972.33	3.0	49.0	-4.0	-984.0
1634987999.553002	2.0	0.0	-2.0	-1.0	0.0	0.0	55.0	59.0	81.0	70.0	37.0	972.3	3.0	41.0	-13.0	-1009.0
1634987999.662344	2.0	0.0	-2.0	-1.0	0.0	0.0	55.0	59.0	82.0	70.0	37.0	972.37	3.0	41.0	-1.0	-1015.0
1634987999.761616	1.0	1.0	-2.0	-1.0	0.0	0.0	55.0	59.0	82.0	80.0	37.0	972.44	3.0	40.0	-22.0	-987.0
1634987999.872826	1.0	1.0	-2.0	-1.0	0.0	0.0	55.0	59.0	83.0	80.0	37.0	972.52	3.0	41.0	-32.0	-1008.0
1634987999.969537	1.0	1.0	-2.0	-1.0	0.0	0.0	55.0	59.0	83.0	80.0	37.0	972.56	3.0	43.0	-8.0	-978.0
1634988000.072356	2.0	1.0	-3.0	0.0	0.0	0.0	55.0	59.0	83.0	80.0	37.0	972.5	3.0	47.0	-20.0	-997.0
1634988000.173604	2.0	1.0	-3.0	0.0	0.0	0.0	55.0	59.0	84.0	80.0	37.0	972.49	3.0	61.0	-25.0	-957.0
1634988000.267586	2.0	1.0	-2.0	0.0	0.0	0.0	55.0	59.0	85.0	80.0	37.0	972.47	3.0	54.0	-30.0	-979.0
1634988000.377017	2.0	1.0	-2.0	0.0	0.0	0.0	57.0	59.0	84.0	80.0	37.0	972.42	4.0	36.0	-32.0	-994.0
1634988000.472733	2.0	1.0	-2.0	0.0	0.0	0.0	57.0	59.0	84.0	80.0	37.0	972.44	4.0	45.0	-33.0	-1012.0
1634988000.572897	1.0	1.0	-2.0	0.0	0.0	0.0	57.0	59.0	84.0	80.0	37.0	972.52	4.0	37.0	-11.0	-1042.0
1634988000.680561	2.0	1.0	-2.0	0.0	0.0	0.0	57.0	59.0	84.0	80.0	37.0	972.45	4.0	26.0	-23.0	-991.0
1634988000.782621	2.0	1.0	-2.0	0.0	0.0	0.0	57.0	59.0	83.0	80.0	37.0	972.45	4.0	35.0	-39.0	-997.0
1634988000.878128	1.0	1.0	-2.0	0.0	0.0	0.0	57.0	59.0	83.0	80.0	37.0	972.48	4.0	30.0	-24.0	-990.0
1634988000.992147	1.0	2.0	-2.0	0.0	0.0	0.0	57.0	59.0	82.0	80.0	37.0	972.47	4.0	37.0	-33.0	-1005.0
1634988001.091747	1.0	2.0	-2.0	0.0	0.0	0.0	57.0	59.0	82.0	80.0	37.0	972.42	4.0	21.0	-24.0	-991.0
1634988001.19566	1.0	2.0	-2.0	0.0	0.0	0.0	57.0	59.0	81.0	80.0	37.0	972.43	4.0	41.0	-29.0	-990.0
1634988001.295845	1.0	2.0	-2.0	0.0	0.0	0.0	57.0	59.0	80.0	80.0	37.0	972.44	4.0	23.0	-9.0	-995.0
1634988001.39656	2.0	2.0	-2.0	0.0	0.0	0.0	56.0	59.0	77.0	80.0	37.0	972.4	5.0	33.0	-15.0	-1005.0
1634988001.50496	2.0	2.0	-2.0	0.0	0.0	0.0	56.0	59.0	76.0	80.0	37.0	972.49	5.0	30.0	-10.0	-1011.0
1634988001.608967	2.0	2.0	-2.0	0.0	0.0	0.0	56.0	59.0	75.0	70.0	36.0	972.39	5.0	44.0	-49.0	-1025.0
1634988001.657429	2.0	2.0	-2.0	0.0	0.0	0.0	56.0	59.0	73.0	70.0	36.0	972.39	5.0	39.0	-39.0	-1004.0
1634988001.752654	2.0	3.0	-2.0	0.0	0.0	0.0	56.0	59.0	71.0	70.0	36.0	972.34	5.0	20.0	-12.0	-1039.0
1634988001.861814	2.0	3.0	-2.0	0.0	0.0	0.0	56.0	59.0	70.0	70.0	36.0	972.37	5.0	39.0	-22.0	-1038.0
1634988001.958576	2.0	2.0	-2.0	0.0	0.0	0.0	56.0	59.0	68.0	70.0	36.0	972.44	5.0	24.0	-18.0	-1047.0
1634988002.055324	2.0	2.0	-2.0	0.0	0.0	0.0	56.0	59.0	67.0	70.0	36.0	972.37	5.0	54.0	-56.0	-1046.0
1634988002.163592	2.0	2.0	-2.0	0.0	0.0	0.0	56.0	59.0	66.0	70.0	36.0	972.38	5.0	20.0	-35.0	-1032.0
1634988002.257317	2.0	2.0	-2.0	0.0	0.0	0.0	56.0	59.0	65.0	70.0	36.0	972.33	5.0	15.0	-30.0	-1027.0
1634988002.368375	1.0	2.0	-2.0	0.0	0.0	0.0	57.0	60.0	65.0	70.0	36.0	972.38	6.0	14.0	-31.0	-1022.0
1634988002.461424	1.0	2.0	-2.0	0.0	0.0	0.0	57.0	60.0	65.0	70.0	36.0	972.44	6.0	9.0	-29.0	-1084.0
1634988002.574436	1.0	2.0	-2.0	0.0	0.0	0.0	57.0	60.0	65.0	70.0	36.0	972.41	6.0	25.0	-60.0	-1012.0
1634988002.669727	1.0	2.0	-2.0	0.0	0.0	-1.0	57.0	60.0	65.0	70.0	36.0	972.41	6.0	-6.0	-46.0	-1022.0
1634988002.779619	1.0	2.0	-2.0	0.0	0.0	-1.0	57.0	60.0	65.0	70.0	36.0	972.4	6.0	12.0	-55.0	-999.0
1634988002.874616	0.0	3.0	-2.0	0.0	0.0	-1.0	57.0	60.0	64.0	70.0	36.0	972.4	6.0	3.0	-49.0	-1019.0
1634988002.983953	0.0	3.0	-2.0	0.0	0.0	-1.0	57.0	60.0	65.0	70.0	36.0	972.49	6.0	12.0	-53.0	-1008.0
1634988003.076435	0.0	3.0	-2.0	0.0	0.0	-1.0	57.0	60.0	66.0	70.0	36.0	972.5	6.0	-6.0	-69.0	-1296.0
1634988003.18578	0.0	3.0	-2.0	0.0	0.0	-3.0	57.0	60.0	68.0	70.0	36.0	972.51	6.0	-7.0	-77.0	-1148.0
1634988003.279508	0.0	4.0	-2.0	0.0	0.0	-5.0	57.0	60.0	73.0	80.0	36.0	972.52	6.0	-8.0	-72.0	-1142.0
1634988003.38268	0.0	3.0	-2.0	0.0	0.0	-6.0	57.0	59.0	78.0	80.0	36.0	972.49	7.0	6.0	-83.0	-976.0
1634988003.493	0.0	4.0	-2.0	0.0	0.0	-6.0	57.0	59.0	83.0	90.0	36.0	972.65	7.0	-8.0	-53.0	-880.0
1634988003.588324	0.0	6.0	-2.0	0.0	0.0	-4.0	57.0	59.0	87.0	90.0	35.0	972.62	7.0	-6.0	-28.0	-873.0
1634988003.692167	0.0	6.0	-2.0	0.0	0.0	-3.0	57.0	59.0	89.0	90.0	35.0	972.67	7.0	-15.0	-36.0	-865.0
1634988003.787561	0.0	4.0	-2.0	0.0	0.0	-1.0	57.0	59.0	90.0	90.0	35.0	972.74	7.0	-6.0	-83.0	-928.0
1634988003.898565	0.0	3.0	-2.0	0.0	0.0	0.0	57.0	59.0	91.0	90.0	35.0	972.76	7.0	-14.0	-82.0	-941.0
1634988004.002123	0.0	4.0	-2.0	0.0	0.0	0.0	57.0	59.0	92.0	90.0	35.0	972.68	7.0	-18.0	-62.0	-959.0
1634988004.097576	0.0	6.0	-2.0	0.0	0.0	0.0	57.0	59.0	92.0	90.0	35.0	972.76	7.0	-22.0	-58.0	-1006.0
1634988004.206933	0.0	6.0	-2.0	0.0	0.0	0.0	57.0	59.0	91.0	90.0	35.0	972.71	7.0	-4.0	-74.0	-1031.0
1634988004.297962	0.0	6.0	-2.0	0.0	0.0	0.0	57.0	59.0	93.0	100.0	35.0	972.79	7.0	-10.0	-70.0	-1230.0
1634988004.407309	0.0	4.0	-2.0	0.0	0.0	-4.0	58.0	60.0	95.0	100.0	35.0	972.91	8.0	0.0	-94.0	-1215.0
1634988004.501046	1.0	4.0	-6.0	0.0	0.0	-6.0	58.0	60.0	100.0	100.0	35.0	972.84	8.0	7.0	-83.0	-1179.0
1634988004.615821	0.0	5.0	-9.0	0.0	0.0	-7.0	58.0	60.0	104.0	110.0	35.0	972.94	8.0	-18.0	-72.0	-1209.0
1634988004.712521	0.0	5.0	-9.0	0.0	0.0	-6.0	58.0	60.0	111.0	120.0	35.0	972.99	8.0	-27.0	-81.0	-1163.0
1634988004.806253	0.0	7.0	-9.0	0.0	0.0	-5.0	58.0	60.0	115.0	120.0	35.0	972.99	8.0	9.0	-72.0	-930.0
1634988004.909628	0.0	6.0	-10.0	0.0	0.0	-3.0	58.0	60.0	119.0	130.0	35.0	973.02	8.0	-2.0	-64.0	-889.0
1634988005.022652	1.0	4.0	-9.0	0.0	1.0	-2.0	58.0	60.0	123.0	130.0	35.0	972.98	8.0	16.0	-56.0	-841.0
1634988005.116383	1.0	3.0	-9.0	0.0	1.0	-1.0	58.0	60.0	124.0	130.0	35.0	973.02	8.0	6.0	-63.0	-864.0
1634988005.215436	1.0	3.0	-9.0	0.0	0.0	0.0	58.0	60.0	126.0	130.0	35.0	973.11	8.0	6.0	-48.0	-949.0
1634988005.328196	1.0	5.0	-9.0	0.0	0.0	0.0	58.0	60.0	127.0	130.0	35.0	973.08	9.0	7.0	-61.0	-935.0
1634988005.421929	1.0	5.0	-9.0	0.0	0.0	0.0	57.0	60.0	127.0	130.0	35.0	973.09	9.0	17.0	-60.0	-979.0
1634988005.531954	1.0	5.0	-9.0	0.0	0.0	0.0	57.0	60.0	126.0	130.0	35.0	973.14	9.0	10.0	-63.0	-996.0
1634988005.635457	2.0	5.0	-9.0	0.0	0.0	0.0	57.0	60.0	128.0	130.0	34.0	973.07	9.0	-8.0	-61.0	-994.0
1634988005.73212	1.0	5.0	-9.0	0.0	0.0	0.0	57.0	60.0	127.0	130.0	34.0	973.1	9.0	15.0	-73.0	-980.0
1634988005.833318	1.0	5.0	-9.0	0.0	0.0	0.0	57.0	60.0	127.0	130.0	34.0	973.12	9.0	11.0	-67.0	-1003.0
1634988005.927045	1.0	5.0	-9.0	0.0	0.0	0.0	57.0	60.0	130.0	130.0	34.0	973.12	9.0	7.0	-68.0	-981.0
1634988006.037963	1.0	5.0	-9.0	0.0	0.0	0.0	57.0	60.0	129.0	130.0	34.0	973.08	9.0	-2.0	-61.0	-989.0
1634988006.138765	1.0	5.0	-9.0	0.0	0.0	0.0	57.0	60.0	129.0	130.0	34.0	973.1	9.0	12.0	-66.0	-991.0
1634988006.236674	1.0	5.0	-9.0	0.0	0.0	0.0	57.0	60.0	131.0	130.0	34.0	973.12	9.0	13.0	-61.0	-982.0
1634988006.299927	1.0	5.0	-9.0	0.0	0.0	0.0	57.0	60.0	131.0	130.0	34.0	973.06	10.0	8.0	-61.0	-995.0
1634988006.44408	1.0	5.0	-9.0	0.0	0.0	0.0	57.0	61.0	133.0	130.0	34.0	973.07	10.0	5.0	-70.0	-978.0
1634988006.539694	1.0	5.0	-9.0	0.0	0.0	0.0	57.0	61.0	134.0	130.0	34.0	973.09	10.0	12.0	-74.0	-981.0
1634988006.654753	1.0	5.0	-9.0	0.0	0.0	0.0	57.0	61.0	133.0	130.0	34.0	973.1	10.0	8.0	-78.0	-991.0
1634988006.756535	-2.0	4.0	-9.0	0.0	0.0	0.0	57.0	61.0	133.0	130.0	34.0	973.08	10.0	0.0	-63.0	-984.0
1634988006.8521	-6.0	3.0	-9.0	0.0	0.0	0.0	57.0	61.0	134.0	130.0	34.0	973.12	10.0	-8.0	-48.0	-988.0
1634988006.961388	-5.0	3.0	-9.0	2.0	0.0	0.0	57.0	61.0	135.0	130.0	34.0	973.2	10.0	-10.0	-81.0	-983.0
1634988007.000408	-1.0	5.0	-9.0	3.0	0.0	0.0	57.0	61.0	133.0	130.0	34.0	973.15	10.0	-15.0	-60.0	-1064.0
1634988007.161627	1.0	4.0	-9.0	3.0	0.0	0.0	57.0	61.0	136.0	140.0	34.0	973.19	10.0	0.0	-75.0	-925.0
1634988007.208491	2.0	4.0	-8.0	2.0	0.0	0.0	57.0	61.0	133.0	140.0	34.0	973.18	10.0	-97.0	-71.0	-1159.0
1634988007.312003	0.0	4.0	-9.0	0.0	0.0	0.0	57.0	61.0	132.0	140.0	34.0	973.07	11.0	-75.0	-67.0	-914.0
1634988007.405735	-3.0	5.0	-10.0	0.0	0.0	0.0	58.0	61.0	132.0	140.0	34.0	973.14	11.0	-26.0	-62.0	-954.0
1634988007.516772	-4.0	5.0	-10.0	1.0	0.0	0.0	58.0	61.0	130.0	130.0	34.0	973.08	11.0	16.0	-70.0	-899.0
1634988007.623944	0.0	4.0	-9.0	2.0	0.0	1.0	58.0	61.0	125.0	130.0	33.0	973.16	11.0	-8.0	-106.0	-990.0
1634988007.718917	2.0	5.0	-9.0	2.0	-1.0	1.0	58.0	61.0	124.0	130.0	33.0	973.15	11.0	-3.0	-67.0	-977.0
1634988007.814212	4.0	4.0	-9.0	1.0	-1.0	1.0	58.0	61.0	123.0	130.0	33.0	973.24	11.0	-7.0	-69.0	-1128.0
1634988007.929878	4.0	3.0	-9.0	0.0	-1.0	1.0	58.0	61.0	119.0	130.0	33.0	973.18	11.0	-30.0	-91.0	-1103.0
1634988008.025776	1.0	5.0	-9.0	0.0	-1.0	0.0	58.0	61.0	119.0	120.0	33.0	973.16	11.0	-48.0	-88.0	-1035.0
1634988008.119505	0.0	7.0	-9.0	-1.0	-1.0	0.0	58.0	61.0	118.0	120.0	33.0	973.09	11.0	-36.0	-36.0	-1012.0
1634988008.221361	-1.0	7.0	-9.0	0.0	0.0	0.0	58.0	61.0	117.0	120.0	33.0	973.05	11.0	-15.0	-43.0	-1126.0
1634988008.395728	0.0	9.0	-9.0	0.0	0.0	0.0	58.0	61.0	116.0	120.0	33.0	972.89	12.0	3.0	8.0	-1032.0
1634988008.537621	0.0	6.0	-9.0	0.0	2.0	0.0	58.0	61.0	115.0	120.0	33.0	973.0	12.0	-35.0	37.0	-1029.0
1634988008.543863	0.0	0.0	-10.0	0.0	2.0	0.0	58.0	61.0	117.0	120.0	33.0	973.09	12.0	-10.0	-33.0	-1051.0
1634988008.70383	0.0	-2.0	-10.0	0.0	1.0	0.0	58.0	61.0	118.0	120.0	33.0	972.97	12.0	-43.0	-39.0	-1009.0
1634988008.840735	0.0	0.0	-9.0	0.0	0.0	0.0	58.0	61.0	119.0	120.0	33.0	973.03	12.0	0.0	-45.0	-1010.0
1634988008.851214	0.0	2.0	-8.0	0.0	0.0	0.0	58.0	61.0	121.0	120.0	33.0	973.08	12.0	-6.0	-43.0	-1004.0
1634988008.985854	0.0	5.0	-7.0	0.0	0.0	0.0	58.0	61.0	121.0	120.0	33.0	973.11	12.0	-22.0	-49.0	-1101.0
1634988009.13592	0.0	4.0	-5.0	0.0	0.0	-1.0	58.0	61.0	122.0	120.0	33.0	973.17	12.0	-15.0	-71.0	-1001.0
1634988009.15154	0.0	5.0	-4.0	0.0	0.0	-1.0	58.0	61.0	123.0	130.0	33.0	973.25	12.0	-43.0	-86.0	-917.0
1634988009.307758	0.0	6.0	-3.0	0.0	0.0	-1.0	58.0	61.0	124.0	130.0	33.0	973.15	12.0	-35.0	-61.0	-1063.0
1634988009.447255	0.0	6.0	-3.0	-1.0	0.0	0.0	58.0	61.0	123.0	130.0	33.0	973.11	13.0	-46.0	-61.0	-926.0
1634988009.447255	-1.0	6.0	-3.0	-1.0	0.0	0.0	58.0	61.0	122.0	130.0	33.0	973.04	13.0	-46.0	-56.0	-994.0
1634988009.619402	-2.0	6.0	-3.0	-1.0	0.0	0.0	58.0	61.0	121.0	130.0	32.0	973.08	13.0	-64.0	-54.0	-885.0
1634988009.763452	-3.0	7.0	-3.0	-1.0	1.0	1.0	58.0	61.0	117.0	120.0	32.0	973.15	13.0	-43.0	-11.0	-941.0
1634988009.765906	-6.0	3.0	-3.0	0.0	1.0	1.0	58.0	61.0	114.0	120.0	32.0	972.99	13.0	-22.0	-41.0	-998.0
1634988009.861914	-6.0	0.0	-3.0	0.0	1.0	1.0	58.0	61.0	112.0	120.0	32.0	972.85	13.0	-51.0	-52.0	-1013.0
1634988009.955645	-5.0	1.0	-3.0	0.0	0.0	1.0	58.0	61.0	108.0	120.0	32.0	972.8	13.0	-73.0	-48.0	-978.0
1634988010.060958	-5.0	2.0	-3.0	1.0	0.0	1.0	58.0	61.0	105.0	120.0	32.0	972.78	13.0	-93.0	-23.0	-1245.0
1634988010.170493	-4.0	3.0	-3.0	1.0	0.0	0.0	58.0	61.0	104.0	110.0	32.0	972.79	13.0	-44.0	-55.0	-1056.0
1634988010.264216	-4.0	5.0	-3.0	1.0	0.0	0.0	58.0	61.0	103.0	110.0	32.0	972.7	13.0	-65.0	-48.0	-1048.0
1634988010.368254	-3.0	5.0	-3.0	1.0	0.0	0.0	58.0	61.0	103.0	110.0	32.0	972.71	14.0	-79.0	-44.0	-1048.0
1634988010.480285	-1.0	4.0	-3.0	1.0	0.0	0.0	59.0	62.0	101.0	110.0	32.0	972.91	14.0	-21.0	-77.0	-922.0
1634988010.569042	4.0	1.0	-3.0	0.0	0.0	0.0	59.0	62.0	99.0	110.0	32.0	972.97	14.0	-64.0	-93.0	-1048.0
1634988010.674164	0.0	3.0	-3.0	0.0	-1.0	-1.0	59.0	62.0	100.0	110.0	32.0	972.83	14.0	-41.0	-98.0	-1144.0
1634988010.721027	-1.0	6.0	-3.0	0.0	-1.0	-2.0	59.0	62.0	101.0	110.0	32.0	972.79	14.0	-21.0	-98.0	-1211.0
1634988010.846003	-1.0	6.0	-3.0	0.0	-1.0	-4.0	59.0	62.0	106.0	110.0	32.0	972.89	14.0	-104.0	-78.0	-1134.0
1634988010.937636	-1.0	6.0	-3.0	0.0	-1.0	-4.0	59.0	62.0	109.0	120.0	32.0	972.83	14.0	-49.0	-84.0	-954.0
1634988011.038747	-2.0	6.0	-3.0	0.0	0.0	-3.0	59.0	62.0	112.0	120.0	32.0	972.95	14.0	-45.0	-78.0	-880.0
1634988011.132564	-2.0	6.0	-3.0	0.0	0.0	-2.0	59.0	62.0	115.0	120.0	32.0	972.93	14.0	-54.0	-61.0	-903.0
1634988011.234289	-1.0	6.0	-3.0	0.0	0.0	-1.0	59.0	62.0	117.0	130.0	32.0	973.05	14.0	-60.0	-65.0	-947.0
1634988011.343814	-3.0	6.0	-3.0	0.0	0.0	0.0	59.0	62.0	117.0	130.0	32.0	973.01	15.0	-1.0	-55.0	-940.0
1634988011.343814	-3.0	6.0	-3.0	0.0	0.0	0.0	59.0	62.0	117.0	130.0	32.0	973.01	15.0	-1.0	-55.0	-940.0
1634988011.494529	-2.0	6.0	-3.0	0.0	0.0	0.0	59.0	61.0	118.0	130.0	32.0	973.09	15.0	-6.0	-52.0	-907.0
1634988011.591298	0.0	7.0	-3.0	0.0	0.0	0.0	59.0	61.0	117.0	130.0	31.0	973.06	15.0	-45.0	-26.0	-1111.0
1634988011.653431	0.0	6.0	-2.0	0.0	0.0	0.0	59.0	61.0	117.0	130.0	31.0	973.18	15.0	-20.0	-1.0	-1243.0
1634988011.741997	-1.0	5.0	-3.0	0.0	0.0	-2.0	59.0	61.0	119.0	130.0	31.0	973.11	15.0	39.0	-43.0	-989.0
1634988011.857497	0.0	6.0	-2.0	0.0	0.0	-3.0	59.0	61.0	122.0	130.0	31.0	973.02	15.0	11.0	-59.0	-940.0
1634988011.954239	1.0	4.0	-2.0	1.0	1.0	-3.0	59.0	61.0	122.0	130.0	31.0	973.2	15.0	30.0	-62.0	-940.0
1634988012.047463	3.0	3.0	-2.0	0.0	0.0	-2.0	59.0	61.0	124.0	140.0	31.0	973.13	15.0	-29.0	-67.0	-944.0
1634988012.158458	3.0	5.0	-2.0	0.0	0.0	-2.0	59.0	61.0	124.0	140.0	31.0	973.15	15.0	-29.0	-58.0	-963.0
1634988012.264394	0.0	7.0	-2.0	0.0	0.0	-1.0	59.0	61.0	124.0	140.0	31.0	973.14	15.0	18.0	-76.0	-1039.0
1634988012.358305	0.0	6.0	-2.0	0.0	0.0	-1.0	59.0	61.0	122.0	140.0	31.0	973.18	16.0	-16.0	-68.0	-1156.0
1634988012.453916	0.0	5.0	-3.0	0.0	1.0	-2.0	59.0	62.0	123.0	140.0	31.0	973.12	16.0	-78.0	-27.0	-1154.0
1634988012.565025	1.0	4.0	-8.0	0.0	1.0	-4.0	59.0	62.0	125.0	150.0	31.0	973.12	16.0	12.0	-98.0	-1210.0
1634988012.663698	0.0	3.0	-12.0	0.0	0.0	-5.0	59.0	62.0	129.0	150.0	31.0	973.29	16.0	21.0	-111.0	-878.0
1634988012.774734	0.0	6.0	-14.0	0.0	0.0	-4.0	59.0	62.0	131.0	150.0	31.0	973.3	16.0	22.0	-65.0	-831.0
1634988012.876335	1.0	6.0	-15.0	0.0	0.0	-2.0	59.0	62.0	131.0	160.0	31.0	973.25	16.0	27.0	-116.0	-947.0
1634988012.979213	0.0	7.0	-16.0	0.0	0.0	-1.0	59.0	62.0	133.0	160.0	31.0	973.21	16.0	43.0	-92.0	-923.0
1634988013.066656	-5.0	6.0	-18.0	0.0	0.0	0.0	59.0	62.0	134.0	160.0	31.0	973.13	16.0	53.0	-85.0	-960.0
1634988013.177489	-6.0	4.0	-18.0	2.0	0.0	0.0	59.0	62.0	135.0	160.0	31.0	973.24	16.0	39.0	-54.0	-994.0
1634988013.284245	-6.0	4.0	-18.0	4.0	-1.0	0.0	59.0	62.0	133.0	160.0	31.0	973.29	16.0	48.0	-69.0	-992.0
1634988013.377972	-4.0	6.0	-18.0	5.0	-1.0	0.0	59.0	62.0	134.0	160.0	31.0	973.28	17.0	17.0	-56.0	-954.0
1634988013.477367	0.0	3.0	-18.0	6.0	-2.0	1.0	59.0	62.0	131.0	150.0	31.0	973.39	17.0	51.0	-89.0	-1038.0
1634988013.579111	3.0	4.0	-17.0	6.0	-2.0	0.0	59.0	62.0	134.0	150.0	30.0	973.48	17.0	29.0	-91.0	-1082.0
1634988013.689887	4.0	4.0	-17.0	5.0	-2.0	0.0	59.0	62.0	136.0	150.0	30.0	973.51	17.0	35.0	-120.0	-1023.0
1634988013.785277	3.0	5.0	-17.0	5.0	-3.0	0.0	59.0	62.0	139.0	150.0	30.0	973.36	17.0	39.0	-82.0	-1032.0
1634988013.88639	3.0	5.0	-17.0	4.0	-3.0	0.0	59.0	62.0	142.0	150.0	30.0	973.31	17.0	32.0	-83.0	-1059.0
1634988013.999178	4.0	6.0	-17.0	4.0	-3.0	0.0	59.0	62.0	147.0	150.0	30.0	973.31	17.0	20.0	-70.0	-1023.0
1634988014.094691	5.0	6.0	-17.0	4.0	-2.0	-1.0	59.0	62.0	148.0	160.0	30.0	973.39	17.0	9.0	-84.0	-891.0
1634988014.198756	4.0	6.0	-17.0	3.0	-2.0	0.0	59.0	62.0	149.0	160.0	30.0	973.46	17.0	17.0	-99.0	-911.0
1634988014.294214	4.0	5.0	-17.0	3.0	-2.0	0.0	59.0	62.0	155.0	160.0	30.0	973.38	17.0	-12.0	-82.0	-984.0
1634988014.407611	4.0	6.0	-17.0	3.0	-2.0	0.0	59.0	62.0	157.0	160.0	30.0	973.39	18.0	16.0	-110.0	-976.0
1634988014.497236	3.0	7.0	-17.0	2.0	-2.0	-1.0	59.0	62.0	159.0	170.0	30.0	973.33	18.0	-14.0	-57.0	-932.0
1634988014.606771	4.0	7.0	-17.0	2.0	-1.0	-1.0	59.0	62.0	160.0	170.0	30.0	973.33	18.0	-24.0	-53.0	-924.0
1634988014.662001	4.0	8.0	-17.0	2.0	-1.0	0.0	59.0	62.0	161.0	170.0	30.0	973.32	18.0	-24.0	-36.0	-892.0
1634988014.763509	2.0	5.0	-17.0	1.0	0.0	0.0	59.0	62.0	163.0	170.0	30.0	973.38	18.0	0.0	-42.0	-915.0
1634988014.861721	0.0	3.0	-18.0	1.0	0.0	0.0	59.0	62.0	162.0	170.0	30.0	973.28	18.0	19.0	-47.0	-932.0
1634988014.958753	2.0	-2.0	-18.0	2.0	-1.0	1.0	59.0	62.0	164.0	170.0	30.0	973.21	18.0	62.0	-64.0	-976.0
1634988015.06608	2.0	-6.0	-18.0	1.0	-2.0	1.0	59.0	62.0	162.0	170.0	30.0	973.26	18.0	12.0	-26.0	-1013.0
1634988015.160034	2.0	-6.0	-18.0	1.0	-4.0	1.0	59.0	62.0	161.0	170.0	30.0	973.27	18.0	13.0	-23.0	-1010.0
1634988015.269384	2.0	-5.0	-18.0	0.0	-6.0	1.0	59.0	62.0	162.0	170.0	30.0	973.26	18.0	-10.0	12.0	-1021.0
1634988015.371992	2.0	-6.0	-18.0	0.0	-7.0	1.0	59.0	62.0	162.0	170.0	30.0	973.25	19.0	-3.0	0.0	-993.0
1634988015.467592	4.0	-6.0	-18.0	-1.0	-8.0	1.0	59.0	63.0	162.0	170.0	30.0	973.23	19.0	-17.0	9.0	-1084.0
1634988015.56468	3.0	-1.0	-18.0	-2.0	-8.0	1.0	59.0	63.0	159.0	170.0	29.0	973.36	19.0	0.0	39.0	-993.0
1634988015.671708	2.0	3.0	-17.0	-2.0	-8.0	1.0	59.0	63.0	151.0	170.0	29.0	973.33	19.0	11.0	42.0	-1013.0
1634988015.769086	1.0	7.0	-17.0	-2.0	-6.0	0.0	59.0	63.0	153.0	170.0	29.0	973.31	19.0	8.0	45.0	-975.0
1634988015.878433	0.0	8.0	-17.0	-1.0	-4.0	0.0	59.0	63.0	155.0	170.0	29.0	973.41	19.0	-8.0	28.0	-1126.0
1634988015.984365	0.0	7.0	-17.0	-1.0	-3.0	0.0	59.0	63.0	155.0	160.0	29.0	973.31	19.0	-36.0	45.0	-1027.0
1634988016.07998	0.0	7.0	-17.0	-1.0	-1.0	0.0	59.0	63.0	156.0	170.0	29.0	973.36	19.0	-27.0	45.0	-979.0
1634988016.191179	0.0	7.0	-17.0	0.0	0.0	0.0	59.0	63.0	158.0	170.0	29.0	973.4	19.0	-22.0	5.0	-999.0
1634988016.28838	0.0	6.0	-17.0	0.0	1.0	0.0	59.0	63.0	159.0	170.0	29.0	973.3	19.0	-30.0	14.0	-1065.0
1634988016.383883	0.0	6.0	-18.0	0.0	3.0	0.0	59.0	63.0	160.0	170.0	29.0	973.35	20.0	-17.0	2.0	-957.0
1634988016.494733	0.0	6.0	-18.0	0.0	3.0	0.0	60.0	63.0	161.0	170.0	29.0	973.4	20.0	-32.0	-8.0	-965.0
1634988016.587563	0.0	6.0	-18.0	0.0	3.0	0.0	60.0	63.0	162.0	170.0	29.0	973.41	20.0	-25.0	-9.0	-968.0
1634988016.701684	0.0	6.0	-18.0	0.0	3.0	0.0	60.0	63.0	162.0	170.0	29.0	973.4	20.0	-12.0	-10.0	-974.0
1634988016.796683	0.0	6.0	-18.0	1.0	3.0	0.0	60.0	63.0	162.0	170.0	29.0	973.41	20.0	-4.0	-25.0	-854.0
1634988016.899574	0.0	7.0	-18.0	1.0	3.0	1.0	60.0	63.0	162.0	170.0	29.0	973.34	20.0	-15.0	-32.0	-981.0
1634988016.996618	0.0	7.0	-18.0	1.0	3.0	1.0	60.0	63.0	164.0	170.0	29.0	973.44	20.0	7.0	-42.0	-1003.0
1634988017.109001	0.0	7.0	-17.0	2.0	3.0	0.0	60.0	63.0	163.0	170.0	29.0	973.43	20.0	-25.0	-57.0	-1048.0
1634988017.204642	0.0	7.0	-17.0	2.0	4.0	0.0	60.0	63.0	165.0	170.0	29.0	973.42	20.0	-31.0	-9.0	-992.0
1634988017.308339	0.0	8.0	-17.0	2.0	5.0	0.0	60.0	63.0	165.0	170.0	29.0	973.36	20.0	-33.0	-50.0	-986.0
1634988017.405419	0.0	7.0	-17.0	2.0	5.0	0.0	60.0	63.0	165.0	170.0	29.0	973.53	21.0	-28.0	-61.0	-1007.0
1634988017.514071	0.0	7.0	-18.0	1.0	6.0	1.0	60.0	63.0	165.0	170.0	29.0	973.52	21.0	-44.0	-42.0	-1030.0
1634988017.607801	0.0	7.0	-18.0	2.0	6.0	1.0	60.0	63.0	163.0	170.0	28.0	973.52	21.0	-21.0	-66.0	-955.0
1634988017.717152	0.0	6.0	-18.0	2.0	7.0	1.0	60.0	63.0	162.0	160.0	28.0	973.5	21.0	3.0	-66.0	-939.0
1634988017.810409	0.0	7.0	-17.0	3.0	7.0	1.0	60.0	63.0	162.0	160.0	28.0	973.53	21.0	-11.0	-57.0	-1005.0
1634988017.923253	0.0	7.0	-17.0	3.0	7.0	0.0	60.0	63.0	167.0	160.0	28.0	973.53	21.0	21.0	-73.0	-1014.0
1634988018.018861	0.0	7.0	-18.0	2.0	7.0	0.0	60.0	63.0	170.0	160.0	28.0	973.56	21.0	9.0	-70.0	-1012.0
1634988018.126876	0.0	7.0	-17.0	2.0	7.0	0.0	60.0	63.0	172.0	160.0	28.0	973.56	21.0	-15.0	-73.0	-1004.0
1634988018.22419	0.0	6.0	-18.0	3.0	7.0	0.0	60.0	63.0	176.0	160.0	28.0	973.66	21.0	-18.0	-111.0	-986.0
1634988018.335047	0.0	8.0	-17.0	3.0	7.0	0.0	60.0	63.0	176.0	160.0	28.0	973.67	22.0	2.0	-94.0	-961.0
1634988018.378643	0.0	8.0	-17.0	3.0	7.0	0.0	60.0	63.0	176.0	160.0	28.0	973.67	22.0	2.0	-94.0	-961.0
1634988018.425685	1.0	8.0	-17.0	3.0	8.0	0.0	60.0	63.0	176.0	160.0	28.0	973.67	22.0	30.0	-139.0	-1028.0
1634988018.544068	2.0	7.0	-17.0	4.0	8.0	0.0	60.0	64.0	176.0	160.0	28.0	973.55	22.0	9.0	-45.0	-957.0
1634988018.63389	4.0	2.0	-17.0	3.0	9.0	0.0	60.0	64.0	177.0	160.0	28.0	973.6	22.0	-11.0	-123.0	-1003.0
1634988018.736432	1.0	2.0	-17.0	3.0	8.0	0.0	60.0	64.0	177.0	160.0	28.0	973.68	22.0	32.0	-76.0	-960.0
1634988018.830146	1.0	4.0	-17.0	3.0	8.0	0.0	60.0	64.0	178.0	160.0	28.0	973.52	22.0	10.0	-10.0	-1105.0
1634988018.932562	2.0	-1.0	-17.0	2.0	8.0	0.0	60.0	64.0	182.0	160.0	28.0	973.5	22.0	-36.0	-37.0	-954.0
1634988019.046407	1.0	-3.0	-17.0	2.0	7.0	0.0	60.0	64.0	182.0	160.0	28.0	973.59	22.0	-38.0	-56.0	-955.0
1634988019.093273	0.0	-1.0	-17.0	1.0	6.0	0.0	60.0	64.0	181.0	160.0	28.0	973.59	22.0	-18.0	-56.0	-1160.0
1634988019.198924	0.0	0.0	-18.0	1.0	6.0	0.0	60.0	64.0	185.0	170.0	28.0	973.63	22.0	23.0	-47.0	-900.0
1634988019.297394	-1.0	0.0	-18.0	1.0	5.0	0.0	60.0	64.0	179.0	170.0	28.0	973.55	23.0	66.0	-57.0	-951.0
1634988019.392793	0.0	3.0	-18.0	2.0	4.0	0.0	60.0	64.0	178.0	170.0	28.0	973.78	23.0	94.0	-95.0	-986.0
1634988019.545783	2.0	8.0	-17.0	2.0	4.0	1.0	60.0	63.0	180.0	160.0	28.0	973.62	23.0	34.0	-54.0	-932.0
1634988019.656808	1.0	9.0	-17.0	3.0	5.0	1.0	60.0	63.0	179.0	160.0	27.0	973.61	23.0	27.0	-47.0	-990.0
1634988019.750528	2.0	7.0	-17.0	3.0	6.0	0.0	60.0	63.0	175.0	160.0	27.0	973.57	23.0	11.0	-82.0	-1014.0
1634988019.807469	3.0	8.0	-17.0	3.0	6.0	0.0	60.0	63.0	176.0	160.0	27.0	973.57	23.0	-20.0	-77.0	-1155.0
1634988019.905788	2.0	7.0	-17.0	2.0	6.0	0.0	60.0	63.0	177.0	160.0	27.0	973.55	23.0	-48.0	-62.0	-1015.0
1634988020.021028	1.0	8.0	-17.0	2.0	7.0	0.0	60.0	63.0	174.0	160.0	27.0	973.51	23.0	-9.0	-18.0	-966.0
1634988020.109263	0.0	4.0	-18.0	2.0	7.0	0.0	60.0	63.0	173.0	160.0	27.0	973.6	23.0	-13.0	-39.0	-1003.0
1634988020.218618	1.0	2.0	-18.0	2.0	7.0	0.0	60.0	63.0	172.0	160.0	27.0	973.44	23.0	-30.0	-39.0	-980.0
1634988020.313976	0.0	7.0	-18.0	2.0	7.0	0.0	60.0	63.0	170.0	160.0	27.0	973.47	24.0	9.0	-20.0	-969.0
1634988020.40927	0.0	8.0	-18.0	3.0	7.0	0.0	60.0	63.0	170.0	160.0	27.0	973.43	24.0	10.0	-39.0	-1040.0
1634988020.520277	1.0	7.0	-17.0	3.0	8.0	0.0	61.0	63.0	171.0	160.0	27.0	973.52	24.0	20.0	-49.0	-983.0
1634988020.620372	2.0	4.0	-18.0	3.0	8.0	0.0	61.0	63.0	167.0	150.0	27.0	973.53	24.0	19.0	-70.0	-1015.0
1634988020.71671	1.0	0.0	-18.0	3.0	8.0	0.0	61.0	63.0	167.0	150.0	27.0	973.67	24.0	39.0	-99.0	-1032.0
1634988020.829907	2.0	-1.0	-17.0	3.0	6.0	0.0	61.0	63.0	168.0	150.0	27.0	973.77	24.0	36.0	-120.0	-1068.0
1634988020.934506	3.0	2.0	-17.0	2.0	5.0	0.0	61.0	63.0	169.0	150.0	27.0	973.64	24.0	20.0	-114.0	-1090.0
1634988021.031187	2.0	4.0	-17.0	2.0	4.0	-1.0	61.0	63.0	170.0	150.0	27.0	973.69	24.0	-4.0	-124.0	-1035.0
1634988021.126598	2.0	5.0	-17.0	1.0	4.0	-1.0	61.0	63.0	167.0	160.0	27.0	973.6	24.0	17.0	-101.0	-891.0
1634988021.232776	1.0	3.0	-17.0	1.0	4.0	0.0	61.0	63.0	171.0	160.0	27.0	973.63	24.0	24.0	-68.0	-1010.0
1634988021.342635	1.0	2.0	-18.0	1.0	4.0	0.0	61.0	63.0	169.0	160.0	27.0	973.68	25.0	24.0	-79.0	-1012.0
1634988021.437635	1.0	1.0	-18.0	1.0	4.0	0.0	61.0	63.0	169.0	160.0	27.0	973.65	25.0	24.0	-94.0	-995.0
1634988021.538414	1.0	2.0	-18.0	1.0	3.0	0.0	61.0	64.0	171.0	160.0	26.0	973.62	25.0	33.0	-69.0	-1018.0
1634988021.633904	1.0	3.0	-17.0	1.0	2.0	0.0	61.0	64.0	171.0	150.0	26.0	973.48	25.0	29.0	-60.0	-1086.0
1634988021.745879	2.0	2.0	-17.0	1.0	2.0	0.0	61.0	64.0	170.0	150.0	26.0	973.54	25.0	32.0	-41.0	-971.0
1634988021.852574	2.0	1.0	-17.0	1.0	1.0	0.0	61.0	64.0	174.0	150.0	26.0	973.55	25.0	30.0	-52.0	-1053.0
1634988021.949375	2.0	1.0	-17.0	0.0	1.0	0.0	61.0	64.0	173.0	150.0	26.0	973.53	25.0	21.0	-37.0	-1034.0
1634988022.04478	1.0	2.0	-17.0	0.0	1.0	0.0	61.0	64.0	173.0	150.0	26.0	973.5	25.0	-8.0	-109.0	-1028.0
1634988022.14595	1.0	3.0	-17.0	0.0	1.0	0.0	61.0	64.0	179.0	150.0	26.0	973.56	25.0	31.0	-53.0	-1025.0
1634988022.25706	1.0	4.0	-18.0	0.0	1.0	0.0	61.0	64.0	178.0	150.0	26.0	973.59	25.0	22.0	-25.0	-976.0
1634988022.352432	1.0	1.0	-17.0	0.0	1.0	0.0	61.0	64.0	179.0	160.0	26.0	973.67	26.0	40.0	-39.0	-943.0
1634988022.453001	1.0	-1.0	-17.0	0.0	1.0	0.0	61.0	64.0	181.0	160.0	26.0	973.66	26.0	9.0	-49.0	-988.0
1634988022.565742	1.0	0.0	-17.0	0.0	0.0	0.0	61.0	64.0	181.0	160.0	26.0	973.59	26.0	28.0	-39.0	-1043.0
1634988022.66198	2.0	2.0	-17.0	0.0	0.0	0.0	61.0	64.0	182.0	160.0	26.0	973.58	26.0	18.0	-27.0	-951.0
1634988022.765535	2.0	3.0	-18.0	0.0	0.0	0.0	61.0	64.0	180.0	160.0	26.0	973.54	26.0	26.0	-26.0	-908.0
1634988022.861747	3.0	3.0	-19.0	0.0	0.0	0.0	61.0	64.0	183.0	160.0	26.0	973.68	26.0	-11.0	6.0	-915.0
1634988022.971279	3.0	2.0	-25.0	0.0	0.0	1.0	61.0	64.0	181.0	160.0	26.0	973.61	26.0	70.0	-43.0	-955.0
1634988023.070953	2.0	1.0	-26.0	0.0	0.0	1.0	61.0	64.0	179.0	160.0	26.0	973.61	26.0	33.0	-16.0	-1013.0
1634988023.166264	3.0	0.0	-26.0	0.0	0.0	1.0	61.0	64.0	179.0	160.0	26.0	973.6	26.0	22.0	-22.0	-1005.0
1634988023.275608	3.0	0.0	-26.0	0.0	0.0	1.0	61.0	64.0	180.0	160.0	26.0	973.57	26.0	39.0	-48.0	-1090.0
1634988023.382192	3.0	1.0	-26.0	0.0	0.0	0.0	61.0	64.0	178.0	160.0	26.0	973.63	27.0	33.0	-27.0	-1082.0
1634988023.481685	3.0	2.0	-26.0	0.0	0.0	0.0	61.0	64.0	177.0	160.0	26.0	973.68	27.0	56.0	-47.0	-1021.0
1634988023.575409	3.0	3.0	-27.0	0.0	0.0	0.0	61.0	65.0	179.0	160.0	25.0	973.66	27.0	21.0	-9.0	-1098.0
1634988023.688791	3.0	5.0	-27.0	0.0	0.0	-1.0	61.0	65.0	181.0	160.0	25.0	973.6	27.0	42.0	-42.0	-1060.0
1634988023.785704	3.0	4.0	-28.0	0.0	0.0	-2.0	61.0	65.0	185.0	160.0	25.0	973.59	27.0	30.0	-24.0	-982.0
1634988023.880848	4.0	4.0	-28.0	0.0	0.0	-2.0	61.0	65.0	186.0	160.0	25.0	973.65	27.0	49.0	-53.0	-1002.0
1634988023.984141	3.0	3.0	-28.0	0.0	0.0	-2.0	61.0	65.0	189.0	170.0	25.0	973.61	27.0	45.0	-49.0	-936.0
1634988024.096586	2.0	2.0	-24.0	0.0	0.0	-1.0	61.0	65.0	191.0	170.0	25.0	973.6	27.0	66.0	-26.0	-1037.0
1634988024.191573	2.0	2.0	-18.0	0.0	0.0	-1.0	61.0	65.0	194.0	170.0	25.0	973.7	27.0	44.0	-51.0	-940.0
1634988024.292821	2.0	2.0	-18.0	0.0	0.0	-1.0	61.0	65.0	193.0	170.0	25.0	973.7	27.0	42.0	-22.0	-913.0
1634988024.388365	2.0	3.0	-18.0	0.0	0.0	-1.0	61.0	65.0	193.0	180.0	25.0	973.75	28.0	48.0	-42.0	-920.0
1634988024.450845	2.0	3.0	-18.0	0.0	0.0	0.0	61.0	65.0	195.0	180.0	25.0	973.7	28.0	57.0	-33.0	-948.0
1634988024.543138	3.0	3.0	-18.0	0.0	0.0	0.0	61.0	65.0	198.0	180.0	25.0	973.77	28.0	21.0	4.0	-1004.0
1634988024.658419	3.0	4.0	-17.0	0.0	0.0	0.0	61.0	65.0	196.0	180.0	25.0	973.65	28.0	33.0	9.0	-1057.0
1634988024.756143	3.0	3.0	-15.0	0.0	0.0	0.0	61.0	65.0	197.0	180.0	25.0	973.77	28.0	39.0	-38.0	-1015.0
1634988024.862477	3.0	1.0	-14.0	0.0	0.0	0.0	61.0	65.0	195.0	180.0	25.0	973.68	28.0	24.0	-45.0	-991.0
1634988024.96048	2.0	2.0	-14.0	0.0	0.0	0.0	61.0	65.0	200.0	180.0	25.0	973.85	28.0	52.0	-67.0	-1069.0
1634988025.065492	3.0	4.0	-14.0	0.0	0.0	0.0	61.0	65.0	197.0	180.0	25.0	973.76	28.0	49.0	-57.0	-957.0
1634988025.154547	3.0	4.0	-14.0	0.0	0.0	0.0	61.0	65.0	199.0	180.0	25.0	973.76	28.0	62.0	-61.0	-1074.0
1634988025.270351	2.0	5.0	-12.0	0.0	0.0	-1.0	61.0	65.0	200.0	180.0	25.0	973.8	28.0	16.0	-52.0	-1101.0
1634988025.372297	3.0	4.0	-12.0	0.0	1.0	-1.0	61.0	65.0	204.0	180.0	25.0	973.83	29.0	30.0	-49.0	-988.0
1634988025.412278	3.0	4.0	-12.0	0.0	1.0	-1.0	61.0	65.0	204.0	180.0	25.0	973.83	29.0	30.0	-49.0	-988.0
1634988025.460851	2.0	4.0	-12.0	0.0	1.0	-1.0	61.0	65.0	203.0	180.0	25.0	973.81	29.0	40.0	-45.0	-971.0
1634988025.568834	1.0	3.0	-12.0	0.0	1.0	-1.0	62.0	65.0	206.0	190.0	24.0	973.74	29.0	58.0	-39.0	-934.0
1634988025.677867	1.0	2.0	-12.0	0.0	1.0	-1.0	62.0	65.0	208.0	190.0	24.0	973.82	29.0	48.0	-31.0	-940.0
1634988025.776675	1.0	2.0	-12.0	0.0	1.0	0.0	62.0	65.0	206.0	190.0	24.0	973.91	29.0	47.0	-29.0	-1038.0
1634988025.873647	2.0	2.0	-12.0	0.0	1.0	0.0	62.0	65.0	212.0	190.0	24.0	973.89	29.0	40.0	-24.0	-1046.0
1634988025.974486	3.0	2.0	-12.0	0.0	1.0	-1.0	62.0	65.0	208.0	190.0	24.0	973.85	29.0	48.0	-29.0	-996.0
1634988026.085704	2.0	2.0	-12.0	0.0	1.0	-1.0	62.0	65.0	213.0	190.0	24.0	973.96	29.0	34.0	1.0	-993.0
1634988026.18098	1.0	2.0	-12.0	0.0	1.0	-1.0	62.0	65.0	214.0	200.0	24.0	973.87	29.0	67.0	-17.0	-944.0
1634988026.285871	1.0	1.0	-11.0	0.0	1.0	-1.0	62.0	65.0	218.0	200.0	24.0	974.0	29.0	51.0	-32.0	-993.0
1634988026.381304	2.0	1.0	-10.0	0.0	1.0	-1.0	62.0	65.0	219.0	200.0	24.0	973.98	30.0	40.0	-14.0	-1099.0
1634988026.492113	2.0	2.0	-9.0	0.0	1.0	-1.0	62.0	65.0	225.0	200.0	24.0	974.0	30.0	51.0	-22.0	-956.0
1634988026.594757	2.0	2.0	-9.0	0.0	1.0	-1.0	62.0	64.0	227.0	200.0	24.0	973.89	30.0	38.0	4.0	-1030.0
1634988026.698575	2.0	1.0	-9.0	0.0	1.0	-1.0	62.0	64.0	225.0	200.0	24.0	974.09	30.0	19.0	7.0	-946.0
1634988026.795394	2.0	0.0	-9.0	0.0	1.0	-1.0	62.0	64.0	228.0	210.0	24.0	974.07	30.0	51.0	-21.0	-1256.0
1634988026.894445	2.0	0.0	-9.0	0.0	1.0	-3.0	62.0	64.0	234.0	210.0	24.0	974.08	30.0	39.0	-19.0	-941.0
1634988026.993005	2.0	0.0	-9.0	0.0	0.0	-3.0	62.0	64.0	233.0	210.0	24.0	974.09	30.0	20.0	-47.0	-926.0
1634988027.102537	1.0	0.0	-9.0	0.0	0.0	-2.0	62.0	64.0	235.0	220.0	24.0	974.12	30.0	48.0	-54.0	-952.0
1634988027.195627	2.0	2.0	-9.0	0.0	0.0	-1.0	62.0	64.0	237.0	220.0	24.0	974.03	30.0	38.0	-50.0	-967.0
1634988027.304974	1.0	4.0	-9.0	0.0	0.0	-1.0	62.0	64.0	237.0	220.0	24.0	974.09	30.0	50.0	-53.0	-1184.0
1634988027.400377	1.0	4.0	-8.0	0.0	0.0	-2.0	62.0	64.0	238.0	220.0	24.0	974.09	31.0	45.0	-93.0	-973.0
1634988027.501837	2.0	3.0	-7.0	0.0	0.0	-2.0	62.0	64.0	239.0	220.0	24.0	974.22	31.0	13.0	-45.0	-959.0
1634988027.613009	2.0	3.0	-7.0	0.0	0.0	-2.0	62.0	65.0	239.0	220.0	23.0	974.13	31.0	8.0	-50.0	-1004.0
1634988027.715852	1.0	3.0	-7.0	0.0	0.0	-1.0	62.0	65.0	243.0	230.0	23.0	974.11	31.0	32.0	-40.0	-891.0
1634988027.822146	0.0	3.0	-7.0	0.0	0.0	0.0	62.0	65.0	242.0	230.0	23.0	974.1	31.0	40.0	-62.0	-978.0
1634988027.917673	1.0	3.0	-7.0	0.0	0.0	0.0	62.0	65.0	241.0	230.0	23.0	974.14	31.0	15.0	-29.0	-955.0
1634988028.017372	1.0	4.0	-7.0	0.0	0.0	0.0	62.0	65.0	241.0	230.0	23.0	974.14	31.0	25.0	-51.0	-996.0
1634988028.111709	1.0	3.0	-6.0	0.0	0.0	0.0	62.0	65.0	243.0	230.0	23.0	974.11	31.0	28.0	-27.0	-977.0
1634988028.176027	0.0	3.0	-6.0	0.0	0.0	0.0	62.0	65.0	237.0	230.0	23.0	974.2	31.0	10.0	-28.0	-1002.0
1634988028.273817	0.0	2.0	-7.0	0.0	0.0	0.0	62.0	65.0	245.0	230.0	23.0	974.13	31.0	30.0	-53.0	-1000.0
1634988028.377638	0.0	2.0	-7.0	0.0	0.0	0.0	62.0	65.0	239.0	230.0	23.0	974.12	32.0	8.0	-51.0	-965.0
1634988028.47526	0.0	3.0	-7.0	0.0	0.0	0.0	62.0	65.0	237.0	230.0	23.0	974.13	32.0	9.0	-54.0	-976.0
1634988028.585215	0.0	3.0	-7.0	0.0	0.0	0.0	62.0	65.0	237.0	230.0	23.0	974.1	32.0	16.0	-45.0	-1013.0
1634988028.687766	0.0	3.0	-7.0	0.0	0.0	0.0	62.0	65.0	235.0	230.0	23.0	974.05	32.0	-1.0	-22.0	-988.0
1634988028.783361	0.0	3.0	-7.0	0.0	0.0	0.0	62.0	65.0	233.0	220.0	23.0	974.03	32.0	25.0	-55.0	-956.0
1634988028.877086	0.0	3.0	-7.0	0.0	0.0	0.0	62.0	65.0	229.0	220.0	23.0	974.14	32.0	10.0	-52.0	-1066.0
1634988028.979515	-2.0	3.0	-7.0	0.0	0.0	0.0	62.0	65.0	230.0	220.0	23.0	974.03	32.0	0.0	-35.0	-909.0
1634988029.09052	-8.0	2.0	-7.0	0.0	0.0	0.0	62.0	65.0	231.0	220.0	23.0	974.14	32.0	12.0	-45.0	-1093.0
1634988029.184251	-8.0	1.0	-7.0	2.0	0.0	0.0	62.0	65.0	232.0	220.0	23.0	973.98	32.0	6.0	-53.0	-1086.0
1634988029.301242	-8.0	2.0	-7.0	4.0	0.0	0.0	62.0	65.0	232.0	220.0	23.0	974.02	32.0	-31.0	-25.0	-1020.0
1634988029.402696	-7.0	2.0	-7.0	5.0	0.0	0.0	62.0	65.0	230.0	220.0	23.0	973.97	33.0	-22.0	-55.0	-1013.0
1634988029.498038	-7.0	3.0	-7.0	6.0	0.0	0.0	62.0	65.0	227.0	220.0	23.0	974.02	33.0	-19.0	-47.0	-1012.0
1634988029.598929	0.0	2.0	-7.0	6.0	0.0	0.0	62.0	65.0	232.0	220.0	22.0	973.99	33.0	-25.0	-37.0	-971.0
1634988029.708026	1.0	2.0	-7.0	5.0	0.0	0.0	62.0	65.0	228.0	220.0	22.0	974.09	33.0	-27.0	-40.0	-1052.0
1634988029.802993	0.0	2.0	-7.0	5.0	0.0	0.0	62.0	65.0	224.0	220.0	22.0	974.14	33.0	-28.0	-52.0	-991.0
1634988029.980628	-8.0	2.0	-7.0	5.0	0.0	0.0	62.0	65.0	231.0	220.0	22.0	974.08	33.0	-37.0	-11.0	-995.0
1634988030.010297	-7.0	2.0	-7.0	6.0	0.0	0.0	62.0	65.0	233.0	220.0	22.0	974.11	33.0	-10.0	-46.0	-1004.0
1634988030.13536	-2.0	2.0	-7.0	7.0	0.0	0.0	62.0	65.0	229.0	220.0	22.0	974.12	33.0	-38.0	-31.0	-1048.0
1634988030.273597	0.0	2.0	-7.0	7.0	0.0	0.0	62.0	65.0	231.0	220.0	22.0	974.12	33.0	-18.0	-33.0	-989.0
1634988030.321401	1.0	2.0	-7.0	6.0	0.0	0.0	62.0	65.0	230.0	220.0	22.0	974.08	34.0	-28.0	-34.0	-998.0
1634988030.510081	2.0	2.0	-7.0	6.0	0.0	0.0	62.0	65.0	235.0	220.0	22.0	974.1	34.0	-8.0	-49.0	-1005.0
1634988030.519877	1.0	1.0	-7.0	5.0	0.0	0.0	62.0	65.0	232.0	220.0	22.0	974.09	34.0	-26.0	-18.0	-1022.0
1634988030.646733	1.0	1.0	-7.0	4.0	0.0	0.0	62.0	64.0	233.0	220.0	22.0	974.12	34.0	-18.0	-9.0	-1046.0
1634988030.815668	1.0	1.0	-7.0	4.0	0.0	0.0	62.0	64.0	232.0	220.0	22.0	974.09	34.0	-6.0	-9.0	-999.0
1634988030.815668	-5.0	1.0	-7.0	3.0	0.0	0.0	62.0	64.0	236.0	220.0	22.0	974.09	34.0	-10.0	-20.0	-1007.0
1634988030.956258	-9.0	1.0	-7.0	4.0	0.0	0.0	62.0	64.0	237.0	220.0	22.0	974.14	34.0	-27.0	-10.0	-985.0
1634988031.124033	-8.0	1.0	-7.0	6.0	0.0	0.0	62.0	64.0	235.0	220.0	22.0	974.11	34.0	-46.0	-2.0	-968.0
1634988031.124033	-3.0	1.0	-7.0	7.0	0.0	0.0	62.0	64.0	234.0	220.0	22.0	974.01	34.0	-54.0	-8.0	-974.0
1634988031.266331	0.0	0.0	-7.0	7.0	0.0	0.0	62.0	64.0	232.0	220.0	22.0	973.98	34.0	-58.0	11.0	-1004.0
1634988031.425314	1.0	0.0	-7.0	6.0	0.0	0.0	62.0	64.0	239.0	220.0	22.0	974.01	35.0	-48.0	-16.0	-981.0
1634988031.440933	1.0	1.0	-7.0	5.0	0.0	0.0	62.0	64.0	231.0	220.0	22.0	974.0	35.0	-11.0	-17.0	-982.0
1634988031.569268	1.0	1.0	-7.0	4.0	0.0	0.0	62.0	64.0	236.0	220.0	22.0	974.01	35.0	-18.0	-17.0	-1016.0
1634988031.728046	1.0	1.0	-7.0	4.0	0.0	0.0	63.0	66.0	238.0	220.0	21.0	974.11	35.0	-28.0	-17.0	-1009.0
1634988031.743667	0.0	1.0	-7.0	3.0	0.0	0.0	63.0	66.0	233.0	220.0	21.0	974.08	35.0	-14.0	-16.0	-1047.0
1634988031.87008	-3.0	0.0	-7.0	3.0	0.0	0.0	63.0	66.0	239.0	220.0	21.0	974.15	35.0	-4.0	-9.0	-988.0
1634988032.037007	-9.0	0.0	-7.0	4.0	0.0	0.0	63.0	66.0	240.0	220.0	21.0	974.1	35.0	-21.0	3.0	-1003.0
1634988032.05412	-8.0	0.0	-7.0	6.0	0.0	0.0	63.0	66.0	240.0	220.0	21.0	974.09	35.0	-23.0	-18.0	-1011.0
1634988032.184584	-6.0	1.0	-7.0	7.0	0.0	0.0	63.0	66.0	234.0	220.0	21.0	974.09	35.0	-43.0	12.0	-1014.0
1634988032.347382	0.0	1.0	-7.0	8.0	0.0	0.0	63.0	66.0	238.0	220.0	21.0	974.04	35.0	-56.0	4.0	-991.0
1634988032.347382	1.0	1.0	-7.0	7.0	0.0	0.0	63.0	66.0	232.0	220.0	21.0	974.05	36.0	-52.0	10.0	-958.0
