timestamp	pitch	roll	yaw	vgx	vgy	vgz	templ	temph	tof	h	bat	baro	time	agx	agy	agz
1634986760.376616
1634986760.376616
1634986760.493894	-1.0	0.0	0.0	0.0	0.0	0.0	63.0	65.0	10.0	0.0	85.0	970.64	0.0	-25.0	8.0	-998.0
1634986760.635598	-1.0	0.0	0.0	0.0	0.0	0.0	63.0	65.0	10.0	0.0	85.0	970.57	0.0	-24.0	9.0	-997.0
1634986760.794601	-1.0	0.0	0.0	0.0	0.0	0.0	63.0	65.0	10.0	0.0	85.0	970.61	0.0	-25.0	10.0	-997.0
1634986760.808919	-1.0	0.0	0.0	0.0	0.0	0.0	63.0	65.0	10.0	0.0	85.0	970.62	0.0	-24.0	9.0	-1000.0
1634986760.947961	-1.0	0.0	0.0	0.0	0.0	0.0	63.0	65.0	10.0	0.0	85.0	970.59	0.0	-25.0	10.0	-997.0
1634986760.998202	-1.0	0.0	0.0	0.0	0.0	0.0	63.0	66.0	10.0	0.0	85.0	970.63	0.0	-23.0	10.0	-999.0
1634986761.112281	-1.0	0.0	0.0	0.0	0.0	0.0	63.0	66.0	10.0	0.0	85.0	970.6	0.0	-24.0	12.0	-998.0
1634986761.216599	-1.0	0.0	0.0	0.0	0.0	0.0	63.0	66.0	10.0	0.0	85.0	970.59	0.0	-24.0	10.0	-1001.0
1634986761.2977	-1.0	0.0	0.0	0.0	0.0	0.0	63.0	66.0	10.0	0.0	85.0	970.56	0.0	-24.0	11.0	-998.0
1634986761.491212	-1.0	0.0	0.0	0.0	0.0	0.0	63.0	66.0	10.0	0.0	85.0	970.62	0.0	-24.0	10.0	-999.0
1634986761.507946	-1.0	0.0	0.0	0.0	0.0	0.0	63.0	66.0	10.0	0.0	85.0	970.6	0.0	-23.0	11.0	-998.0
1634986761.596553	-1.0	0.0	0.0	0.0	0.0	0.0	63.0	66.0	10.0	0.0	85.0	970.6	0.0	-24.0	10.0	-999.0
1634986761.711843	-1.0	0.0	0.0	0.0	0.0	0.0	63.0	66.0	10.0	0.0	85.0	970.63	0.0	-25.0	10.0	-1000.0
1634986761.805401	-1.0	0.0	0.0	0.0	0.0	0.0	63.0	66.0	10.0	0.0	85.0	970.62	0.0	-26.0	11.0	-998.0
1634986761.916643	-1.0	0.0	0.0	0.0	0.0	0.0	63.0	66.0	10.0	0.0	85.0	970.64	0.0	-24.0	10.0	-1000.0
1634986762.012999	-1.0	0.0	0.0	0.0	0.0	0.0	62.0	66.0	10.0	0.0	85.0	970.64	0.0	-23.0	10.0	-1000.0
1634986762.059863	-1.0	0.0	0.0	0.0	0.0	0.0	62.0	66.0	10.0	0.0	85.0	970.63	0.0	-23.0	10.0	-999.0
1634986762.15625	-1.0	0.0	0.0	0.0	0.0	0.0	62.0	66.0	10.0	0.0	85.0	970.63	0.0	-22.0	11.0	-998.0
1634986762.261984	-1.0	0.0	0.0	0.0	0.0	0.0	62.0	66.0	10.0	0.0	85.0	970.64	0.0	-24.0	12.0	-999.0
1634986762.371524	-1.0	0.0	0.0	0.0	0.0	0.0	62.0	66.0	10.0	0.0	85.0	970.6	0.0	-25.0	10.0	-997.0
1634986762.465248	-1.0	0.0	0.0	0.0	0.0	0.0	62.0	66.0	10.0	0.0	85.0	970.6	0.0	-24.0	9.0	-1002.0
1634986762.568505	-1.0	0.0	0.0	0.0	0.0	0.0	62.0	66.0	10.0	0.0	85.0	970.61	0.0	-24.0	10.0	-1000.0
1634986762.681016	-1.0	0.0	0.0	0.0	0.0	0.0	62.0	66.0	10.0	0.0	85.0	970.6	0.0	-24.0	9.0	-998.0
1634986762.782845	-1.0	0.0	0.0	0.0	0.0	0.0	62.0	66.0	10.0	0.0	85.0	970.64	0.0	-24.0	10.0	-998.0
1634986762.870212	-1.0	0.0	0.0	0.0	0.0	0.0	62.0	66.0	10.0	0.0	85.0	970.57	0.0	-24.0	9.0	-1000.0
1634986762.986558	-1.0	0.0	0.0	0.0	0.0	0.0	62.0	66.0	10.0	0.0	85.0	970.62	0.0	-24.0	9.0	-1002.0
1634986763.087902	-1.0	0.0	0.0	0.0	0.0	0.0	62.0	66.0	10.0	0.0	85.0	970.62	0.0	-24.0	8.0	-999.0
1634986763.190615	-1.0	0.0	0.0	0.0	0.0	0.0	62.0	66.0	10.0	0.0	85.0	970.64	0.0	-24.0	11.0	-1000.0
1634986763.287163	-1.0	0.0	0.0	0.0	0.0	0.0	62.0	66.0	10.0	0.0	85.0	970.62	0.0	-23.0	9.0	-998.0
1634986763.391864	-1.0	0.0	0.0	0.0	0.0	0.0	62.0	66.0	10.0	0.0	85.0	970.63	0.0	-23.0	12.0	-1000.0
1634986763.494241	-1.0	0.0	0.0	0.0	0.0	0.0	62.0	66.0	10.0	0.0	85.0	970.63	0.0	-23.0	11.0	-997.0
1634986763.596769	-1.0	0.0	0.0	0.0	0.0	0.0	62.0	66.0	10.0	0.0	85.0	970.61	0.0	-24.0	10.0	-1000.0
1634986763.691661	-1.0	0.0	0.0	0.0	0.0	0.0	62.0	66.0	10.0	0.0	85.0	970.65	0.0	-24.0	11.0	-1000.0
1634986763.794441	-1.0	0.0	0.0	0.0	0.0	0.0	62.0	66.0	10.0	0.0	85.0	970.61	0.0	-22.0	11.0	-1000.0
1634986763.889889	-1.0	0.0	0.0	0.0	0.0	0.0	62.0	66.0	10.0	0.0	85.0	970.62	0.0	-25.0	11.0	-999.0
1634986764.001075	-1.0	0.0	0.0	0.0	0.0	0.0	63.0	66.0	10.0	0.0	85.0	970.65	0.0	-22.0	9.0	-999.0
1634986764.107664	-1.0	0.0	0.0	0.0	0.0	0.0	63.0	66.0	10.0	0.0	85.0	970.63	0.0	-24.0	11.0	-997.0
1634986764.205349	-1.0	0.0	0.0	0.0	0.0	0.0	63.0	66.0	10.0	0.0	85.0	970.58	0.0	-24.0	11.0	-1001.0
1634986764.299078	-1.0	0.0	0.0	0.0	0.0	0.0	63.0	66.0	10.0	0.0	85.0	970.58	0.0	-26.0	9.0	-999.0
1634986764.404315	-1.0	0.0	0.0	0.0	0.0	0.0	63.0	66.0	10.0	0.0	85.0	970.64	0.0	-24.0	10.0	-999.0
1634986764.504656	-1.0	0.0	0.0	0.0	0.0	0.0	63.0	66.0	10.0	0.0	85.0	970.62	0.0	-24.0	12.0	-996.0
1634986764.615461	-1.0	0.0	0.0	0.0	0.0	0.0	63.0	66.0	10.0	0.0	85.0	970.61	0.0	-24.0	9.0	-999.0
1634986764.669947	-1.0	0.0	0.0	0.0	0.0	0.0	63.0	66.0	10.0	0.0	85.0	970.63	0.0	-23.0	10.0	-1001.0
1634986764.76661	-1.0	0.0	0.0	0.0	0.0	0.0	63.0	66.0	10.0	0.0	85.0	970.6	0.0	-24.0	11.0	-1001.0
1634986764.874033	-1.0	0.0	0.0	0.0	0.0	0.0	63.0	66.0	10.0	0.0	85.0	970.6	0.0	-23.0	11.0	-1001.0
1634986764.969028	-1.0	0.0	0.0	0.0	0.0	0.0	63.0	66.0	10.0	0.0	85.0	970.62	0.0	-24.0	9.0	-998.0
1634986765.066274	-1.0	0.0	0.0	0.0	0.0	0.0	63.0	66.0	10.0	0.0	85.0	970.59	0.0	-25.0	10.0	-997.0
1634986765.179873	-1.0	0.0	0.0	0.0	0.0	0.0	63.0	66.0	10.0	0.0	85.0	970.62	0.0	-24.0	9.0	-997.0
1634986765.274864	-1.0	0.0	0.0	0.0	0.0	0.0	63.0	66.0	10.0	0.0	85.0	970.62	0.0	-23.0	10.0	-999.0
1634986765.368589	-1.0	0.0	0.0	0.0	0.0	0.0	63.0	66.0	10.0	0.0	85.0	970.55	0.0	-23.0	12.0	-997.0
1634986765.471411	-1.0	0.0	0.0	0.0	0.0	0.0	63.0	66.0	10.0	0.0	85.0	970.61	0.0	-23.0	11.0	-1001.0
1634986765.574843	-1.0	0.0	0.0	0.0	0.0	0.0	63.0	66.0	10.0	0.0	85.0	970.57	0.0	-22.0	11.0	-999.0
1634986765.685875	-1.0	0.0	0.0	0.0	0.0	0.0	63.0	66.0	10.0	0.0	85.0	970.68	0.0	-25.0	9.0	-999.0
1634986765.788855	-1.0	0.0	0.0	0.0	0.0	0.0	63.0	66.0	10.0	0.0	85.0	970.61	0.0	-25.0	10.0	-1000.0
1634986765.888615	-1.0	0.0	0.0	0.0	0.0	0.0	63.0	66.0	10.0	0.0	85.0	970.64	0.0	-23.0	9.0	-999.0
1634986765.983855	-1.0	0.0	0.0	0.0	0.0	0.0	63.0	66.0	10.0	0.0	85.0	970.66	0.0	-24.0	10.0	-999.0
1634986766.093658	-1.0	0.0	0.0	0.0	0.0	0.0	63.0	66.0	10.0	0.0	85.0	970.66	0.0	-23.0	11.0	-1001.0
1634986766.191701	-1.0	0.0	0.0	0.0	0.0	0.0	63.0	66.0	10.0	0.0	85.0	970.6	0.0	-24.0	10.0	-999.0
1634986766.301253	-1.0	0.0	0.0	0.0	0.0	0.0	63.0	66.0	10.0	0.0	85.0	970.62	0.0	-24.0	10.0	-999.0
1634986766.39109	-1.0	0.0	0.0	0.0	0.0	0.0	63.0	66.0	10.0	0.0	85.0	970.63	0.0	-23.0	11.0	-997.0
1634986766.505662	-1.0	0.0	0.0	0.0	0.0	0.0	63.0	66.0	10.0	0.0	85.0	970.62	0.0	-24.0	10.0	-998.0
1634986766.600608	-1.0	0.0	0.0	0.0	0.0	0.0	63.0	66.0	10.0	0.0	85.0	970.59	0.0	-24.0	10.0	-998.0
1634986766.699737	-1.0	0.0	0.0	0.0	0.0	0.0	63.0	66.0	10.0	0.0	85.0	970.66	0.0	-24.0	12.0	-1001.0
1634986766.811612	-1.0	0.0	0.0	0.0	0.0	0.0	63.0	66.0	10.0	0.0	85.0	970.62	0.0	-25.0	9.0	-996.0
1634986766.913944	-1.0	0.0	0.0	0.0	0.0	0.0	63.0	66.0	10.0	0.0	85.0	970.61	0.0	-25.0	8.0	-997.0
1634986767.003604	-1.0	0.0	0.0	0.0	0.0	0.0	64.0	66.0	10.0	0.0	85.0	970.64	0.0	-21.0	9.0	-999.0
1634986767.117826	-1.0	0.0	0.0	0.0	0.0	0.0	64.0	66.0	10.0	0.0	85.0	970.66	0.0	-22.0	10.0	-998.0
1634986767.164761	-1.0	0.0	0.0	0.0	0.0	0.0	64.0	66.0	10.0	0.0	85.0	970.65	0.0	-24.0	10.0	-1000.0
1634986767.256579	-1.0	0.0	0.0	0.0	0.0	0.0	64.0	66.0	10.0	0.0	85.0	970.59	0.0	-25.0	10.0	-999.0
1634986767.368986	-1.0	0.0	0.0	0.0	0.0	0.0	64.0	66.0	10.0	0.0	85.0	970.6	0.0	-23.0	9.0	-1000.0
1634986767.46475	-1.0	0.0	0.0	0.0	0.0	0.0	64.0	66.0	10.0	0.0	85.0	970.6	0.0	-24.0	10.0	-998.0
1634986767.57158	-1.0	0.0	0.0	0.0	0.0	0.0	64.0	66.0	10.0	0.0	85.0	970.66	0.0	-25.0	11.0	-998.0
1634986767.665401	-1.0	0.0	0.0	0.0	0.0	0.0	64.0	66.0	10.0	0.0	85.0	970.61	0.0	-24.0	12.0	-998.0
1634986767.776398	-1.0	0.0	0.0	0.0	0.0	0.0	64.0	66.0	10.0	0.0	85.0	970.69	0.0	-24.0	11.0	-998.0
1634986767.878483	-1.0	0.0	0.0	0.0	0.0	0.0	64.0	66.0	10.0	0.0	85.0	970.57	0.0	-24.0	10.0	-999.0
1634986767.975841	-1.0	0.0	0.0	0.0	0.0	0.0	64.0	66.0	10.0	0.0	85.0	970.55	0.0	-24.0	10.0	-998.0
1634986768.072889	-1.0	0.0	0.0	0.0	0.0	0.0	64.0	66.0	10.0	0.0	85.0	970.57	0.0	-24.0	11.0	-999.0
1634986768.185349	-1.0	0.0	0.0	0.0	0.0	0.0	64.0	66.0	10.0	0.0	85.0	970.59	0.0	-24.0	10.0	-998.0
1634986768.289124	-1.0	0.0	0.0	0.0	0.0	0.0	64.0	66.0	10.0	0.0	85.0	970.58	0.0	-24.0	9.0	-999.0
1634986768.393848	-1.0	0.0	0.0	0.0	0.0	0.0	64.0	66.0	10.0	0.0	85.0	970.67	0.0	-24.0	10.0	-997.0
1634986768.482076	-1.0	0.0	0.0	0.0	0.0	0.0	64.0	66.0	10.0	0.0	85.0	970.59	0.0	-25.0	11.0	-999.0
1634986768.586599	-1.0	0.0	0.0	0.0	0.0	0.0	64.0	66.0	10.0	0.0	85.0	970.65	0.0	-25.0	12.0	-999.0
1634986768.69977	-1.0	0.0	0.0	0.0	0.0	0.0	64.0	66.0	10.0	0.0	85.0	970.61	0.0	-24.0	11.0	-998.0
1634986768.791762	-1.0	0.0	0.0	0.0	0.0	0.0	64.0	66.0	10.0	0.0	85.0	970.64	0.0	-24.0	10.0	-1000.0
1634986768.903611	-1.0	0.0	0.0	0.0	0.0	0.0	64.0	66.0	10.0	0.0	85.0	970.65	0.0	-24.0	10.0	-998.0
1634986768.996787	-1.0	0.0	0.0	0.0	0.0	0.0	63.0	67.0	10.0	0.0	85.0	970.58	0.0	-25.0	11.0	-998.0
1634986769.100314	-1.0	0.0	0.0	0.0	0.0	0.0	63.0	67.0	10.0	0.0	85.0	970.62	0.0	-24.0	12.0	-998.0
1634986769.197562	-1.0	0.0	0.0	0.0	0.0	0.0	63.0	67.0	10.0	0.0	85.0	970.61	0.0	-24.0	9.0	-998.0
1634986769.306917	-1.0	0.0	0.0	0.0	0.0	0.0	63.0	67.0	10.0	0.0	85.0	970.65	0.0	-26.0	9.0	-998.0
1634986769.40617	-1.0	0.0	0.0	0.0	0.0	0.0	63.0	67.0	10.0	0.0	85.0	970.6	0.0	-24.0	12.0	-999.0
1634986769.5035	-1.0	0.0	0.0	0.0	0.0	0.0	63.0	67.0	10.0	0.0	85.0	970.58	0.0	-23.0	10.0	-997.0
1634986769.607796	-1.0	0.0	0.0	0.0	0.0	0.0	63.0	67.0	10.0	0.0	85.0	970.65	0.0	-24.0	8.0	-1000.0
1634986769.66828	-1.0	0.0	0.0	0.0	0.0	0.0	63.0	67.0	10.0	0.0	85.0	970.66	0.0	-24.0	12.0	-1000.0
1634986769.765787	-1.0	0.0	0.0	0.0	0.0	0.0	63.0	67.0	10.0	0.0	85.0	970.58	0.0	-23.0	11.0	-999.0
1634986769.859519	-1.0	0.0	0.0	0.0	0.0	0.0	63.0	67.0	10.0	0.0	85.0	970.61	0.0	-23.0	10.0	-999.0
1634986769.96214	-1.0	0.0	0.0	0.0	0.0	0.0	64.0	66.0	10.0	0.0	85.0	970.58	0.0	-23.0	10.0	-1000.0
1634986770.076411	-1.0	0.0	0.0	0.0	0.0	0.0	64.0	66.0	10.0	0.0	85.0	970.64	0.0	-23.0	11.0	-999.0
1634986770.178189	-1.0	0.0	0.0	0.0	0.0	0.0	64.0	66.0	10.0	0.0	85.0	970.62	0.0	-24.0	10.0	-998.0
1634986770.272391	-1.0	0.0	0.0	0.0	0.0	0.0	64.0	66.0	10.0	0.0	85.0	970.62	0.0	-23.0	10.0	-1002.0
1634986770.381742	-1.0	0.0	0.0	0.0	0.0	0.0	64.0	66.0	10.0	0.0	85.0	970.63	0.0	-24.0	10.0	-999.0
1634986770.472235	-1.0	0.0	0.0	0.0	0.0	0.0	64.0	66.0	10.0	0.0	85.0	970.64	0.0	-24.0	10.0	-1001.0
1634986770.570948	-1.0	0.0	0.0	0.0	0.0	0.0	64.0	66.0	10.0	0.0	85.0	970.56	0.0	-23.0	12.0	-998.0
1634986770.683642	-1.0	0.0	0.0	0.0	0.0	0.0	64.0	66.0	10.0	0.0	85.0	970.66	0.0	-24.0	10.0	-1002.0
1634986770.7904	-1.0	0.0	0.0	0.0	0.0	0.0	64.0	66.0	10.0	0.0	85.0	970.64	0.0	-23.0	12.0	-999.0
1634986770.892439	-1.0	0.0	0.0	0.0	0.0	0.0	64.0	66.0	10.0	0.0	85.0	970.6	0.0	-23.0	10.0	-1000.0
1634986770.990473	-1.0	0.0	0.0	0.0	0.0	0.0	64.0	67.0	10.0	0.0	85.0	970.6	0.0	-22.0	11.0	-999.0
1634986771.084564	-1.0	0.0	0.0	0.0	0.0	0.0	64.0	67.0	10.0	0.0	85.0	970.6	0.0	-22.0	10.0	-1001.0
1634986771.197998	-1.0	0.0	0.0	0.0	0.0	0.0	64.0	67.0	10.0	0.0	85.0	970.58	0.0	-24.0	12.0	-999.0
1634986771.291732	-1.0	0.0	0.0	0.0	0.0	0.0	64.0	67.0	10.0	0.0	85.0	970.59	0.0	-24.0	10.0	-1000.0
1634986771.391474	-1.0	0.0	0.0	0.0	0.0	0.0	64.0	67.0	10.0	0.0	85.0	970.61	0.0	-23.0	11.0	-999.0
1634986771.504298	-1.0	0.0	0.0	0.0	0.0	0.0	64.0	67.0	10.0	0.0	85.0	970.56	0.0	-24.0	11.0	-998.0
1634986771.595692	-1.0	0.0	0.0	0.0	0.0	0.0	64.0	67.0	10.0	0.0	85.0	970.61	0.0	-23.0	12.0	-995.0
1634986771.701607	-1.0	0.0	0.0	0.0	0.0	0.0	64.0	67.0	10.0	0.0	85.0	970.61	0.0	-24.0	12.0	-1000.0
1634986771.798907	-1.0	0.0	0.0	0.0	0.0	0.0	64.0	67.0	10.0	0.0	85.0	970.59	0.0	-23.0	11.0	-996.0
1634986771.91228	-1.0	0.0	0.0	0.0	0.0	0.0	64.0	67.0	10.0	0.0	85.0	970.61	0.0	-25.0	11.0	-999.0
1634986772.0034	-1.0	0.0	0.0	0.0	0.0	0.0	65.0	67.0	10.0	0.0	85.0	970.64	0.0	-23.0	11.0	-998.0
1634986772.113022	-1.0	0.0	0.0	0.0	0.0	0.0	65.0	67.0	10.0	0.0	85.0	970.57	0.0	-24.0	10.0	-999.0
1634986772.208663	-1.0	0.0	0.0	0.0	0.0	0.0	65.0	67.0	10.0	0.0	85.0	970.57	0.0	-23.0	10.0	-997.0
1634986772.254468	-1.0	0.0	0.0	0.0	0.0	0.0	65.0	67.0	10.0	0.0	85.0	970.59	0.0	-24.0	9.0	-1001.0
1634986772.358022	-1.0	0.0	0.0	0.0	0.0	0.0	65.0	67.0	10.0	0.0	85.0	970.53	0.0	-23.0	10.0	-1000.0
1634986772.467372	-1.0	0.0	0.0	0.0	0.0	0.0	65.0	67.0	10.0	0.0	85.0	970.57	0.0	-22.0	9.0	-1001.0
1634986772.564513	-1.0	0.0	0.0	0.0	0.0	0.0	65.0	67.0	10.0	0.0	85.0	970.6	0.0	-22.0	10.0	-998.0
1634986772.6629	-1.0	0.0	0.0	0.0	0.0	0.0	65.0	67.0	10.0	0.0	85.0	970.61	0.0	-22.0	11.0	-998.0
1634986772.777773	-1.0	0.0	0.0	0.0	0.0	0.0	65.0	67.0	10.0	0.0	85.0	970.64	0.0	-24.0	10.0	-1000.0
1634986772.876943	-1.0	0.0	0.0	0.0	0.0	0.0	65.0	67.0	10.0	0.0	85.0	970.61	0.0	-22.0	12.0	-999.0
1634986772.976774	-1.0	0.0	0.0	0.0	0.0	0.0	64.0	68.0	10.0	0.0	85.0	970.59	0.0	-23.0	11.0	-998.0
1634986773.074936	-1.0	0.0	0.0	0.0	0.0	0.0	64.0	68.0	10.0	0.0	85.0	970.6	0.0	-24.0	10.0	-1002.0
1634986773.181098	-1.0	0.0	0.0	0.0	0.0	0.0	64.0	68.0	10.0	0.0	85.0	970.63	0.0	-23.0	10.0	-1000.0
1634986773.279335	-1.0	0.0	0.0	0.0	0.0	0.0	64.0	68.0	10.0	0.0	85.0	970.59	0.0	-25.0	9.0	-1001.0
1634986773.377263	-1.0	0.0	0.0	0.0	0.0	0.0	64.0	68.0	10.0	0.0	85.0	970.64	0.0	-20.0	11.0	-996.0
1634986773.478839	-1.0	0.0	0.0	0.0	0.0	0.0	64.0	68.0	10.0	0.0	85.0	970.59	0.0	-23.0	11.0	-1000.0
1634986773.580267	-1.0	0.0	0.0	0.0	0.0	0.0	64.0	68.0	10.0	0.0	85.0	970.59	0.0	-21.0	11.0	-997.0
1634986773.693654	-1.0	0.0	0.0	0.0	0.0	0.0	64.0	68.0	10.0	0.0	85.0	970.62	0.0	-23.0	11.0	-999.0
1634986773.799493	-1.0	0.0	0.0	0.0	0.0	0.0	64.0	68.0	10.0	0.0	85.0	970.66	0.0	-23.0	10.0	-999.0
1634986773.896273	-1.0	0.0	0.0	0.0	0.0	0.0	64.0	68.0	10.0	0.0	85.0	970.65	0.0	-24.0	10.0	-999.0
1634986773.991678	-1.0	0.0	0.0	0.0	0.0	0.0	64.0	67.0	10.0	0.0	85.0	970.61	0.0	-22.0	12.0	-996.0
1634986774.089897	-1.0	0.0	0.0	0.0	0.0	0.0	64.0	67.0	10.0	0.0	85.0	970.6	0.0	-23.0	10.0	-999.0
1634986774.205504	-1.0	0.0	0.0	0.0	0.0	0.0	64.0	67.0	10.0	0.0	85.0	970.63	0.0	-26.0	10.0	-996.0
1634986774.302712	-1.0	0.0	0.0	0.0	0.0	0.0	64.0	67.0	10.0	0.0	85.0	970.64	0.0	-23.0	12.0	-999.0
1634986774.405784	-1.0	0.0	0.0	0.0	0.0	0.0	64.0	67.0	10.0	0.0	85.0	970.63	0.0	-23.0	11.0	-1000.0
1634986774.503106	-1.0	0.0	0.0	0.0	0.0	0.0	64.0	67.0	10.0	0.0	85.0	970.67	0.0	-23.0	10.0	-1000.0
1634986774.600057	-1.0	0.0	0.0	0.0	0.0	0.0	64.0	67.0	10.0	0.0	85.0	970.66	0.0	-23.0	12.0	-996.0
1634986774.70269	-1.0	0.0	0.0	0.0	0.0	0.0	64.0	67.0	10.0	0.0	85.0	970.64	0.0	-22.0	11.0	-997.0
1634986774.81694	-1.0	0.0	0.0	0.0	0.0	0.0	64.0	67.0	10.0	0.0	85.0	970.64	0.0	-23.0	11.0	-999.0
1634986774.910669	-1.0	0.0	0.0	0.0	0.0	0.0	64.0	67.0	10.0	0.0	85.0	970.6	0.0	-23.0	9.0	-1000.0
1634986775.017978	-1.0	0.0	0.0	0.0	0.0	0.0	65.0	68.0	10.0	0.0	85.0	970.54	0.0	-23.0	10.0	-995.0
1634986775.060389	-1.0	0.0	0.0	0.0	0.0	0.0	65.0	68.0	10.0	0.0	85.0	970.57	0.0	-25.0	11.0	-998.0
1634986775.176345	-1.0	0.0	0.0	0.0	0.0	0.0	65.0	68.0	10.0	0.0	85.0	970.61	0.0	-24.0	11.0	-997.0
1634986775.264725	-1.0	0.0	0.0	0.0	0.0	0.0	65.0	68.0	10.0	0.0	85.0	970.64	0.0	-24.0	11.0	-998.0
1634986775.374265	-1.0	0.0	0.0	0.0	0.0	0.0	65.0	68.0	10.0	0.0	85.0	970.66	0.0	-24.0	10.0	-999.0
1634986775.467991	-1.0	0.0	0.0	0.0	0.0	0.0	65.0	68.0	10.0	0.0	85.0	970.64	0.0	-23.0	11.0	-1001.0
1634986775.572047	-1.0	0.0	0.0	0.0	0.0	0.0	65.0	68.0	10.0	0.0	85.0	970.61	0.0	-24.0	12.0	-1001.0
1634986775.682936	-1.0	0.0	0.0	0.0	0.0	0.0	65.0	68.0	10.0	0.0	85.0	970.57	0.0	-22.0	11.0	-997.0
1634986775.776849	-1.0	0.0	0.0	0.0	0.0	0.0	65.0	68.0	10.0	0.0	85.0	970.6	0.0	-25.0	11.0	-997.0
1634986775.879349	-1.0	0.0	0.0	0.0	0.0	0.0	65.0	68.0	10.0	0.0	85.0	970.68	0.0	-23.0	10.0	-998.0
1634986775.977756	-1.0	0.0	0.0	0.0	0.0	0.0	65.0	68.0	10.0	0.0	85.0	970.63	0.0	-23.0	10.0	-997.0
1634986776.084462	-1.0	0.0	0.0	0.0	0.0	0.0	65.0	68.0	10.0	0.0	85.0	970.6	0.0	-24.0	10.0	-999.0
1634986776.189834	-1.0	0.0	0.0	0.0	0.0	0.0	65.0	68.0	10.0	0.0	85.0	970.6	0.0	-23.0	11.0	-997.0
1634986776.2854	-1.0	0.0	0.0	0.0	0.0	0.0	65.0	68.0	10.0	0.0	85.0	970.61	0.0	-25.0	11.0	-1000.0
1634986776.394749	-1.0	0.0	0.0	0.0	0.0	0.0	65.0	68.0	10.0	0.0	85.0	970.66	0.0	-22.0	9.0	-1000.0
1634986776.497423	-1.0	0.0	0.0	0.0	0.0	0.0	65.0	68.0	10.0	0.0	85.0	970.62	0.0	-23.0	11.0	-997.0
1634986776.591341	-1.0	0.0	0.0	0.0	0.0	0.0	65.0	68.0	10.0	0.0	85.0	970.64	0.0	-25.0	11.0	-1001.0
1634986776.702509	-1.0	0.0	0.0	0.0	0.0	0.0	65.0	68.0	10.0	0.0	85.0	970.63	0.0	-24.0	9.0	-999.0
1634986776.808199	-1.0	0.0	0.0	0.0	0.0	0.0	65.0	68.0	10.0	0.0	85.0	970.58	0.0	-24.0	10.0	-996.0
1634986776.904785	-1.0	0.0	0.0	0.0	0.0	0.0	65.0	68.0	10.0	0.0	85.0	970.59	0.0	-22.0	11.0	-1000.0
1634986777.000341	-1.0	0.0	0.0	0.0	0.0	0.0	65.0	68.0	10.0	0.0	85.0	970.59	0.0	-24.0	11.0	-1000.0
1634986777.104467	-1.0	0.0	0.0	0.0	0.0	0.0	65.0	68.0	10.0	0.0	85.0	970.62	0.0	-24.0	9.0	-997.0
1634986777.216044	-1.0	0.0	0.0	0.0	0.0	0.0	65.0	68.0	10.0	0.0	85.0	970.62	0.0	-24.0	10.0	-1000.0
1634986777.313523	-1.0	0.0	0.0	0.0	0.0	0.0	65.0	68.0	10.0	0.0	85.0	970.63	0.0	-25.0	10.0	-997.0
1634986777.407937	-1.0	0.0	0.0	0.0	0.0	0.0	65.0	68.0	10.0	0.0	85.0	970.64	0.0	-24.0	10.0	-998.0
1634986777.506728	-1.0	0.0	0.0	0.0	0.0	0.0	65.0	68.0	10.0	0.0	85.0	970.61	0.0	-24.0	10.0	-997.0
1634986777.619022	-1.0	0.0	0.0	0.0	0.0	0.0	65.0	68.0	10.0	0.0	85.0	970.68	0.0	-24.0	10.0	-998.0
1634986777.72503	-1.0	0.0	0.0	0.0	0.0	0.0	65.0	68.0	10.0	0.0	85.0	970.6	0.0	-25.0	9.0	-997.0
1634986777.818282	-1.0	0.0	0.0	0.0	0.0	0.0	65.0	68.0	10.0	0.0	85.0	970.67	0.0	-24.0	9.0	-1000.0
1634986777.930073	-1.0	0.0	0.0	0.0	0.0	0.0	65.0	68.0	10.0	0.0	85.0	970.63	0.0	-21.0	11.0	-998.0
1634986778.022063	-1.0	0.0	0.0	0.0	0.0	0.0	65.0	68.0	10.0	0.0	85.0	970.64	0.0	-25.0	11.0	-1000.0
1634986778.133885	-1.0	0.0	0.0	0.0	0.0	0.0	65.0	68.0	10.0	0.0	85.0	970.65	0.0	-25.0	10.0	-999.0
1634986778.222456	-1.0	0.0	0.0	0.0	0.0	0.0	65.0	68.0	10.0	0.0	85.0	970.58	0.0	-23.0	11.0	-999.0
1634986778.290227	-1.0	0.0	0.0	0.0	0.0	0.0	65.0	68.0	10.0	0.0	85.0	970.6	0.0	-23.0	11.0	-1000.0
1634986778.386917	-1.0	0.0	0.0	0.0	0.0	0.0	65.0	68.0	10.0	0.0	85.0	970.65	0.0	-24.0	9.0	-1000.0
1634986778.481526	-1.0	0.0	0.0	0.0	0.0	0.0	65.0	68.0	10.0	0.0	85.0	970.66	0.0	-23.0	9.0	-1000.0
1634986778.593252	-1.0	0.0	0.0	0.0	0.0	0.0	65.0	68.0	10.0	0.0	85.0	970.68	0.0	-23.0	12.0	-996.0
1634986778.689768	-1.0	0.0	0.0	0.0	0.0	0.0	65.0	68.0	10.0	0.0	85.0	970.62	0.0	-24.0	11.0	-1000.0
1634986778.792109	-1.0	0.0	0.0	0.0	0.0	0.0	65.0	68.0	10.0	0.0	85.0	970.64	0.0	-23.0	12.0	-999.0
1634986778.887615	-1.0	0.0	0.0	0.0	0.0	0.0	65.0	68.0	10.0	0.0	85.0	970.61	0.0	-23.0	9.0	-997.0
1634986779.001298	-1.0	0.0	0.0	0.0	0.0	0.0	65.0	68.0	10.0	0.0	85.0	970.57	0.0	-21.0	10.0	-1000.0
1634986779.092555	-1.0	0.0	0.0	0.0	0.0	0.0	65.0	68.0	10.0	0.0	85.0	970.61	0.0	-24.0	11.0	-1000.0
1634986779.204907	-1.0	0.0	0.0	0.0	0.0	0.0	65.0	68.0	10.0	0.0	85.0	970.61	0.0	-23.0	9.0	-999.0
1634986779.301629	-1.0	0.0	0.0	0.0	0.0	0.0	65.0	68.0	10.0	0.0	85.0	970.62	0.0	-25.0	10.0	-999.0
1634986779.404535	-1.0	0.0	0.0	0.0	0.0	0.0	65.0	68.0	10.0	0.0	85.0	970.61	0.0	-25.0	11.0	-1001.0
1634986779.500045	-1.0	0.0	0.0	0.0	0.0	0.0	65.0	68.0	10.0	0.0	85.0	970.67	0.0	-23.0	10.0	-998.0
1634986779.61317	-1.0	0.0	0.0	0.0	0.0	0.0	65.0	68.0	10.0	0.0	85.0	970.58	0.0	-23.0	10.0	-995.0
1634986779.710597	-1.0	0.0	0.0	0.0	0.0	0.0	65.0	68.0	10.0	0.0	85.0	970.58	0.0	-25.0	10.0	-1000.0
1634986779.806146	-1.0	0.0	0.0	0.0	0.0	0.0	65.0	68.0	10.0	0.0	85.0	970.54	0.0	-23.0	10.0	-997.0
1634986779.917137	-1.0	0.0	0.0	0.0	0.0	0.0	65.0	68.0	10.0	0.0	85.0	970.64	0.0	-23.0	11.0	-999.0
1634986780.006801	-1.0	0.0	0.0	0.0	0.0	0.0	66.0	69.0	10.0	0.0	85.0	970.63	0.0	-24.0	9.0	-1000.0
1634986780.119307	-1.0	0.0	0.0	0.0	0.0	0.0	66.0	69.0	10.0	0.0	85.0	970.6	0.0	-25.0	12.0	-1000.0
1634986780.214871	-1.0	0.0	0.0	0.0	0.0	0.0	66.0	69.0	10.0	0.0	85.0	970.56	0.0	-23.0	10.0	-999.0
1634986780.327486	-1.0	0.0	0.0	0.0	0.0	0.0	66.0	69.0	10.0	0.0	85.0	970.62	0.0	-24.0	13.0	-998.0
1634986780.426094	-1.0	0.0	0.0	0.0	0.0	0.0	66.0	69.0	10.0	0.0	85.0	970.57	0.0	-22.0	11.0	-1000.0
1634986780.521673	-1.0	0.0	0.0	0.0	0.0	0.0	66.0	69.0	10.0	0.0	85.0	970.6	0.0	-24.0	8.0	-998.0
1634986780.618263	-1.0	0.0	0.0	0.0	0.0	0.0	66.0	69.0	10.0	0.0	85.0	970.59	0.0	-23.0	11.0	-997.0
1634986780.730865	-1.0	0.0	0.0	0.0	0.0	0.0	66.0	69.0	10.0	0.0	85.0	970.62	0.0	-23.0	11.0	-998.0
1634986780.832399	-1.0	0.0	0.0	0.0	0.0	0.0	66.0	69.0	10.0	0.0	85.0	970.62	0.0	-24.0	11.0	-999.0
1634986780.925456	-1.0	0.0	0.0	0.0	0.0	0.0	66.0	69.0	10.0	0.0	85.0	970.57	0.0	-24.0	12.0	-999.0
1634986781.038352	-1.0	0.0	0.0	0.0	0.0	0.0	66.0	68.0	10.0	0.0	85.0	970.63	0.0	-24.0	10.0	-999.0
1634986781.13823	-1.0	0.0	0.0	0.0	0.0	0.0	66.0	68.0	10.0	0.0	85.0	970.63	0.0	-26.0	10.0	-999.0
1634986781.233597	-1.0	0.0	0.0	0.0	0.0	0.0	66.0	68.0	10.0	0.0	85.0	970.59	0.0	-23.0	10.0	-999.0
1634986781.346708	-1.0	0.0	0.0	0.0	0.0	0.0	66.0	68.0	10.0	0.0	85.0	970.65	0.0	-24.0	9.0	-1001.0
1634986781.439011	-1.0	0.0	0.0	0.0	0.0	0.0	66.0	68.0	10.0	0.0	85.0	970.58	0.0	-23.0	12.0	-1000.0
1634986781.550661	-1.0	0.0	0.0	0.0	0.0	0.0	66.0	68.0	10.0	0.0	85.0	970.59	0.0	-23.0	11.0	-998.0
1634986781.696661	-1.0	0.0	0.0	0.0	0.0	0.0	66.0	68.0	10.0	0.0	85.0	970.61	0.0	-24.0	11.0	-999.0
1634986781.696661	-1.0	0.0	0.0	0.0	0.0	0.0	66.0	68.0	10.0	0.0	85.0	970.61	0.0	-24.0	11.0	-997.0
1634986781.84031	-1.0	0.0	0.0	0.0	0.0	0.0	66.0	68.0	10.0	0.0	85.0	970.65	0.0	-23.0	10.0	-997.0
1634986781.992899	-1.0	0.0	0.0	0.0	0.0	0.0	66.0	68.0	10.0	0.0	85.0	970.64	0.0	-24.0	11.0	-996.0
1634986782.006361	-1.0	0.0	0.0	0.0	0.0	0.0	65.0	69.0	10.0	0.0	85.0	970.61	0.0	-24.0	11.0	-998.0
1634986782.137757	-1.0	0.0	0.0	0.0	0.0	0.0	65.0	69.0	10.0	0.0	85.0	970.64	0.0	-22.0	11.0	-997.0
1634986782.304567	-1.0	0.0	0.0	0.0	0.0	0.0	65.0	69.0	10.0	0.0	85.0	970.65	0.0	-22.0	11.0	-1000.0
1634986782.316114	-1.0	0.0	0.0	0.0	0.0	0.0	65.0	69.0	10.0	0.0	85.0	970.58	0.0	-24.0	9.0	-999.0
1634986782.409825	-1.0	0.0	0.0	0.0	0.0	0.0	65.0	69.0	10.0	0.0	85.0	970.58	0.0	-24.0	11.0	-997.0
1634986782.616229	-1.0	0.0	0.0	0.0	0.0	0.0	65.0	69.0	10.0	0.0	85.0	970.53	0.0	-24.0	9.0	-998.0
1634986782.616229	-1.0	0.0	0.0	0.0	0.0	0.0	65.0	69.0	10.0	0.0	85.0	970.58	0.0	-24.0	9.0	-999.0
1634986782.760484	-1.0	0.0	0.0	0.0	0.0	0.0	65.0	69.0	10.0	0.0	85.0	970.56	0.0	-22.0	10.0	-998.0
1634986782.92039	-1.0	0.0	0.0	0.0	0.0	0.0	65.0	69.0	10.0	0.0	85.0	970.61	0.0	-24.0	11.0	-999.0
1634986782.92039	-1.0	0.0	0.0	0.0	0.0	0.0	65.0	69.0	10.0	0.0	85.0	970.57	0.0	-24.0	10.0	-997.0
1634986783.077104	-1.0	0.0	0.0	0.0	0.0	0.0	66.0	69.0	10.0	0.0	85.0	970.6	0.0	-23.0	11.0	-1000.0
1634986783.127195	-1.0	0.0	0.0	0.0	0.0	0.0	66.0	69.0	10.0	0.0	85.0	970.62	0.0	-23.0	11.0	-1000.0
1634986783.222527	-1.0	0.0	0.0	0.0	0.0	0.0	66.0	69.0	10.0	0.0	85.0	970.61	0.0	-24.0	10.0	-997.0
1634986783.335694	-1.0	0.0	0.0	0.0	0.0	0.0	66.0	69.0	10.0	0.0	85.0	970.61	0.0	-25.0	12.0	-999.0
1634986783.372458	-1.0	0.0	0.0	0.0	0.0	0.0	66.0	69.0	10.0	0.0	85.0	970.61	0.0	-25.0	12.0	-999.0
1634986783.436548	-1.0	0.0	0.0	0.0	0.0	0.0	66.0	69.0	10.0	0.0	85.0	970.64	0.0	-24.0	10.0	-995.0
1634986783.529912	-1.0	0.0	0.0	0.0	0.0	0.0	66.0	69.0	10.0	0.0	85.0	970.58	0.0	-25.0	10.0	-1001.0
1634986783.641199	-1.0	0.0	0.0	0.0	0.0	0.0	66.0	69.0	10.0	0.0	85.0	970.57	0.0	-23.0	10.0	-996.0
1634986783.734922	-1.0	0.0	0.0	0.0	0.0	0.0	66.0	69.0	10.0	0.0	85.0	970.63	0.0	-24.0	9.0	-998.0
1634986783.840521	-1.0	0.0	0.0	0.0	0.0	0.0	66.0	69.0	10.0	0.0	85.0	970.56	0.0	-23.0	11.0	-996.0
1634986783.93775	-1.0	0.0	0.0	0.0	0.0	0.0	66.0	69.0	10.0	0.0	85.0	970.61	0.0	-23.0	10.0	-1002.0
1634986784.034994	-1.0	0.0	0.0	0.0	0.0	0.0	66.0	68.0	10.0	0.0	85.0	970.56	0.0	-24.0	11.0	-1000.0
1634986784.034994	-1.0	0.0	0.0	0.0	0.0	0.0	66.0	68.0	10.0	0.0	85.0	970.56	0.0	-24.0	11.0	-1000.0
1634986784.138648	-1.0	0.0	0.0	0.0	0.0	0.0	66.0	68.0	10.0	0.0	85.0	970.57	0.0	-25.0	11.0	-998.0
1634986784.253939	-1.0	0.0	0.0	0.0	0.0	0.0	66.0	68.0	10.0	0.0	85.0	970.6	0.0	-23.0	12.0	-996.0
1634986784.355505	-1.0	0.0	0.0	0.0	0.0	0.0	66.0	68.0	10.0	0.0	85.0	970.6	0.0	-25.0	11.0	-999.0
1634986784.44819	-1.0	0.0	0.0	0.0	0.0	0.0	66.0	68.0	10.0	0.0	85.0	970.56	0.0	-23.0	10.0	-999.0
1634986784.545456	-1.0	0.0	0.0	0.0	0.0	0.0	66.0	68.0	10.0	0.0	85.0	970.54	0.0	-25.0	11.0	-996.0
1634986784.657754	-1.0	0.0	0.0	0.0	0.0	0.0	66.0	68.0	10.0	0.0	85.0	970.57	0.0	-25.0	10.0	-997.0
1634986784.763647	-1.0	0.0	0.0	0.0	0.0	0.0	66.0	68.0	10.0	0.0	85.0	970.56	0.0	-25.0	12.0	-1001.0
1634986784.860385	-1.0	0.0	0.0	0.0	0.0	0.0	66.0	68.0	10.0	0.0	85.0	970.57	0.0	-24.0	9.0	-999.0
1634986784.908848	-1.0	0.0	0.0	0.0	0.0	0.0	66.0	68.0	10.0	0.0	85.0	970.6	0.0	-25.0	11.0	-999.0
1634986785.058878	-1.0	0.0	0.0	0.0	0.0	0.0	66.0	69.0	10.0	0.0	85.0	970.59	0.0	-23.0	9.0	-997.0
1634986785.156854	-1.0	0.0	0.0	0.0	0.0	0.0	66.0	69.0	10.0	0.0	85.0	970.55	0.0	-24.0	10.0	-1000.0
1634986785.209841	-1.0	0.0	0.0	0.0	0.0	0.0	66.0	69.0	10.0	0.0	85.0	970.56	0.0	-24.0	11.0	-1000.0
1634986785.312282	-1.0	0.0	0.0	0.0	0.0	0.0	66.0	69.0	10.0	0.0	85.0	970.6	0.0	-23.0	11.0	-999.0
1634986785.426372	-1.0	0.0	0.0	0.0	0.0	0.0	66.0	69.0	10.0	0.0	85.0	970.58	0.0	-24.0	10.0	-996.0
1634986785.524439	-1.0	0.0	0.0	0.0	0.0	0.0	66.0	69.0	10.0	0.0	85.0	970.57	0.0	-24.0	10.0	-1001.0
1634986785.618463	-1.0	0.0	0.0	0.0	0.0	0.0	66.0	69.0	10.0	0.0	85.0	970.56	0.0	-23.0	12.0	-998.0
1634986785.732279	-1.0	0.0	0.0	0.0	0.0	0.0	66.0	69.0	10.0	0.0	85.0	970.57	0.0	-23.0	10.0	-999.0
1634986785.827565	-1.0	0.0	0.0	0.0	0.0	0.0	66.0	69.0	10.0	0.0	85.0	970.59	0.0	-22.0	8.0	-1002.0
1634986785.934324	-1.0	0.0	0.0	0.0	0.0	0.0	66.0	69.0	10.0	0.0	85.0	970.59	0.0	-24.0	9.0	-1001.0
1634986786.031738	-1.0	0.0	0.0	0.0	0.0	0.0	66.0	69.0	10.0	0.0	85.0	970.6	0.0	-23.0	10.0	-999.0
1634986786.132222	-1.0	0.0	0.0	0.0	0.0	0.0	66.0	69.0	10.0	0.0	85.0	970.58	0.0	-24.0	10.0	-997.0
1634986786.238974	-1.0	0.0	0.0	0.0	0.0	0.0	66.0	69.0	10.0	0.0	85.0	970.58	0.0	-24.0	10.0	-999.0
1634986786.334268	-1.0	0.0	0.0	0.0	0.0	0.0	66.0	69.0	10.0	0.0	85.0	970.63	0.0	-24.0	10.0	-998.0
1634986786.431443	-1.0	0.0	0.0	0.0	0.0	0.0	66.0	69.0	10.0	0.0	85.0	970.54	0.0	-24.0	8.0	-999.0
1634986786.548585	-1.0	0.0	0.0	0.0	0.0	0.0	66.0	69.0	10.0	0.0	85.0	970.57	0.0	-24.0	10.0	-999.0
1634986786.647409	-1.0	0.0	0.0	0.0	0.0	0.0	66.0	69.0	10.0	0.0	85.0	970.56	0.0	-23.0	12.0	-998.0
1634986786.742481	-1.0	0.0	0.0	0.0	0.0	0.0	66.0	69.0	10.0	0.0	85.0	970.53	0.0	-24.0	8.0	-999.0
1634986786.854752	-1.0	0.0	0.0	0.0	0.0	0.0	66.0	69.0	10.0	0.0	85.0	970.59	0.0	-23.0	9.0	-999.0
1634986786.951603	-1.0	0.0	0.0	0.0	0.0	0.0	66.0	69.0	10.0	0.0	85.0	970.58	0.0	-24.0	9.0	-1001.0
1634986787.047157	-1.0	0.0	0.0	0.0	0.0	0.0	67.0	70.0	10.0	0.0	85.0	970.59	0.0	-23.0	10.0	-998.0
1634986787.15135	-1.0	0.0	0.0	0.0	0.0	0.0	67.0	70.0	10.0	0.0	85.0	970.59	0.0	-23.0	11.0	-1001.0
1634986787.262578	-1.0	0.0	0.0	0.0	0.0	0.0	67.0	70.0	10.0	0.0	85.0	970.61	0.0	-23.0	9.0	-1000.0
1634986787.358981	-1.0	0.0	0.0	0.0	0.0	0.0	67.0	70.0	10.0	0.0	85.0	970.6	0.0	-23.0	10.0	-997.0
1634986787.463556	-1.0	0.0	0.0	0.0	0.0	0.0	67.0	70.0	10.0	0.0	85.0	970.62	0.0	-24.0	10.0	-995.0
1634986787.560712	-1.0	0.0	0.0	0.0	0.0	0.0	67.0	70.0	10.0	0.0	85.0	970.58	0.0	-24.0	10.0	-1000.0
1634986787.655915	-1.0	0.0	0.0	0.0	0.0	0.0	67.0	70.0	10.0	0.0	85.0	970.64	0.0	-24.0	10.0	-999.0
1634986787.759446	-1.0	0.0	0.0	0.0	0.0	0.0	67.0	70.0	10.0	0.0	85.0	970.61	0.0	-23.0	10.0	-999.0
1634986787.868791	-1.0	0.0	0.0	0.0	0.0	0.0	67.0	70.0	10.0	0.0	85.0	970.62	0.0	-25.0	11.0	-1000.0
1634986787.964226	-1.0	0.0	0.0	0.0	0.0	0.0	67.0	70.0	10.0	0.0	85.0	970.65	0.0	-24.0	10.0	-1000.0
1634986788.066642	-1.0	0.0	0.0	0.0	0.0	0.0	66.0	71.0	10.0	0.0	85.0	970.56	0.0	-25.0	10.0	-999.0
1634986788.175992	-1.0	0.0	0.0	0.0	0.0	0.0	66.0	71.0	10.0	0.0	85.0	970.62	0.0	-24.0	10.0	-1002.0
1634986788.272339	-1.0	0.0	0.0	0.0	0.0	0.0	66.0	71.0	10.0	0.0	85.0	970.6	0.0	-22.0	11.0	-998.0
1634986788.329174	-1.0	0.0	0.0	0.0	0.0	0.0	66.0	71.0	10.0	0.0	85.0	970.64	0.0	-22.0	9.0	-999.0
1634986788.424818	-1.0	0.0	0.0	0.0	0.0	0.0	66.0	71.0	10.0	0.0	85.0	970.59	0.0	-24.0	10.0	-996.0
1634986788.537049	-1.0	0.0	0.0	0.0	0.0	0.0	66.0	71.0	10.0	0.0	85.0	970.61	0.0	-24.0	11.0	-998.0
1634986788.627223	-1.0	0.0	0.0	0.0	0.0	0.0	66.0	71.0	10.0	0.0	85.0	970.6	0.0	-22.0	10.0	-1001.0
1634986788.738118	-1.0	0.0	0.0	0.0	0.0	0.0	66.0	71.0	10.0	0.0	85.0	970.61	0.0	-25.0	11.0	-1000.0
1634986788.833387	-1.0	0.0	0.0	0.0	0.0	0.0	66.0	71.0	10.0	0.0	85.0	970.64	0.0	-22.0	10.0	-1000.0
1634986788.941956	-1.0	0.0	0.0	0.0	0.0	0.0	66.0	71.0	10.0	0.0	85.0	970.62	0.0	-25.0	8.0	-998.0
1634986789.039051	-1.0	0.0	0.0	0.0	0.0	0.0	66.0	70.0	10.0	0.0	85.0	970.67	0.0	-23.0	9.0	-999.0
1634986789.149427	-1.0	0.0	0.0	0.0	0.0	0.0	66.0	70.0	10.0	0.0	85.0	970.63	0.0	-24.0	10.0	-996.0
1634986789.248194	-1.0	0.0	0.0	0.0	0.0	0.0	66.0	70.0	10.0	0.0	85.0	970.66	0.0	-25.0	11.0	-1001.0
1634986789.343747	-1.0	0.0	0.0	0.0	0.0	0.0	66.0	70.0	10.0	0.0	85.0	970.61	0.0	-23.0	8.0	-1002.0
1634986789.440717	-1.0	0.0	0.0	0.0	0.0	0.0	66.0	70.0	10.0	0.0	85.0	970.65	0.0	-24.0	11.0	-1000.0
1634986789.547628	-1.0	0.0	0.0	0.0	0.0	0.0	66.0	70.0	10.0	0.0	85.0	970.66	0.0	-24.0	10.0	-1001.0
1634986789.646292	-1.0	0.0	0.0	0.0	0.0	0.0	66.0	70.0	10.0	0.0	85.0	970.64	0.0	-23.0	8.0	-998.0
1634986789.757204	-1.0	0.0	0.0	0.0	0.0	0.0	66.0	70.0	10.0	0.0	85.0	970.65	0.0	-23.0	11.0	-999.0
1634986789.85774	-1.0	0.0	0.0	0.0	0.0	0.0	66.0	70.0	10.0	0.0	85.0	970.6	0.0	-25.0	11.0	-999.0
1634986789.956237	-1.0	0.0	0.0	0.0	0.0	0.0	66.0	70.0	10.0	0.0	85.0	970.58	0.0	-24.0	10.0	-998.0
1634986790.060552	-1.0	0.0	0.0	0.0	0.0	0.0	67.0	70.0	10.0	0.0	85.0	970.62	0.0	-24.0	11.0	-998.0
1634986790.16896	-1.0	0.0	0.0	0.0	0.0	0.0	67.0	70.0	10.0	0.0	85.0	970.61	0.0	-22.0	9.0	-1000.0
1634986790.264373	-1.0	0.0	0.0	0.0	0.0	0.0	67.0	70.0	10.0	0.0	85.0	970.66	0.0	-24.0	10.0	-998.0
1634986790.359937	-1.0	0.0	0.0	0.0	0.0	0.0	67.0	70.0	10.0	0.0	85.0	970.61	0.0	-24.0	11.0	-998.0
1634986790.467256	-1.0	0.0	0.0	0.0	0.0	0.0	67.0	70.0	10.0	0.0	85.0	970.6	0.0	-25.0	10.0	-998.0
1634986790.467256	-1.0	0.0	0.0	0.0	0.0	0.0	67.0	70.0	10.0	0.0	85.0	970.6	0.0	-25.0	10.0	-998.0
1634986790.564524	-1.0	0.0	0.0	0.0	0.0	0.0	67.0	70.0	10.0	0.0	85.0	970.67	0.0	-23.0	12.0	-998.0
1634986790.673871	-1.0	0.0	0.0	0.0	0.0	0.0	67.0	70.0	10.0	0.0	85.0	970.62	0.0	-22.0	10.0	-998.0
1634986790.780883	-1.0	0.0	0.0	0.0	0.0	0.0	67.0	70.0	10.0	0.0	85.0	970.67	0.0	-25.0	11.0	-997.0
1634986790.88116	-1.0	0.0	0.0	0.0	0.0	0.0	67.0	70.0	10.0	0.0	85.0	970.62	0.0	-23.0	9.0	-999.0
1634986790.979921	-1.0	0.0	0.0	0.0	0.0	0.0	67.0	70.0	10.0	0.0	85.0	970.65	0.0	-24.0	9.0	-999.0
1634986791.085419	-1.0	0.0	0.0	0.0	0.0	0.0	67.0	70.0	10.0	0.0	85.0	970.65	0.0	-24.0	9.0	-999.0
1634986791.088232	-1.0	0.0	0.0	0.0	0.0	0.0	67.0	70.0	10.0	0.0	85.0	970.66	0.0	-23.0	11.0	-1000.0
1634986791.185951	-1.0	0.0	0.0	0.0	0.0	0.0	67.0	70.0	10.0	0.0	85.0	970.68	0.0	-22.0	11.0	-998.0
1634986791.287925	-1.0	0.0	0.0	0.0	0.0	0.0	67.0	70.0	10.0	0.0	85.0	970.68	0.0	-24.0	10.0	-1000.0
1634986791.386017	-1.0	0.0	0.0	0.0	0.0	0.0	67.0	70.0	10.0	0.0	85.0	970.7	0.0	-23.0	11.0	-999.0
1634986791.487557	-1.0	0.0	0.0	0.0	0.0	0.0	67.0	70.0	10.0	0.0	85.0	970.66	0.0	-23.0	9.0	-999.0
1634986791.582807	-1.0	0.0	0.0	0.0	0.0	0.0	67.0	70.0	10.0	0.0	85.0	970.62	0.0	-23.0	10.0	-1002.0
1634986791.642711	-1.0	0.0	0.0	0.0	0.0	0.0	67.0	70.0	10.0	0.0	85.0	970.62	0.0	-22.0	11.0	-1000.0
1634986791.741458	-1.0	0.0	0.0	0.0	0.0	0.0	67.0	70.0	10.0	0.0	85.0	970.61	0.0	-23.0	11.0	-999.0
1634986791.850812	-1.0	0.0	0.0	0.0	0.0	0.0	67.0	70.0	10.0	0.0	85.0	970.64	0.0	-24.0	11.0	-1000.0
1634986791.940085	-1.0	0.0	0.0	0.0	0.0	0.0	67.0	70.0	10.0	0.0	85.0	970.65	0.0	-22.0	11.0	-997.0
1634986792.056369	-1.0	0.0	0.0	0.0	0.0	0.0	67.0	70.0	10.0	0.0	85.0	970.6	0.0	-24.0	10.0	-999.0
1634986792.151354	-1.0	0.0	0.0	0.0	0.0	0.0	67.0	70.0	10.0	0.0	85.0	970.64	0.0	-24.0	10.0	-998.0
1634986792.252827	-1.0	0.0	0.0	0.0	0.0	0.0	67.0	70.0	10.0	0.0	85.0	970.64	0.0	-24.0	11.0	-999.0
1634986792.348373	-1.0	0.0	0.0	0.0	0.0	0.0	67.0	70.0	10.0	0.0	85.0	970.61	0.0	-24.0	11.0	-997.0
1634986792.460944	-1.0	0.0	0.0	0.0	0.0	0.0	67.0	70.0	10.0	0.0	85.0	970.58	0.0	-25.0	12.0	-1000.0
1634986792.559192	-1.0	0.0	0.0	0.0	0.0	0.0	67.0	70.0	10.0	0.0	85.0	970.6	0.0	-23.0	10.0	-996.0
1634986792.656005	-1.0	0.0	0.0	0.0	0.0	0.0	67.0	70.0	10.0	0.0	85.0	970.57	0.0	-24.0	11.0	-997.0
1634986792.760673	-1.0	0.0	0.0	0.0	0.0	0.0	67.0	70.0	10.0	0.0	85.0	970.63	0.0	-24.0	10.0	-998.0
1634986792.857021	-1.0	0.0	0.0	0.0	0.0	0.0	67.0	70.0	10.0	0.0	85.0	970.57	0.0	-23.0	10.0	-998.0
1634986792.968027	-1.0	0.0	0.0	0.0	0.0	0.0	67.0	70.0	10.0	0.0	85.0	970.62	0.0	-23.0	11.0	-998.0
1634986793.072948	-1.0	0.0	0.0	0.0	0.0	0.0	67.0	71.0	10.0	0.0	85.0	970.61	0.0	-24.0	12.0	-999.0
1634986793.233618	-1.0	0.0	0.0	0.0	0.0	0.0	67.0	71.0	10.0	0.0	85.0	970.63	0.0	-23.0	11.0	-996.0
1634986793.383251	-1.0	0.0	0.0	0.0	0.0	0.0	67.0	71.0	10.0	0.0	85.0	970.67	0.0	-25.0	10.0	-999.0
1634986793.387129	-1.0	0.0	0.0	0.0	0.0	0.0	67.0	71.0	10.0	0.0	85.0	970.61	0.0	-23.0	10.0	-998.0
1634986793.470008	-1.0	0.0	0.0	0.0	0.0	0.0	67.0	71.0	10.0	0.0	85.0	970.66	0.0	-24.0	10.0	-999.0
1634986793.598284	-1.0	0.0	0.0	0.0	0.0	0.0	67.0	71.0	10.0	0.0	85.0	970.61	0.0	-24.0	10.0	-997.0
1634986793.693977	-1.0	0.0	0.0	0.0	0.0	0.0	67.0	71.0	10.0	0.0	85.0	970.64	0.0	-22.0	10.0	-998.0
1634986793.827097	-1.0	0.0	0.0	0.0	0.0	0.0	67.0	71.0	10.0	0.0	85.0	970.68	0.0	-22.0	10.0	-1000.0
1634986793.981499	-1.0	0.0	0.0	0.0	0.0	0.0	67.0	71.0	10.0	0.0	85.0	970.66	0.0	-22.0	10.0	-997.0
1634986793.994121	-1.0	0.0	0.0	0.0	0.0	0.0	67.0	71.0	10.0	0.0	85.0	970.58	0.0	-22.0	9.0	-998.0
1634986794.125709	-1.0	0.0	0.0	0.0	0.0	0.0	67.0	70.0	10.0	0.0	85.0	970.67	0.0	-24.0	11.0	-999.0
1634986794.293031	-1.0	0.0	0.0	0.0	0.0	0.0	67.0	70.0	10.0	0.0	85.0	970.62	0.0	-23.0	11.0	-999.0
1634986794.300356	-1.0	0.0	0.0	0.0	0.0	0.0	67.0	70.0	10.0	0.0	85.0	970.63	0.0	-24.0	11.0	-998.0
1634986794.443598	-1.0	0.0	0.0	0.0	0.0	0.0	67.0	70.0	10.0	0.0	85.0	970.61	0.0	-23.0	10.0	-998.0
1634986794.606758	-1.0	0.0	0.0	0.0	0.0	0.0	67.0	70.0	10.0	0.0	85.0	970.59	0.0	-23.0	11.0	-999.0
1634986794.607756	-1.0	0.0	0.0	0.0	0.0	0.0	67.0	70.0	10.0	0.0	85.0	970.61	0.0	-23.0	11.0	-996.0
1634986794.735379	-1.0	0.0	0.0	0.0	0.0	0.0	67.0	70.0	10.0	0.0	85.0	970.6	0.0	-24.0	10.0	-998.0
1634986794.904729	-1.0	0.0	0.0	0.0	0.0	0.0	67.0	70.0	10.0	0.0	85.0	970.65	0.0	-24.0	13.0	-998.0
1634986794.904729	-1.0	0.0	0.0	0.0	0.0	0.0	67.0	70.0	10.0	0.0	85.0	970.62	0.0	-24.0	11.0	-1002.0
1634986795.048796	-1.0	0.0	0.0	0.0	0.0	0.0	67.0	70.0	10.0	0.0	85.0	970.6	0.0	-25.0	10.0	-1000.0
1634986795.217193	-1.0	0.0	0.0	0.0	0.0	0.0	67.0	71.0	10.0	0.0	85.0	970.63	0.0	-23.0	10.0	-996.0
1634986795.217193	-1.0	0.0	0.0	0.0	0.0	0.0	67.0	71.0	10.0	0.0	85.0	970.64	0.0	-25.0	11.0	-999.0
1634986795.364048	-1.0	0.0	0.0	0.0	0.0	0.0	67.0	71.0	10.0	0.0	85.0	970.65	0.0	-23.0	10.0	-998.0
1634986795.364048	-1.0	0.0	0.0	0.0	0.0	0.0	67.0	71.0	10.0	0.0	85.0	970.58	0.0	-23.0	10.0	-1001.0
1634986795.523402	-1.0	0.0	0.0	0.0	0.0	0.0	67.0	71.0	10.0	0.0	85.0	970.65	0.0	-25.0	10.0	-997.0
1634986795.668793	-1.0	0.0	0.0	0.0	0.0	0.0	67.0	71.0	10.0	0.0	85.0	970.64	0.0	-23.0	10.0	-997.0
1634986795.668793	-1.0	0.0	0.0	0.0	0.0	0.0	67.0	71.0	10.0	0.0	85.0	970.64	0.0	-24.0	10.0	-997.0
1634986795.835052	-1.0	0.0	0.0	0.0	0.0	0.0	67.0	71.0	10.0	0.0	85.0	970.6	0.0	-24.0	10.0	-999.0
1634986795.966836	-1.0	0.0	0.0	0.0	0.0	0.0	67.0	71.0	10.0	0.0	85.0	970.64	0.0	-24.0	11.0	-998.0
1634986795.982944	-1.0	0.0	0.0	0.0	0.0	0.0	67.0	71.0	10.0	0.0	85.0	970.63	0.0	-22.0	10.0	-999.0
1634986796.134523	-1.0	0.0	0.0	0.0	0.0	0.0	68.0	71.0	10.0	0.0	85.0	970.67	0.0	-23.0	11.0	-999.0
1634986796.277724	-1.0	0.0	0.0	0.0	0.0	0.0	68.0	71.0	10.0	0.0	85.0	970.66	0.0	-24.0	10.0	-999.0
1634986796.277724	-1.0	0.0	0.0	0.0	0.0	0.0	68.0	71.0	10.0	0.0	85.0	970.61	0.0	-22.0	10.0	-997.0
1634986796.444199	-1.0	0.0	0.0	0.0	0.0	0.0	68.0	71.0	10.0	0.0	85.0	970.6	0.0	-23.0	10.0	-998.0
1634986796.582522	-1.0	0.0	0.0	0.0	0.0	0.0	68.0	71.0	10.0	0.0	85.0	970.67	0.0	-22.0	10.0	-998.0
1634986796.595124	-1.0	0.0	0.0	0.0	0.0	0.0	68.0	71.0	10.0	0.0	85.0	970.61	0.0	-24.0	11.0	-997.0
1634986796.7497	-1.0	0.0	0.0	0.0	0.0	0.0	68.0	71.0	10.0	0.0	85.0	970.66	0.0	-22.0	10.0	-1000.0
1634986796.901085	-1.0	0.0	0.0	0.0	0.0	0.0	68.0	71.0	10.0	0.0	85.0	970.66	0.0	-23.0	10.0	-1000.0
1634986796.901085	-1.0	0.0	0.0	0.0	0.0	0.0	68.0	71.0	10.0	0.0	85.0	970.66	0.0	-24.0	11.0	-1001.0
1634986797.002113	-1.0	0.0	0.0	0.0	0.0	0.0	68.0	71.0	10.0	0.0	85.0	970.69	0.0	-25.0	11.0	-997.0
1634986797.104551	-1.0	0.0	0.0	0.0	0.0	0.0	68.0	70.0	10.0	0.0	85.0	970.67	0.0	-23.0	9.0	-998.0
1634986797.201334	-1.0	0.0	0.0	0.0	0.0	0.0	68.0	70.0	10.0	0.0	85.0	970.61	0.0	-23.0	10.0	-1001.0
1634986797.302331	-1.0	0.0	0.0	0.0	0.0	0.0	68.0	70.0	10.0	0.0	85.0	970.63	0.0	-24.0	10.0	-999.0
1634986797.411665	-1.0	0.0	0.0	0.0	0.0	0.0	68.0	70.0	10.0	0.0	85.0	970.68	0.0	-23.0	10.0	-998.0
1634986797.509858	-1.0	0.0	0.0	0.0	0.0	0.0	68.0	70.0	10.0	0.0	85.0	970.67	0.0	-22.0	11.0	-999.0
1634986797.549565	-1.0	0.0	0.0	0.0	0.0	0.0	68.0	70.0	10.0	0.0	85.0	970.67	0.0	-22.0	11.0	-999.0
1634986797.615747	-1.0	0.0	0.0	0.0	0.0	0.0	68.0	70.0	10.0	0.0	85.0	970.66	0.0	-23.0	10.0	-1001.0
1634986797.714604	-1.0	0.0	0.0	0.0	0.0	0.0	68.0	70.0	10.0	0.0	85.0	970.66	0.0	-23.0	11.0	-999.0
1634986797.819282	-1.0	0.0	0.0	0.0	0.0	0.0	68.0	70.0	10.0	0.0	85.0	970.66	0.0	-23.0	11.0	-999.0
1634986797.909738	-1.0	0.0	0.0	0.0	0.0	0.0	68.0	70.0	10.0	0.0	85.0	970.69	0.0	-26.0	10.0	-998.0
1634986798.022741	-1.0	0.0	0.0	0.0	0.0	0.0	68.0	70.0	10.0	0.0	85.0	970.66	0.0	-23.0	10.0	-998.0
1634986798.074149	-1.0	0.0	0.0	0.0	0.0	0.0	68.0	70.0	10.0	0.0	85.0	970.66	0.0	-23.0	10.0	-998.0
1634986798.122186	-1.0	0.0	0.0	0.0	0.0	0.0	67.0	71.0	10.0	0.0	85.0	970.65	0.0	-22.0	9.0	-1000.0
1634986798.218454	-1.0	0.0	0.0	0.0	0.0	0.0	67.0	71.0	10.0	0.0	85.0	970.62	0.0	-23.0	11.0	-999.0
1634986798.329459	-1.0	0.0	0.0	0.0	0.0	0.0	67.0	71.0	10.0	0.0	85.0	970.64	0.0	-23.0	11.0	-999.0
1634986798.425538	-1.0	0.0	0.0	0.0	0.0	0.0	67.0	71.0	10.0	0.0	85.0	970.63	0.0	-23.0	11.0	-1002.0
1634986798.523851	-1.0	0.0	0.0	0.0	0.0	0.0	67.0	71.0	10.0	0.0	85.0	970.62	0.0	-22.0	9.0	-1000.0
1634986798.577051	-1.0	0.0	0.0	0.0	0.0	0.0	67.0	71.0	10.0	0.0	85.0	970.66	0.0	-23.0	11.0	-998.0
1634986798.672574	-1.0	0.0	0.0	0.0	0.0	0.0	67.0	71.0	10.0	0.0	85.0	970.66	0.0	-23.0	11.0	-998.0
1634986798.785268	-1.0	0.0	0.0	0.0	0.0	0.0	67.0	71.0	10.0	0.0	85.0	970.69	0.0	-24.0	10.0	-996.0
1634986798.884215	-1.0	0.0	0.0	0.0	0.0	0.0	67.0	71.0	10.0	0.0	85.0	970.62	0.0	-24.0	10.0	-999.0
1634986798.979771	-1.0	0.0	0.0	0.0	0.0	0.0	67.0	71.0	10.0	0.0	85.0	970.67	0.0	-23.0	12.0	-997.0
1634986799.094863	-1.0	0.0	0.0	0.0	0.0	0.0	68.0	71.0	10.0	0.0	85.0	970.63	0.0	-24.0	12.0	-999.0
1634986799.196751	-1.0	0.0	0.0	0.0	0.0	0.0	68.0	71.0	10.0	0.0	85.0	970.66	0.0	-23.0	10.0	-997.0
1634986799.290502	-1.0	0.0	0.0	0.0	0.0	0.0	68.0	71.0	10.0	0.0	85.0	970.68	0.0	-24.0	10.0	-996.0
1634986799.400857	-1.0	0.0	0.0	0.0	0.0	0.0	68.0	71.0	10.0	0.0	85.0	970.65	0.0	-22.0	10.0	-1001.0
1634986799.493954	-1.0	0.0	0.0	0.0	0.0	0.0	68.0	71.0	10.0	0.0	85.0	970.64	0.0	-25.0	10.0	-998.0
1634986799.589357	-1.0	0.0	0.0	0.0	0.0	0.0	68.0	71.0	10.0	0.0	85.0	970.72	0.0	-22.0	10.0	-1001.0
1634986799.701847	-1.0	0.0	0.0	0.0	0.0	0.0	68.0	71.0	10.0	0.0	85.0	970.73	0.0	-25.0	11.0	-1001.0
1634986799.795905	-1.0	0.0	0.0	0.0	0.0	0.0	68.0	71.0	10.0	0.0	85.0	970.69	0.0	-22.0	12.0	-999.0
1634986799.910838	-1.0	0.0	0.0	0.0	0.0	0.0	68.0	71.0	10.0	0.0	85.0	970.66	0.0	-24.0	11.0	-1000.0
1634986800.00763	-1.0	0.0	0.0	0.0	0.0	0.0	68.0	71.0	10.0	0.0	85.0	970.68	0.0	-22.0	11.0	-999.0
1634986800.104048	-1.0	0.0	0.0	0.0	0.0	0.0	68.0	72.0	10.0	0.0	85.0	970.69	0.0	-23.0	11.0	-996.0
1634986800.216642	-1.0	0.0	0.0	0.0	0.0	0.0	68.0	72.0	10.0	0.0	85.0	970.69	0.0	-23.0	10.0	-1001.0
1634986800.319081	-1.0	0.0	0.0	0.0	0.0	0.0	68.0	72.0	10.0	0.0	85.0	970.68	0.0	-24.0	9.0	-997.0
1634986800.416949	-1.0	0.0	0.0	0.0	0.0	0.0	68.0	72.0	10.0	0.0	85.0	970.7	0.0	-23.0	10.0	-999.0
1634986800.51722	-1.0	0.0	0.0	0.0	0.0	0.0	68.0	72.0	10.0	0.0	85.0	970.62	0.0	-24.0	11.0	-1001.0
1634986800.612868	-1.0	0.0	0.0	0.0	0.0	0.0	68.0	72.0	10.0	0.0	85.0	970.64	0.0	-24.0	9.0	-997.0
1634986800.721322	-1.0	0.0	0.0	0.0	0.0	0.0	68.0	72.0	10.0	0.0	85.0	970.64	0.0	-25.0	12.0	-998.0
1634986800.818393	-1.0	0.0	0.0	0.0	0.0	0.0	68.0	72.0	10.0	0.0	85.0	970.68	0.0	-22.0	11.0	-999.0
1634986800.931083	-1.0	0.0	0.0	0.0	0.0	0.0	68.0	72.0	10.0	0.0	85.0	970.68	0.0	-23.0	11.0	-1000.0
1634986801.019202	-1.0	0.0	0.0	0.0	0.0	0.0	68.0	72.0	10.0	0.0	85.0	970.69	0.0	-23.0	10.0	-1002.0
1634986801.129991	-1.0	0.0	0.0	0.0	0.0	0.0	69.0	71.0	10.0	0.0	85.0	970.71	0.0	-23.0	10.0	-1002.0
1634986801.223715	-1.0	0.0	0.0	0.0	0.0	0.0	69.0	71.0	10.0	0.0	85.0	970.65	0.0	-24.0	9.0	-1000.0
1634986801.329033	-1.0	0.0	0.0	0.0	0.0	0.0	69.0	71.0	10.0	0.0	85.0	970.75	0.0	-23.0	9.0	-1000.0
1634986801.440087	-1.0	0.0	0.0	0.0	0.0	0.0	69.0	71.0	10.0	0.0	85.0	970.67	0.0	-26.0	11.0	-997.0
1634986801.539608	-1.0	0.0	0.0	0.0	0.0	0.0	69.0	71.0	10.0	0.0	85.0	970.68	0.0	-24.0	10.0	-999.0
1634986801.640835	-1.0	0.0	0.0	0.0	0.0	0.0	69.0	71.0	10.0	0.0	85.0	970.68	0.0	-24.0	10.0	-999.0
1634986801.736412	-1.0	0.0	0.0	0.0	0.0	0.0	69.0	71.0	10.0	0.0	85.0	970.71	0.0	-23.0	10.0	-1002.0
1634986801.847583	-1.0	0.0	0.0	0.0	0.0	0.0	69.0	71.0	10.0	0.0	85.0	970.71	0.0	-24.0	10.0	-998.0
1634986801.935582	-1.0	0.0	0.0	0.0	0.0	0.0	69.0	71.0	10.0	0.0	85.0	970.67	0.0	-24.0	11.0	-1001.0
1634986802.001167	-1.0	0.0	0.0	0.0	0.0	0.0	69.0	71.0	10.0	0.0	85.0	970.6	0.0	-24.0	11.0	-997.0
1634986802.145013	-1.0	0.0	0.0	0.0	0.0	0.0	69.0	72.0	10.0	0.0	85.0	970.64	0.0	-23.0	10.0	-1001.0
1634986802.203862	-1.0	0.0	0.0	0.0	0.0	0.0	69.0	72.0	10.0	0.0	85.0	970.7	0.0	-21.0	11.0	-999.0
1634986802.307752	-1.0	0.0	0.0	0.0	0.0	0.0	69.0	72.0	10.0	0.0	85.0	970.76	0.0	-25.0	10.0	-999.0
1634986802.405857	-1.0	0.0	0.0	0.0	0.0	0.0	69.0	72.0	10.0	0.0	85.0	970.69	0.0	-24.0	9.0	-1000.0
1634986802.504635	-1.0	0.0	0.0	0.0	0.0	0.0	69.0	72.0	10.0	0.0	85.0	970.69	0.0	-23.0	10.0	-998.0
1634986802.6043	-1.0	0.0	0.0	0.0	0.0	0.0	69.0	72.0	10.0	0.0	85.0	970.73	0.0	-24.0	10.0	-999.0
1634986802.71554	-1.0	0.0	0.0	0.0	0.0	0.0	69.0	72.0	10.0	0.0	85.0	970.7	0.0	-23.0	10.0	-998.0
1634986802.803361	-1.0	0.0	0.0	0.0	0.0	0.0	69.0	72.0	10.0	0.0	85.0	970.72	0.0	-25.0	11.0	-1002.0
1634986802.91271	-1.0	0.0	0.0	0.0	0.0	0.0	69.0	72.0	10.0	0.0	85.0	970.73	0.0	-23.0	10.0	-1001.0
1634986803.011481	-1.0	0.0	0.0	0.0	0.0	0.0	69.0	72.0	10.0	0.0	85.0	970.73	0.0	-24.0	10.0	-996.0
1634986803.123802	-1.0	0.0	0.0	0.0	0.0	0.0	69.0	72.0	10.0	0.0	85.0	970.79	0.0	-24.0	11.0	-999.0
1634986803.222623	-1.0	0.0	0.0	0.0	0.0	0.0	69.0	72.0	10.0	0.0	85.0	970.72	0.0	-23.0	10.0	-997.0
1634986803.316353	-1.0	0.0	0.0	0.0	0.0	0.0	69.0	72.0	10.0	0.0	85.0	970.75	0.0	-24.0	11.0	-1000.0
1634986803.427116	-1.0	0.0	0.0	0.0	0.0	0.0	69.0	72.0	10.0	0.0	85.0	970.72	0.0	-23.0	11.0	-999.0
1634986803.526741	-1.0	0.0	0.0	0.0	0.0	0.0	69.0	72.0	10.0	0.0	85.0	970.67	0.0	-23.0	10.0	-1001.0
1634986803.624345	-1.0	0.0	0.0	0.0	0.0	0.0	69.0	72.0	10.0	0.0	85.0	970.68	0.0	-24.0	12.0	-999.0
1634986803.729166	-1.0	0.0	0.0	0.0	0.0	0.0	69.0	72.0	10.0	0.0	85.0	970.72	0.0	-26.0	11.0	-1000.0
1634986803.822899	-1.0	0.0	0.0	0.0	0.0	0.0	69.0	72.0	10.0	0.0	85.0	970.78	0.0	-24.0	10.0	-999.0
1634986803.933645	-1.0	0.0	0.0	0.0	0.0	0.0	69.0	72.0	10.0	0.0	85.0	970.72	0.0	-23.0	10.0	-1000.0
1634986804.034313	-1.0	0.0	0.0	0.0	0.0	0.0	69.0	72.0	10.0	0.0	85.0	970.73	0.0	-24.0	9.0	-1000.0
1634986804.129531	-1.0	0.0	0.0	0.0	0.0	0.0	69.0	72.0	10.0	0.0	85.0	970.71	0.0	-23.0	11.0	-1000.0
1634986804.240633	-1.0	0.0	0.0	0.0	0.0	0.0	69.0	72.0	10.0	0.0	85.0	970.67	0.0	-24.0	10.0	-1000.0
1634986804.339332	-1.0	0.0	0.0	0.0	0.0	0.0	69.0	72.0	10.0	0.0	85.0	970.71	0.0	-23.0	11.0	-1003.0
1634986804.434858	-1.0	0.0	0.0	0.0	0.0	0.0	69.0	72.0	10.0	0.0	85.0	970.7	0.0	-23.0	9.0	-1001.0
1634986804.551506	-1.0	0.0	0.0	0.0	0.0	0.0	69.0	72.0	10.0	0.0	85.0	970.69	0.0	-23.0	11.0	-999.0
