timestamp	pitch	roll	yaw	vgx	vgy	vgz	templ	temph	tof	h	bat	baro	time	agx	agy	agz
1634976003.601653
1634976003.701337	0.0	1.0	0.0	0.0	0.0	0.0	50.0	52.0	10.0	0.0	33.0	950.55	0.0	-6.0	-23.0	-999.0
1634976003.803631	0.0	1.0	0.0	0.0	0.0	0.0	50.0	52.0	10.0	0.0	33.0	950.55	0.0	-9.0	-22.0	-1004.0
1634976003.897514	0.0	1.0	0.0	0.0	0.0	0.0	50.0	52.0	10.0	0.0	33.0	950.55	0.0	0.0	-17.0	-996.0
1634976004.007032	0.0	1.0	0.0	0.0	0.0	0.0	50.0	52.0	10.0	0.0	33.0	950.55	0.0	11.0	0.0	-976.0
1634976004.109243	0.0	1.0	0.0	0.0	0.0	0.0	51.0	54.0	10.0	0.0	33.0	950.55	0.0	-22.0	-21.0	-1006.0
1634976004.204632	0.0	1.0	0.0	0.0	0.0	0.0	51.0	54.0	10.0	0.0	33.0	950.55	0.0	1.0	-25.0	-990.0
1634976004.308766	0.0	1.0	1.0	0.0	0.0	0.0	51.0	54.0	10.0	0.0	33.0	950.55	0.0	-26.0	9.0	-990.0
1634976004.410935	-1.0	0.0	1.0	0.0	0.0	0.0	51.0	54.0	10.0	-10.0	33.0	950.55	0.0	-3.0	-6.0	-1080.0
1634976004.509767	0.0	0.0	1.0	0.0	0.0	0.0	51.0	54.0	23.0	-10.0	33.0	950.55	0.0	-2.0	-7.0	-1224.0
1634976004.610047	0.0	-1.0	1.0	0.0	0.0	-2.0	51.0	54.0	24.0	-10.0	33.0	950.55	0.0	-68.0	-17.0	-1251.0
1634976004.71439	0.0	0.0	1.0	0.0	0.0	-4.0	51.0	54.0	24.0	-10.0	33.0	950.62	1.0	-76.0	44.0	-1205.0
1634976004.822441	-1.0	0.0	1.0	-1.0	0.0	-6.0	51.0	54.0	24.0	-10.0	33.0	950.74	1.0	-70.0	5.0	-1091.0
1634976004.916199	-4.0	1.0	1.0	-1.0	0.0	-6.0	51.0	54.0	32.0	0.0	33.0	950.92	1.0	-59.0	6.0	-1025.0
1634976004.971809	-4.0	0.0	1.0	-1.0	0.0	-6.0	51.0	54.0	41.0	0.0	33.0	950.97	1.0	-48.0	-4.0	-998.0
1634976005.067137	-4.0	0.0	1.0	0.0	0.0	-6.0	51.0	53.0	52.0	0.0	33.0	950.95	1.0	-77.0	14.0	-979.0
1634976005.180022	-3.0	0.0	1.0	0.0	0.0	-5.0	51.0	53.0	62.0	0.0	33.0	951.09	1.0	-59.0	-2.0	-938.0
1634976005.286352	-3.0	0.0	1.0	0.0	0.0	-4.0	51.0	53.0	74.0	10.0	33.0	951.2	1.0	-29.0	-10.0	-904.0
1634976005.388614	-3.0	0.0	1.0	0.0	0.0	-4.0	51.0	53.0	83.0	10.0	33.0	951.35	1.0	-34.0	-15.0	-885.0
1634976005.485344	-4.0	0.0	1.0	0.0	0.0	-3.0	51.0	53.0	91.0	20.0	33.0	951.32	1.0	-47.0	-3.0	-892.0
1634976005.586128	-3.0	0.0	1.0	0.0	0.0	-2.0	51.0	53.0	98.0	20.0	33.0	951.43	1.0	-50.0	4.0	-887.0
1634976005.684681	-4.0	0.0	1.0	0.0	0.0	-1.0	51.0	53.0	103.0	30.0	33.0	951.53	2.0	-36.0	2.0	-872.0
1634976005.781772	-4.0	0.0	1.0	0.0	0.0	0.0	51.0	53.0	107.0	30.0	33.0	951.48	2.0	-57.0	0.0	-879.0
1634976005.883011	-4.0	0.0	1.0	0.0	0.0	0.0	51.0	53.0	111.0	30.0	33.0	951.41	2.0	-47.0	-6.0	-889.0
1634976005.987232	-4.0	0.0	1.0	0.0	0.0	0.0	51.0	53.0	113.0	40.0	33.0	951.51	2.0	-84.0	4.0	-903.0
1634976006.098143	-4.0	0.0	1.0	0.0	0.0	1.0	50.0	53.0	116.0	40.0	32.0	951.57	2.0	-66.0	2.0	-887.0
1634976006.188205	-4.0	0.0	1.0	0.0	0.0	1.0	50.0	53.0	117.0	40.0	32.0	951.61	2.0	-47.0	-8.0	-913.0
1634976006.303147	-4.0	0.0	1.0	0.0	0.0	2.0	50.0	53.0	116.0	40.0	32.0	951.57	2.0	-55.0	-1.0	-946.0
1634976006.393756	-4.0	0.0	1.0	0.0	0.0	2.0	50.0	53.0	116.0	40.0	32.0	951.6	2.0	-59.0	-5.0	-950.0
1634976006.497365	-4.0	0.0	1.0	0.0	0.0	2.0	50.0	53.0	114.0	40.0	32.0	951.58	2.0	-48.0	-6.0	-953.0
1634976006.60482	-3.0	0.0	1.0	0.0	0.0	2.0	50.0	53.0	112.0	40.0	32.0	951.58	2.0	-49.0	-12.0	-969.0
1634976006.700655	-3.0	0.0	1.0	0.0	0.0	2.0	50.0	53.0	110.0	40.0	32.0	951.51	3.0	-58.0	-3.0	-985.0
1634976006.802877	-3.0	0.0	1.0	0.0	0.0	2.0	50.0	53.0	107.0	40.0	32.0	951.47	3.0	-44.0	-6.0	-967.0
1634976006.909011	-3.0	0.0	1.0	0.0	0.0	2.0	50.0	53.0	105.0	40.0	32.0	951.44	3.0	-40.0	-10.0	-996.0
1634976007.005287	-3.0	0.0	1.0	0.0	0.0	2.0	50.0	53.0	103.0	40.0	32.0	951.36	3.0	-51.0	-13.0	-985.0
1634976007.109892	-3.0	0.0	1.0	0.0	0.0	2.0	51.0	53.0	101.0	40.0	32.0	951.45	3.0	-56.0	1.0	-991.0
1634976007.222682	-3.0	0.0	1.0	0.0	0.0	2.0	51.0	53.0	98.0	40.0	32.0	951.4	3.0	-67.0	9.0	-987.0
1634976007.315861	-3.0	0.0	1.0	0.0	0.0	2.0	51.0	53.0	96.0	30.0	32.0	951.29	3.0	-66.0	10.0	-1004.0
1634976007.420274	-3.0	0.0	1.0	0.0	0.0	2.0	51.0	53.0	94.0	30.0	32.0	951.34	3.0	-77.0	-3.0	-1018.0
1634976007.468873	-4.0	0.0	0.0	0.0	0.0	2.0	51.0	53.0	92.0	30.0	32.0	951.3	3.0	-80.0	-13.0	-1013.0
1634976007.565406	-4.0	0.0	0.0	0.0	0.0	2.0	51.0	53.0	90.0	30.0	32.0	951.37	3.0	-50.0	-23.0	-998.0
1634976007.67043	-3.0	1.0	1.0	0.0	0.0	1.0	51.0	53.0	88.0	30.0	32.0	951.26	4.0	-48.0	-20.0	-1007.0
1634976007.779919	-3.0	1.0	1.0	0.0	0.0	1.0	51.0	53.0	86.0	30.0	32.0	951.27	4.0	-45.0	-17.0	-1006.0
1634976007.882404	-3.0	1.0	1.0	0.0	0.0	1.0	51.0	53.0	84.0	30.0	32.0	951.32	4.0	-65.0	-6.0	-1022.0
1634976007.988554	-3.0	1.0	1.0	0.0	0.0	1.0	51.0	53.0	82.0	20.0	32.0	951.27	4.0	-56.0	-17.0	-1019.0
1634976008.085155	-3.0	0.0	1.0	0.0	0.0	1.0	51.0	55.0	81.0	20.0	31.0	951.35	4.0	-49.0	-11.0	-1003.0
1634976008.184233	-3.0	0.0	1.0	0.0	0.0	1.0	51.0	55.0	80.0	20.0	31.0	951.28	4.0	-57.0	-11.0	-1008.0
1634976008.279402	-3.0	0.0	1.0	0.0	0.0	1.0	51.0	55.0	79.0	20.0	31.0	951.26	4.0	-66.0	-6.0	-1015.0
1634976008.389138	-3.0	1.0	1.0	0.0	0.0	0.0	51.0	55.0	78.0	20.0	31.0	951.27	4.0	-56.0	-16.0	-1017.0
1634976008.484665	-3.0	1.0	1.0	0.0	0.0	0.0	51.0	55.0	78.0	20.0	31.0	951.27	4.0	-71.0	3.0	-1024.0
1634976008.587014	-3.0	1.0	1.0	0.0	0.0	0.0	51.0	55.0	77.0	20.0	31.0	951.12	4.0	-66.0	-6.0	-1017.0
1634976008.693469	-3.0	0.0	1.0	0.0	0.0	0.0	51.0	55.0	76.0	20.0	31.0	951.17	5.0	-74.0	-6.0	-1003.0
1634976008.802812	-3.0	0.0	1.0	0.0	0.0	0.0	51.0	55.0	76.0	20.0	31.0	951.24	5.0	-65.0	-9.0	-998.0
1634976008.899356	-3.0	0.0	1.0	0.0	0.0	0.0	51.0	55.0	76.0	20.0	31.0	951.16	5.0	-52.0	-9.0	-1017.0
1634976008.994742	-3.0	1.0	1.0	0.0	0.0	0.0	51.0	55.0	76.0	20.0	31.0	951.18	5.0	-49.0	-8.0	-1017.0
1634976009.105637	-3.0	1.0	1.0	0.0	0.0	0.0	51.0	53.0	76.0	20.0	31.0	951.07	5.0	-41.0	-14.0	-1016.0
1634976009.211708	-3.0	1.0	1.0	0.0	0.0	0.0	51.0	53.0	75.0	20.0	31.0	951.16	5.0	-55.0	-10.0	-1003.0
1634976009.299335	-3.0	1.0	1.0	0.0	0.0	0.0	51.0	53.0	76.0	20.0	31.0	951.1	5.0	-55.0	-15.0	-998.0
1634976009.417356	-3.0	1.0	1.0	0.0	0.0	0.0	51.0	53.0	76.0	20.0	31.0	951.14	5.0	-55.0	-16.0	-986.0
1634976009.518982	-3.0	0.0	1.0	0.0	0.0	0.0	51.0	53.0	76.0	20.0	31.0	951.18	5.0	-49.0	-22.0	-996.0
1634976009.617557	-3.0	0.0	1.0	0.0	0.0	0.0	51.0	53.0	76.0	20.0	31.0	951.2	5.0	-40.0	-23.0	-996.0
1634976009.712749	-3.0	1.0	1.0	0.0	0.0	0.0	51.0	53.0	76.0	20.0	31.0	951.21	6.0	-68.0	-22.0	-1000.0
1634976009.813987	-3.0	1.0	1.0	0.0	0.0	0.0	51.0	53.0	76.0	20.0	31.0	951.21	6.0	-42.0	-38.0	-978.0
1634976009.921709	-3.0	1.0	1.0	0.0	0.0	0.0	51.0	53.0	76.0	20.0	31.0	951.3	6.0	-40.0	-41.0	-1000.0
1634976010.028243	-3.0	1.0	1.0	0.0	0.0	0.0	51.0	53.0	76.0	20.0	31.0	951.31	6.0	-51.0	-37.0	-996.0
1634976010.072504	-3.0	1.0	0.0	0.0	0.0	0.0	51.0	54.0	76.0	20.0	30.0	951.29	6.0	-40.0	-29.0	-1000.0
1634976010.169629	-3.0	1.0	1.0	0.0	0.0	0.0	51.0	54.0	75.0	20.0	30.0	951.27	6.0	-55.0	-31.0	-1009.0
1634976010.28177	-2.0	2.0	1.0	0.0	0.0	0.0	51.0	54.0	75.0	20.0	30.0	951.19	6.0	-51.0	-38.0	-1020.0
1634976010.372389	-2.0	2.0	1.0	0.0	0.0	0.0	51.0	54.0	75.0	20.0	30.0	951.28	6.0	-49.0	-25.0	-1014.0
1634976010.4867	-3.0	2.0	1.0	0.0	0.0	0.0	51.0	54.0	76.0	20.0	30.0	951.27	6.0	-59.0	-34.0	-985.0
1634976010.581638	-3.0	2.0	1.0	0.0	0.0	0.0	51.0	54.0	76.0	20.0	30.0	951.19	6.0	-41.0	-47.0	-1008.0
1634976010.679048	-3.0	2.0	1.0	0.0	0.0	0.0	51.0	54.0	76.0	20.0	30.0	951.21	7.0	-37.0	-46.0	-986.0
1634976010.79251	-2.0	2.0	1.0	0.0	0.0	0.0	51.0	54.0	77.0	20.0	30.0	951.26	7.0	-47.0	-38.0	-991.0
1634976010.898895	-2.0	2.0	1.0	0.0	0.0	0.0	51.0	54.0	76.0	20.0	30.0	951.26	7.0	-38.0	-50.0	-996.0
1634976010.989032	-2.0	2.0	1.0	0.0	0.0	0.0	51.0	54.0	77.0	20.0	30.0	951.27	7.0	-47.0	-47.0	-1000.0
1634976011.088898	-2.0	2.0	1.0	0.0	0.0	0.0	51.0	54.0	77.0	20.0	30.0	951.19	7.0	-34.0	-45.0	-982.0
1634976011.193194	-3.0	2.0	1.0	0.0	0.0	0.0	51.0	54.0	77.0	20.0	30.0	951.1	7.0	-46.0	-45.0	-1000.0
1634976011.294978	-3.0	2.0	1.0	0.0	0.0	0.0	51.0	54.0	78.0	20.0	30.0	951.09	7.0	-74.0	-28.0	-1008.0
1634976011.405492	-3.0	2.0	1.0	0.0	0.0	0.0	51.0	54.0	78.0	20.0	30.0	951.21	7.0	-35.0	-57.0	-997.0
1634976011.491669	-3.0	3.0	1.0	0.0	0.0	0.0	51.0	54.0	79.0	20.0	30.0	951.18	7.0	-53.0	-48.0	-997.0
1634976011.602862	-2.0	3.0	1.0	0.0	0.0	0.0	51.0	54.0	80.0	20.0	30.0	951.28	7.0	-41.0	-55.0	-982.0
1634976011.70583	-3.0	3.0	1.0	0.0	0.0	0.0	51.0	54.0	80.0	20.0	30.0	951.17	8.0	-44.0	-58.0	-988.0
1634976011.809608	-3.0	3.0	1.0	0.0	0.0	0.0	51.0	54.0	81.0	20.0	30.0	951.18	8.0	-34.0	-56.0	-984.0
1634976011.905249	-2.0	3.0	1.0	0.0	0.0	0.0	51.0	54.0	81.0	20.0	30.0	951.12	8.0	-41.0	-61.0	-994.0
1634976012.012746	-2.0	2.0	1.0	0.0	0.0	0.0	51.0	54.0	81.0	20.0	30.0	951.24	8.0	-65.0	-56.0	-999.0
1634976012.112657	-3.0	2.0	1.0	0.0	0.0	0.0	51.0	55.0	81.0	20.0	29.0	951.17	8.0	-64.0	-42.0	-990.0
1634976012.208034	-3.0	3.0	1.0	0.0	0.0	0.0	51.0	55.0	82.0	20.0	29.0	951.06	8.0	-75.0	-34.0	-983.0
1634976012.30924	-4.0	3.0	1.0	0.0	0.0	0.0	51.0	55.0	82.0	20.0	29.0	951.27	8.0	-54.0	-59.0	-984.0
1634976012.41737	-3.0	3.0	1.0	0.0	0.0	0.0	51.0	55.0	82.0	20.0	29.0	951.2	8.0	-63.0	-48.0	-1002.0
1634976012.524946	-3.0	3.0	1.0	0.0	0.0	0.0	51.0	55.0	82.0	20.0	29.0	951.27	8.0	-55.0	-68.0	-1001.0
1634976012.524946	-3.0	3.0	1.0	0.0	0.0	0.0	51.0	55.0	82.0	20.0	29.0	951.27	8.0	-55.0	-68.0	-1001.0
1634976012.620082	-3.0	3.0	1.0	0.0	0.0	0.0	51.0	55.0	81.0	20.0	29.0	951.16	8.0	-64.0	-46.0	-1005.0
1634976012.7175	-3.0	2.0	1.0	0.0	0.0	0.0	51.0	55.0	81.0	20.0	29.0	951.3	9.0	-56.0	-49.0	-982.0
1634976012.828438	-3.0	3.0	1.0	0.0	0.0	0.0	51.0	55.0	81.0	20.0	29.0	951.26	9.0	-54.0	-62.0	-1008.0
1634976012.878675	-3.0	3.0	1.0	0.0	0.0	0.0	51.0	55.0	82.0	20.0	29.0	951.3	9.0	-72.0	-53.0	-986.0
1634976012.97393	-3.0	3.0	1.0	0.0	0.0	0.0	51.0	55.0	82.0	20.0	29.0	951.34	9.0	-70.0	-64.0	-1003.0
1634976013.130001	-4.0	3.0	1.0	0.0	0.0	0.0	51.0	54.0	81.0	20.0	29.0	951.29	9.0	-69.0	-53.0	-979.0
1634976013.231174	-4.0	2.0	0.0	0.0	0.0	0.0	51.0	54.0	81.0	20.0	29.0	951.18	9.0	-79.0	-47.0	-987.0
1634976013.343471	-4.0	2.0	1.0	0.0	0.0	0.0	51.0	54.0	81.0	20.0	29.0	951.23	9.0	-90.0	-35.0	-984.0
1634976013.437164	-4.0	3.0	1.0	0.0	0.0	0.0	51.0	54.0	80.0	20.0	29.0	951.08	9.0	-95.0	-39.0	-1006.0
1634976013.495006	-4.0	3.0	1.0	0.0	0.0	0.0	51.0	54.0	80.0	20.0	29.0	951.15	9.0	-95.0	-26.0	-996.0
1634976013.596332	-4.0	2.0	1.0	0.0	0.0	0.0	51.0	54.0	80.0	20.0	29.0	951.18	9.0	-80.0	-53.0	-999.0
1634976013.738564	-5.0	2.0	1.0	0.0	0.0	0.0	51.0	54.0	79.0	20.0	29.0	951.17	10.0	-65.0	-47.0	-996.0
1634976013.879708	-5.0	1.0	1.0	0.0	0.0	0.0	51.0	54.0	78.0	20.0	29.0	951.24	10.0	-74.0	-41.0	-1001.0
1634976013.900547	-4.0	1.0	1.0	0.0	0.0	0.0	51.0	54.0	78.0	20.0	29.0	951.2	10.0	-67.0	-44.0	-985.0
1634976014.02941	-4.0	2.0	0.0	0.0	0.0	0.0	51.0	54.0	77.0	20.0	29.0	951.24	10.0	-90.0	-51.0	-1010.0
1634976014.181956	-4.0	2.0	1.0	0.0	0.0	0.0	51.0	55.0	78.0	20.0	28.0	951.16	10.0	-55.0	-53.0	-1001.0
1634976014.260747	-4.0	2.0	1.0	0.0	0.0	0.0	51.0	55.0	77.0	20.0	28.0	951.18	10.0	-68.0	-38.0	-993.0
1634976014.304003	-3.0	3.0	1.0	0.0	0.0	0.0	51.0	55.0	78.0	20.0	28.0	951.24	10.0	-73.0	-42.0	-1029.0
1634976014.481863	-3.0	3.0	1.0	0.0	0.0	0.0	51.0	55.0	78.0	20.0	28.0	951.15	10.0	-78.0	-33.0	-1002.0
1634976014.549245	-3.0	3.0	1.0	0.0	0.0	0.0	51.0	55.0	78.0	20.0	28.0	951.08	10.0	-70.0	-34.0	-1000.0
1634976014.61434	-4.0	2.0	1.0	0.0	0.0	0.0	51.0	55.0	78.0	20.0	28.0	951.07	10.0	-100.0	-15.0	-970.0
1634976014.782631	-4.0	1.0	1.0	0.0	0.0	0.0	51.0	55.0	78.0	20.0	28.0	951.06	11.0	-73.0	-30.0	-980.0
1634976014.822586	-4.0	1.0	1.0	0.0	0.0	0.0	51.0	55.0	78.0	20.0	28.0	951.04	11.0	-78.0	-33.0	-998.0
1634976014.924212	-4.0	1.0	1.0	0.0	0.0	0.0	51.0	55.0	78.0	20.0	28.0	951.05	11.0	-60.0	-40.0	-984.0
1634976015.022294	-3.0	1.0	1.0	0.0	0.0	0.0	51.0	55.0	78.0	20.0	28.0	951.02	11.0	-73.0	-16.0	-992.0
1634976015.124644	-4.0	1.0	1.0	0.0	0.0	0.0	52.0	55.0	78.0	20.0	28.0	951.11	11.0	-74.0	-7.0	-991.0
1634976015.231036	-3.0	1.0	1.0	0.0	0.0	0.0	52.0	55.0	78.0	20.0	28.0	951.12	11.0	-79.0	-19.0	-979.0
1634976015.318173	-4.0	0.0	1.0	0.0	0.0	0.0	52.0	55.0	79.0	20.0	28.0	951.05	11.0	-94.0	-6.0	-988.0
1634976015.432106	-4.0	0.0	1.0	0.0	0.0	0.0	52.0	55.0	79.0	20.0	28.0	951.08	11.0	-77.0	-26.0	-1003.0
1634976015.522178	-4.0	0.0	1.0	0.0	0.0	0.0	52.0	55.0	79.0	20.0	28.0	951.07	11.0	-74.0	-23.0	-1000.0
1634976015.623951	-4.0	1.0	1.0	0.0	0.0	0.0	52.0	55.0	79.0	20.0	28.0	951.11	11.0	-66.0	-41.0	-993.0
1634976015.740636	-4.0	1.0	1.0	0.0	0.0	0.0	52.0	55.0	79.0	20.0	28.0	951.2	12.0	-62.0	-32.0	-995.0
1634976015.827843	-3.0	1.0	1.0	0.0	0.0	0.0	52.0	55.0	78.0	20.0	28.0	951.24	12.0	-72.0	-18.0	-998.0
1634976015.93855	-3.0	1.0	1.0	0.0	0.0	0.0	52.0	55.0	78.0	20.0	28.0	951.16	12.0	-60.0	-31.0	-989.0
1634976016.037836	-3.0	1.0	1.0	0.0	0.0	0.0	52.0	55.0	78.0	20.0	28.0	951.13	12.0	-64.0	-21.0	-992.0
1634976016.148941	-3.0	1.0	1.0	0.0	0.0	0.0	52.0	55.0	78.0	20.0	27.0	951.13	12.0	-65.0	-22.0	-986.0
1634976016.24777	-3.0	1.0	1.0	0.0	0.0	0.0	52.0	55.0	78.0	20.0	27.0	951.13	12.0	-72.0	-25.0	-984.0
1634976016.350356	-3.0	1.0	1.0	0.0	0.0	0.0	52.0	55.0	77.0	20.0	27.0	951.13	12.0	-57.0	-28.0	-1002.0
1634976016.453516	-3.0	1.0	1.0	0.0	0.0	0.0	52.0	55.0	77.0	20.0	27.0	951.16	12.0	-71.0	-24.0	-1019.0
1634976016.544603	-3.0	1.0	1.0	0.0	0.0	0.0	52.0	55.0	77.0	20.0	27.0	951.16	12.0	-45.0	-43.0	-1005.0
1634976016.646377	-3.0	1.0	1.0	0.0	0.0	0.0	52.0	55.0	76.0	20.0	27.0	951.19	12.0	-47.0	-45.0	-996.0
1634976016.746885	-3.0	1.0	1.0	0.0	0.0	0.0	52.0	55.0	76.0	20.0	27.0	951.2	13.0	-67.0	-24.0	-985.0
1634976016.860324	-3.0	1.0	1.0	0.0	0.0	0.0	52.0	55.0	76.0	20.0	27.0	951.21	13.0	-81.0	-17.0	-1019.0
1634976016.950618	-3.0	1.0	1.0	0.0	0.0	0.0	52.0	55.0	76.0	20.0	27.0	951.21	13.0	-67.0	-5.0	-998.0
1634976017.058295	-3.0	1.0	1.0	0.0	0.0	0.0	52.0	55.0	75.0	20.0	27.0	951.27	13.0	-62.0	-27.0	-992.0
1634976017.153718	-3.0	1.0	1.0	0.0	0.0	0.0	53.0	55.0	75.0	20.0	27.0	951.16	13.0	-77.0	-19.0	-993.0
1634976017.256117	-3.0	1.0	1.0	0.0	0.0	0.0	53.0	55.0	75.0	20.0	27.0	951.25	13.0	-72.0	-27.0	-993.0
1634976017.365534	-3.0	1.0	1.0	0.0	0.0	0.0	53.0	55.0	75.0	20.0	27.0	951.23	13.0	-61.0	-26.0	-1001.0
1634976017.424616	-3.0	1.0	1.0	0.0	0.0	0.0	53.0	55.0	75.0	20.0	27.0	951.3	13.0	-72.0	-29.0	-1015.0
1634976017.518198	-3.0	1.0	1.0	0.0	0.0	0.0	53.0	55.0	75.0	20.0	27.0	951.19	13.0	-91.0	-16.0	-1007.0
1634976017.61495	-2.0	1.0	1.0	0.0	0.0	0.0	53.0	55.0	75.0	20.0	27.0	951.24	13.0	-61.0	-22.0	-1022.0
1634976017.717322	-3.0	1.0	1.0	0.0	0.0	0.0	53.0	55.0	75.0	20.0	27.0	951.27	14.0	-87.0	-2.0	-1011.0
1634976017.81981	-3.0	1.0	1.0	0.0	0.0	0.0	53.0	55.0	75.0	20.0	27.0	951.25	14.0	-69.0	-27.0	-1003.0
1634976017.929319	-3.0	0.0	1.0	0.0	0.0	0.0	53.0	55.0	75.0	20.0	27.0	951.29	14.0	-90.0	-22.0	-1024.0
1634976018.024717	-3.0	1.0	1.0	0.0	0.0	0.0	53.0	55.0	75.0	20.0	27.0	951.23	14.0	-74.0	-24.0	-980.0
1634976018.125718	-4.0	1.0	1.0	0.0	0.0	0.0	53.0	54.0	76.0	20.0	26.0	951.21	14.0	-58.0	-41.0	-976.0
1634976018.229358	-3.0	2.0	1.0	0.0	0.0	0.0	53.0	54.0	76.0	20.0	26.0	951.19	14.0	-60.0	-42.0	-1001.0
1634976018.336893	-3.0	2.0	1.0	0.0	0.0	0.0	53.0	54.0	76.0	20.0	26.0	951.19	14.0	-58.0	-39.0	-983.0
1634976018.437564	-3.0	2.0	1.0	0.0	0.0	0.0	53.0	54.0	76.0	20.0	26.0	951.18	14.0	-63.0	-40.0	-991.0
1634976018.535002	-3.0	2.0	1.0	0.0	0.0	0.0	53.0	54.0	76.0	20.0	26.0	951.15	14.0	-48.0	-56.0	-983.0
1634976018.643104	-2.0	3.0	1.0	0.0	0.0	0.0	53.0	54.0	76.0	20.0	26.0	951.15	15.0	-62.0	-39.0	-994.0
1634976018.743574	-3.0	3.0	1.0	0.0	0.0	0.0	53.0	54.0	76.0	20.0	26.0	951.18	15.0	-60.0	-39.0	-1009.0
1634976018.837302	-3.0	3.0	1.0	0.0	0.0	0.0	53.0	54.0	76.0	20.0	26.0	951.14	15.0	-49.0	-54.0	-985.0
1634976018.951166	-3.0	3.0	1.0	0.0	0.0	0.0	53.0	54.0	76.0	20.0	26.0	951.14	15.0	-48.0	-50.0	-997.0
1634976019.056113	-2.0	3.0	1.0	0.0	0.0	0.0	53.0	54.0	76.0	20.0	26.0	951.18	15.0	-56.0	-44.0	-993.0
1634976019.151192	-2.0	3.0	1.0	0.0	0.0	0.0	52.0	55.0	76.0	20.0	26.0	951.25	15.0	-58.0	-50.0	-987.0
1634976019.245019	-2.0	3.0	1.0	0.0	0.0	0.0	52.0	55.0	77.0	20.0	26.0	951.3	15.0	-63.0	-39.0	-1007.0
1634976019.352344	-3.0	3.0	1.0	0.0	0.0	0.0	52.0	55.0	77.0	20.0	26.0	951.22	15.0	-55.0	-43.0	-992.0
1634976019.463826	-2.0	3.0	1.0	0.0	0.0	0.0	52.0	55.0	78.0	20.0	26.0	951.22	15.0	-65.0	-50.0	-995.0
1634976019.560674	-2.0	3.0	1.0	0.0	0.0	0.0	52.0	55.0	79.0	20.0	26.0	951.21	15.0	-45.0	-51.0	-984.0
1634976019.654965	-2.0	3.0	1.0	0.0	0.0	0.0	52.0	55.0	79.0	20.0	26.0	951.26	16.0	-32.0	-69.0	-971.0
1634976019.765996	-2.0	3.0	1.0	0.0	0.0	0.0	52.0	55.0	79.0	20.0	26.0	951.22	16.0	-38.0	-63.0	-988.0
1634976019.862566	-2.0	3.0	1.0	0.0	0.0	0.0	52.0	55.0	80.0	20.0	26.0	951.32	16.0	-43.0	-51.0	-988.0
1634976019.965448	-2.0	3.0	1.0	0.0	0.0	1.0	52.0	55.0	79.0	20.0	26.0	951.35	16.0	-67.0	-49.0	-973.0
1634976020.075692	-3.0	3.0	1.0	0.0	0.0	1.0	52.0	55.0	79.0	20.0	26.0	951.37	16.0	-41.0	-63.0	-934.0
1634976020.173419	-3.0	3.0	1.0	0.0	0.0	2.0	52.0	56.0	76.0	10.0	25.0	951.35	16.0	-44.0	-76.0	-906.0
1634976020.26871	-3.0	3.0	1.0	0.0	0.0	3.0	52.0	56.0	74.0	10.0	25.0	951.32	16.0	-35.0	-77.0	-925.0
1634976020.379766	-3.0	4.0	1.0	0.0	0.0	3.0	52.0	56.0	72.0	10.0	25.0	951.36	16.0	-69.0	-56.0	-957.0
1634976020.470389	-3.0	4.0	1.0	0.0	0.0	4.0	52.0	56.0	69.0	0.0	25.0	951.38	16.0	-67.0	-73.0	-962.0
1634976020.586143	-3.0	4.0	1.0	0.0	0.0	4.0	52.0	56.0	64.0	0.0	25.0	951.34	16.0	-57.0	-88.0	-948.0
1634976020.676952	-3.0	4.0	1.0	0.0	0.0	4.0	52.0	56.0	60.0	0.0	25.0	951.24	17.0	-80.0	-82.0	-965.0
1634976020.77765	-3.0	4.0	1.0	0.0	0.0	4.0	52.0	56.0	54.0	0.0	25.0	951.16	17.0	-74.0	-69.0	-982.0
1634976020.888678	-4.0	3.0	1.0	0.0	0.0	4.0	52.0	56.0	50.0	0.0	25.0	951.18	17.0	-66.0	-85.0	-992.0
1634976020.989577	-3.0	4.0	1.0	0.0	0.0	4.0	52.0	56.0	44.0	-10.0	25.0	951.14	17.0	-76.0	-76.0	-1011.0
1634976021.042953	-4.0	4.0	1.0	0.0	0.0	4.0	52.0	56.0	39.0	-10.0	25.0	951.14	17.0	-68.0	-71.0	-1007.0
1634976021.187474	-4.0	4.0	1.0	0.0	0.0	4.0	54.0	56.0	31.0	-20.0	25.0	951.05	17.0	-50.0	-88.0	-993.0
1634976021.292602	-3.0	4.0	1.0	0.0	0.0	4.0	54.0	56.0	26.0	-20.0	25.0	950.95	17.0	-73.0	-66.0	-1000.0
1634976021.399518	-3.0	4.0	1.0	0.0	0.0	4.0	54.0	56.0	22.0	-20.0	25.0	950.85	17.0	-75.0	-75.0	-994.0
1634976021.49325	-4.0	4.0	1.0	0.0	0.0	4.0	54.0	56.0	22.0	-30.0	25.0	950.92	17.0	-80.0	-73.0	-993.0
1634976021.548058	-4.0	4.0	1.0	0.0	0.0	4.0	54.0	56.0	23.0	-30.0	25.0	950.84	17.0	-105.0	-64.0	-1014.0
1634976021.64759	-5.0	4.0	1.0	0.0	0.0	4.0	54.0	56.0	46.0	-40.0	25.0	950.74	18.0	-99.0	-59.0	-992.0
1634976021.757113	4.0	-11.0	0.0	0.0	0.0	2.0	54.0	56.0	22.0	-40.0	25.0	950.74	18.0	-59.0	59.0	-1422.0
1634976021.846619	5.0	-40.0	-2.0	-2.0	-5.0	2.0	54.0	56.0	23.0	-40.0	25.0	950.49	18.0	-48.0	-83.0	-1065.0
1634976021.957535	2.0	-30.0	-1.0	-4.0	-11.0	4.0	54.0	56.0	36.0	-50.0	25.0	950.43	18.0	-75.0	21.0	-1117.0
1634976022.054354	0.0	-10.0	0.0	-5.0	-16.0	4.0	54.0	56.0	30.0	-50.0	25.0	950.5	18.0	-55.0	54.0	-1062.0
1634976022.155719	-4.0	8.0	1.0	-5.0	-16.0	4.0	53.0	56.0	24.0	-60.0	24.0	950.52	18.0	-21.0	84.0	-960.0
1634976022.269368	-5.0	10.0	1.0	-4.0	-14.0	4.0	53.0	56.0	23.0	-60.0	24.0	950.36	18.0	-13.0	63.0	-960.0
1634976022.364475	-5.0	9.0	1.0	-3.0	-11.0	5.0	53.0	56.0	21.0	-70.0	24.0	949.91	18.0	24.0	10.0	-963.0
1634976022.469213	-3.0	7.0	1.0	-2.0	-10.0	5.0	53.0	56.0	21.0	-70.0	24.0	947.33	18.0	-11.0	2.0	-1119.0
1634976022.56661	2.0	4.0	2.0	-2.0	-9.0	10.0	53.0	56.0	10.0	-80.0	24.0	947.8	18.0	-62.0	-186.0	294.0
1634976022.674437	15.0	-3.0	0.0	-3.0	-10.0	13.0	53.0	56.0	10.0	-90.0	24.0	949.17	18.0	411.0	949.0	-2409.0
1634976022.768309	1.0	1.0	-7.0	-3.0	-7.0	12.0	53.0	56.0	10.0	-100.0	24.0	949.55	18.0	160.0	22.0	-427.0
1634976022.870114	1.0	1.0	-6.0	-1.0	-5.0	9.0	53.0	56.0	10.0	-100.0	24.0	949.82	18.0	15.0	-31.0	-987.0
1634976022.982758	1.0	1.0	-6.0	-1.0	-5.0	11.0	53.0	56.0	10.0	-120.0	24.0	949.97	18.0	32.0	-8.0	-1002.0
1634976023.083508	1.0	1.0	-6.0	-1.0	-5.0	12.0	53.0	56.0	10.0	-140.0	24.0	950.08	18.0	35.0	-6.0	-997.0
1634976023.179804	1.0	1.0	-6.0	-1.0	-5.0	11.0	52.0	55.0	10.0	-150.0	24.0	950.15	18.0	36.0	-6.0	-1000.0
1634976023.276903	1.0	1.0	-6.0	-1.0	-5.0	11.0	52.0	55.0	10.0	-150.0	24.0	950.22	18.0	35.0	-2.0	-1002.0
1634976023.381325	1.0	1.0	-6.0	-1.0	-5.0	10.0	52.0	55.0	10.0	-160.0	24.0	950.29	18.0	30.0	-17.0	-1000.0
1634976023.489727	1.0	1.0	-6.0	-1.0	-5.0	9.0	52.0	55.0	10.0	-160.0	24.0	950.25	18.0	39.0	-2.0	-1000.0
1634976023.585237	1.0	1.0	-6.0	0.0	-4.0	8.0	52.0	55.0	10.0	-170.0	24.0	950.27	18.0	46.0	0.0	-1007.0
1634976023.63768	1.0	1.0	-6.0	0.0	-4.0	8.0	52.0	55.0	10.0	-170.0	24.0	950.27	18.0	46.0	0.0	-1007.0
1634976023.689469	1.0	1.0	-6.0	0.0	-4.0	7.0	52.0	55.0	10.0	-170.0	24.0	950.21	18.0	38.0	-4.0	-1001.0
1634976023.799011	1.0	1.0	-6.0	0.0	-4.0	6.0	52.0	55.0	10.0	-170.0	24.0	950.21	18.0	33.0	-7.0	-1002.0
1634976023.904242	1.0	0.0	-6.0	0.0	0.0	0.0	52.0	55.0	10.0	-160.0	24.0	950.2	18.0	33.0	-10.0	-1002.0
1634976023.995438	1.0	0.0	-6.0	0.0	0.0	0.0	52.0	55.0	10.0	-160.0	24.0	950.19	18.0	32.0	-8.0	-1001.0
1634976024.092017	1.0	0.0	-6.0	0.0	0.0	0.0	52.0	55.0	10.0	-160.0	24.0	950.21	18.0	34.0	-7.0	-998.0
1634976024.207147	1.0	0.0	-6.0	0.0	0.0	0.0	53.0	56.0	10.0	-150.0	23.0	950.2	18.0	33.0	-7.0	-999.0
1634976024.312602	1.0	0.0	-6.0	0.0	0.0	0.0	53.0	56.0	10.0	-150.0	23.0	950.19	18.0	32.0	-7.0	-998.0
1634976024.40933	1.0	0.0	-6.0	0.0	0.0	0.0	53.0	56.0	10.0	0.0	23.0	950.17	18.0	34.0	-7.0	-998.0
1634976024.505532	1.0	0.0	-6.0	0.0	0.0	0.0	53.0	56.0	10.0	0.0	23.0	950.19	18.0	33.0	-7.0	-998.0
1634976024.600934	1.0	0.0	-6.0	0.0	0.0	0.0	53.0	56.0	10.0	0.0	23.0	950.25	18.0	36.0	-5.0	-989.0
1634976024.708861	1.0	0.0	-6.0	0.0	0.0	0.0	53.0	56.0	10.0	0.0	23.0	950.2	18.0	35.0	-8.0	-996.0
1634976024.811099	1.0	0.0	-6.0	0.0	0.0	0.0	53.0	56.0	10.0	0.0	23.0	950.29	18.0	34.0	-8.0	-996.0
1634976024.856043	1.0	0.0	-6.0	0.0	0.0	0.0	53.0	56.0	10.0	0.0	23.0	950.3	18.0	34.0	-8.0	-994.0
1634976024.968655	2.0	1.0	-5.0	0.0	0.0	0.0	53.0	56.0	10.0	0.0	23.0	950.26	18.0	81.0	155.0	-1218.0
1634976025.069708	-9.0	11.0	-4.0	0.0	0.0	-5.0	53.0	56.0	10.0	0.0	23.0	950.38	18.0	6.0	-83.0	-1416.0
1634976025.164972	-13.0	15.0	0.0	1.0	1.0	-7.0	53.0	56.0	10.0	0.0	23.0	950.51	18.0	-239.0	-242.0	-1297.0
1634976025.278857	-7.0	11.0	5.0	2.0	1.0	-12.0	53.0	56.0	10.0	20.0	23.0	950.68	18.0	-138.0	-396.0	-1450.0
1634976025.36623	-6.0	11.0	9.0	3.0	0.0	-16.0	53.0	56.0	40.0	40.0	23.0	950.82	18.0	-130.0	-328.0	-1200.0
1634976025.477207	-5.0	10.0	11.0	2.0	0.0	-18.0	53.0	56.0	57.0	60.0	23.0	950.88	18.0	-68.0	-87.0	-1045.0
1634976025.572535	-4.0	7.0	13.0	3.0	0.0	-16.0	53.0	56.0	72.0	80.0	23.0	950.93	18.0	-27.0	30.0	-462.0
1634976025.680917	0.0	2.0	15.0	3.0	1.0	-10.0	53.0	56.0	82.0	100.0	23.0	950.93	18.0	-79.0	-40.0	-176.0
1634976025.77825	0.0	3.0	16.0	2.0	0.0	-3.0	53.0	56.0	85.0	110.0	23.0	950.87	18.0	-117.0	-34.0	-428.0
1634976025.888994	0.0	10.0	20.0	1.0	0.0	0.0	53.0	56.0	82.0	110.0	23.0	950.81	18.0	-41.0	129.0	-1092.0
1634976025.991351	-2.0	14.0	20.0	0.0	4.0	0.0	53.0	56.0	83.0	110.0	23.0	950.78	18.0	100.0	99.0	-1122.0
1634976026.086713	-2.0	11.0	15.0	0.0	8.0	0.0	53.0	56.0	82.0	110.0	22.0	950.76	18.0	-88.0	-70.0	-895.0
1634976026.194419	-2.0	10.0	7.0	0.0	9.0	0.0	53.0	56.0	79.0	110.0	22.0	950.79	18.0	23.0	-106.0	-1177.0
1634976026.298734	-2.0	10.0	1.0	0.0	11.0	-4.0	53.0	56.0	81.0	0.0	22.0	950.88	18.0	179.0	104.0	-1588.0
1634976026.395568	4.0	4.0	-3.0	3.0	13.0	-10.0	53.0	56.0	88.0	0.0	22.0	951.09	18.0	378.0	-55.0	-1664.0
1634976026.490874	13.0	-6.0	-7.0	4.0	13.0	-15.0	53.0	56.0	106.0	20.0	22.0	951.25	18.0	239.0	-89.0	-1225.0
1634976026.601938	24.0	-23.0	-8.0	3.0	10.0	-15.0	53.0	56.0	144.0	30.0	22.0	951.27	18.0	71.0	-65.0	-676.0
1634976026.699203	30.0	-39.0	-10.0	1.0	9.0	-8.0	53.0	56.0	191.0	40.0	22.0	951.3	18.0	-95.0	101.0	-89.0
1634976026.794897	25.0	-43.0	-8.0	1.0	11.0	1.0	53.0	56.0	186.0	50.0	22.0	951.23	18.0	-33.0	177.0	94.0
1634976026.898906	14.0	-40.0	-2.0	0.0	12.0	11.0	53.0	56.0	153.0	40.0	22.0	951.21	18.0	-214.0	5.0	-48.0
1634976027.008309	1.0	-28.0	2.0	-1.0	9.0	21.0	53.0	56.0	42.0	20.0	22.0	950.99	18.0	-213.0	-392.0	-1001.0
1634976027.102042	-10.0	-4.0	2.0	-1.0	4.0	13.0	53.0	56.0	10.0	0.0	22.0	950.88	18.0	-241.0	372.0	-2110.0
1634976027.20749	-6.0	0.0	-1.0	0.0	4.0	3.0	54.0	56.0	10.0	0.0	22.0	950.88	18.0	-30.0	-59.0	-1349.0
1634976027.318691	-1.0	2.0	-1.0	0.0	2.0	3.0	54.0	56.0	10.0	0.0	22.0	950.9	18.0	-105.0	-363.0	-862.0
1634976027.420715	-2.0	5.0	1.0	0.0	0.0	3.0	54.0	56.0	10.0	0.0	22.0	950.95	18.0	-65.0	-126.0	-1085.0
1634976027.509898	0.0	1.0	4.0	0.0	0.0	-2.0	54.0	56.0	10.0	0.0	22.0	950.85	18.0	-261.0	-99.0	-1825.0
1634976027.620237	0.0	1.0	4.0	0.0	0.0	-1.0	54.0	56.0	10.0	0.0	22.0	950.86	18.0	-276.0	-121.0	-1366.0
1634976027.719773	0.0	1.0	4.0	0.0	0.0	-1.0	54.0	56.0	10.0	0.0	22.0	950.82	18.0	-146.0	-113.0	-1278.0
1634976027.822295	0.0	1.0	4.0	0.0	0.0	-1.0	54.0	56.0	10.0	0.0	22.0	950.84	18.0	-4.0	-81.0	-1185.0
1634976027.919307	0.0	1.0	4.0	0.0	0.0	-1.0	54.0	56.0	10.0	0.0	22.0	950.84	18.0	-39.0	-29.0	-1096.0
1634976028.032377	0.0	1.0	4.0	0.0	0.0	-1.0	54.0	56.0	10.0	0.0	22.0	950.82	18.0	-21.0	-28.0	-1051.0
1634976028.073831	0.0	1.0	4.0	0.0	0.0	-1.0	54.0	56.0	10.0	0.0	21.0	950.81	18.0	-1.0	-33.0	-1029.0
1634976028.226536	0.0	1.0	4.0	0.0	0.0	-1.0	53.0	56.0	10.0	0.0	21.0	950.84	18.0	0.0	-17.0	-989.0
1634976028.33834	0.0	1.0	4.0	0.0	0.0	-1.0	53.0	56.0	10.0	0.0	21.0	950.86	18.0	-5.0	-18.0	-987.0
1634976028.436162	0.0	1.0	4.0	0.0	0.0	-1.0	53.0	56.0	10.0	0.0	21.0	950.86	18.0	-5.0	-16.0	-986.0
1634976028.483211	0.0	1.0	4.0	0.0	0.0	-1.0	53.0	56.0	10.0	0.0	21.0	950.86	18.0	-3.0	-16.0	-988.0
1634976028.587784	0.0	1.0	4.0	0.0	1.0	-1.0	53.0	56.0	10.0	0.0	21.0	950.87	18.0	-4.0	-20.0	-992.0
1634976028.695447	0.0	1.0	4.0	0.0	1.0	-1.0	53.0	56.0	10.0	0.0	21.0	950.85	18.0	-6.0	-17.0	-996.0
1634976028.788461	0.0	1.0	4.0	0.0	1.0	-1.0	53.0	56.0	10.0	0.0	21.0	950.84	18.0	-7.0	-19.0	-996.0
1634976028.893244	0.0	1.0	4.0	0.0	1.0	-1.0	53.0	56.0	10.0	0.0	21.0	950.87	18.0	-6.0	-18.0	-994.0
1634976028.993575	0.0	1.0	4.0	0.0	1.0	-1.0	53.0	56.0	10.0	0.0	21.0	950.81	18.0	-5.0	-20.0	-995.0
1634976029.102922	0.0	1.0	4.0	0.0	1.0	0.0	53.0	56.0	10.0	0.0	21.0	950.88	18.0	-6.0	-23.0	-992.0
1634976029.189898	0.0	1.0	4.0	0.0	1.0	0.0	54.0	57.0	10.0	0.0	21.0	950.84	18.0	-8.0	-18.0	-1004.0
1634976029.307863	0.0	1.0	4.0	0.0	1.0	0.0	54.0	57.0	10.0	0.0	21.0	950.85	18.0	-9.0	-21.0	-998.0
1634976029.40284	0.0	1.0	4.0	0.0	0.0	0.0	54.0	57.0	10.0	0.0	21.0	950.87	18.0	-4.0	-20.0	-1001.0
1634976029.504143	0.0	1.0	4.0	0.0	1.0	0.0	54.0	57.0	10.0	0.0	21.0	950.84	18.0	-6.0	-19.0	-998.0
1634976029.600926	0.0	1.0	4.0	0.0	0.0	0.0	54.0	57.0	10.0	0.0	21.0	950.91	18.0	-8.0	-19.0	-995.0
1634976029.712315	0.0	1.0	4.0	0.0	0.0	0.0	54.0	57.0	10.0	0.0	21.0	950.87	18.0	-3.0	-22.0	-990.0
1634976029.814743	0.0	1.0	4.0	0.0	0.0	0.0	54.0	57.0	10.0	0.0	21.0	950.81	18.0	-6.0	-18.0	-993.0
1634976029.910225	0.0	1.0	4.0	0.0	0.0	0.0	54.0	57.0	10.0	0.0	21.0	950.86	18.0	-7.0	-16.0	-998.0
1634976030.006643	0.0	1.0	4.0	0.0	0.0	0.0	54.0	57.0	10.0	0.0	21.0	950.82	18.0	-7.0	-22.0	-997.0
1634976030.12129	0.0	1.0	4.0	0.0	0.0	0.0	54.0	57.0	10.0	0.0	20.0	950.9	18.0	-7.0	-19.0	-999.0
1634976030.222911	0.0	1.0	4.0	0.0	0.0	0.0	54.0	58.0	10.0	0.0	20.0	950.86	18.0	-6.0	-22.0	-1000.0
1634976030.328102	0.0	1.0	4.0	0.0	0.0	0.0	54.0	58.0	10.0	0.0	20.0	950.86	18.0	-7.0	-19.0	-1002.0
1634976030.428736	0.0	1.0	4.0	0.0	0.0	0.0	54.0	58.0	10.0	0.0	20.0	950.93	18.0	-9.0	-22.0	-1004.0
1634976030.517292	0.0	1.0	4.0	0.0	0.0	0.0	54.0	58.0	10.0	0.0	20.0	950.85	18.0	-8.0	-22.0	-1000.0
1634976030.634132	0.0	1.0	4.0	0.0	0.0	0.0	54.0	58.0	10.0	0.0	20.0	950.81	18.0	-5.0	-23.0	-1005.0
1634976030.724123	0.0	1.0	4.0	0.0	0.0	0.0	54.0	58.0	10.0	0.0	20.0	950.84	18.0	-9.0	-24.0	-1004.0
1634976030.830062	0.0	1.0	4.0	0.0	0.0	0.0	54.0	58.0	10.0	0.0	20.0	950.91	18.0	-7.0	-18.0	-998.0
1634976030.939346	0.0	1.0	4.0	0.0	0.0	0.0	54.0	58.0	10.0	0.0	20.0	950.94	18.0	-3.0	-20.0	-994.0
1634976031.031528	0.0	1.0	4.0	0.0	0.0	0.0	54.0	58.0	10.0	0.0	20.0	950.91	18.0	-5.0	-16.0	-995.0
1634976031.140799	0.0	1.0	4.0	0.0	0.0	0.0	54.0	58.0	10.0	0.0	20.0	950.93	18.0	-7.0	-20.0	-1001.0
1634976031.235979	0.0	1.0	4.0	0.0	0.0	0.0	54.0	58.0	10.0	0.0	20.0	950.89	18.0	-7.0	-23.0	-999.0
1634976031.337369	0.0	1.0	4.0	0.0	0.0	0.0	54.0	58.0	10.0	0.0	20.0	950.95	18.0	-7.0	-21.0	-997.0
1634976031.450035	0.0	1.0	4.0	0.0	0.0	0.0	54.0	58.0	10.0	0.0	20.0	950.92	18.0	-6.0	-19.0	-1001.0
1634976031.547006	0.0	1.0	4.0	0.0	0.0	0.0	54.0	58.0	10.0	0.0	20.0	950.93	18.0	-7.0	-21.0	-1003.0
1634976031.602423	0.0	1.0	4.0	0.0	0.0	0.0	54.0	58.0	10.0	0.0	20.0	950.88	18.0	-6.0	-19.0	-1009.0
1634976031.70364	0.0	1.0	4.0	0.0	0.0	0.0	54.0	58.0	10.0	0.0	20.0	950.9	18.0	-10.0	-25.0	-1007.0
1634976031.801842	0.0	1.0	4.0	0.0	0.0	0.0	54.0	58.0	10.0	0.0	20.0	950.86	18.0	-10.0	-23.0	-1005.0
1634976031.901727	0.0	1.0	4.0	0.0	0.0	0.0	54.0	58.0	10.0	0.0	20.0	950.86	18.0	-1.0	-16.0	-1003.0
1634976031.99728	0.0	1.0	4.0	0.0	0.0	0.0	54.0	58.0	10.0	0.0	20.0	950.9	18.0	-4.0	-19.0	-1005.0
1634976032.106626	0.0	1.0	4.0	0.0	0.0	0.0	54.0	58.0	10.0	0.0	19.0	950.9	18.0	-8.0	-23.0	-1004.0
1634976032.207818	0.0	1.0	4.0	0.0	0.0	0.0	54.0	57.0	10.0	0.0	19.0	950.96	18.0	-5.0	-10.0	-1009.0
1634976032.317456	0.0	1.0	4.0	0.0	0.0	0.0	54.0	57.0	10.0	0.0	19.0	950.91	18.0	-7.0	-23.0	-996.0
1634976032.418265	0.0	1.0	4.0	0.0	0.0	0.0	54.0	57.0	10.0	0.0	19.0	950.98	18.0	-8.0	-19.0	-986.0
1634976032.509264	0.0	1.0	4.0	0.0	0.0	0.0	54.0	57.0	10.0	0.0	19.0	950.88	18.0	0.0	-19.0	-991.0
1634976032.612382	0.0	1.0	4.0	0.0	0.0	0.0	54.0	57.0	10.0	0.0	19.0	950.87	18.0	-11.0	-19.0	-983.0
1634976032.723752	0.0	1.0	4.0	0.0	0.0	0.0	54.0	57.0	10.0	0.0	19.0	950.83	18.0	0.0	-19.0	-986.0
1634976032.815352	0.0	1.0	4.0	0.0	0.0	0.0	54.0	57.0	10.0	0.0	19.0	950.87	18.0	-8.0	-19.0	-994.0
1634976032.922588	0.0	1.0	4.0	0.0	0.0	0.0	54.0	57.0	10.0	0.0	19.0	950.86	18.0	-6.0	-20.0	-1005.0
1634976033.016314	0.0	1.0	4.0	0.0	0.0	0.0	54.0	57.0	10.0	0.0	19.0	950.92	18.0	-9.0	-20.0	-1001.0
1634976033.118888	0.0	1.0	4.0	0.0	0.0	0.0	54.0	57.0	10.0	0.0	19.0	950.94	18.0	-1.0	-20.0	-996.0
1634976033.221463	0.0	1.0	4.0	0.0	0.0	0.0	54.0	58.0	10.0	0.0	19.0	950.96	18.0	-7.0	-21.0	-1000.0
1634976033.337536	0.0	1.0	4.0	0.0	0.0	0.0	54.0	58.0	10.0	0.0	19.0	950.93	18.0	-8.0	-16.0	-1003.0
1634976033.432702	0.0	1.0	4.0	0.0	0.0	0.0	54.0	58.0	10.0	0.0	19.0	950.89	18.0	-7.0	-28.0	-1000.0
1634976033.530617	0.0	1.0	4.0	0.0	0.0	0.0	54.0	58.0	10.0	0.0	19.0	950.88	18.0	-6.0	-22.0	-1000.0
1634976033.641476	0.0	1.0	4.0	0.0	0.0	0.0	54.0	58.0	10.0	0.0	19.0	950.95	18.0	-8.0	-17.0	-996.0
1634976033.745225	0.0	1.0	4.0	0.0	0.0	0.0	54.0	58.0	10.0	0.0	19.0	950.94	18.0	-6.0	-22.0	-997.0
1634976033.837873	0.0	1.0	4.0	0.0	0.0	0.0	54.0	58.0	10.0	0.0	19.0	950.86	18.0	-9.0	-19.0	-1005.0
1634976033.942064	0.0	1.0	4.0	0.0	0.0	0.0	54.0	58.0	10.0	0.0	19.0	950.95	18.0	-8.0	-18.0	-1015.0
1634976034.037417	0.0	1.0	4.0	0.0	0.0	0.0	54.0	58.0	10.0	0.0	19.0	950.87	18.0	-13.0	-15.0	-1004.0
1634976034.146693	0.0	1.0	4.0	0.0	0.0	0.0	54.0	58.0	10.0	0.0	18.0	950.91	18.0	-3.0	-20.0	-999.0
1634976034.252593	0.0	1.0	4.0	0.0	0.0	0.0	54.0	57.0	10.0	0.0	18.0	950.93	18.0	-7.0	-23.0	-999.0
1634976034.345178	0.0	1.0	4.0	0.0	0.0	0.0	54.0	57.0	10.0	0.0	18.0	950.92	18.0	-7.0	-17.0	-1004.0
1634976034.458844	0.0	1.0	4.0	0.0	0.0	0.0	54.0	57.0	10.0	0.0	18.0	950.93	18.0	-9.0	-19.0	-1011.0
1634976034.559893	0.0	1.0	4.0	0.0	0.0	0.0	54.0	57.0	10.0	0.0	18.0	950.9	18.0	-9.0	-25.0	-998.0
1634976034.654766	0.0	1.0	4.0	0.0	0.0	0.0	54.0	57.0	10.0	0.0	18.0	950.92	18.0	-4.0	-14.0	-998.0
1634976034.76493	0.0	1.0	4.0	0.0	0.0	0.0	54.0	57.0	10.0	0.0	18.0	950.92	18.0	-4.0	-21.0	-999.0
1634976034.866959	0.0	1.0	4.0	0.0	0.0	0.0	54.0	57.0	10.0	0.0	18.0	950.9	18.0	-7.0	-22.0	-998.0
1634976034.953637	0.0	1.0	4.0	0.0	0.0	0.0	54.0	57.0	10.0	0.0	18.0	950.93	18.0	-7.0	-18.0	-998.0
1634976035.018198	0.0	1.0	4.0	0.0	0.0	0.0	54.0	57.0	10.0	0.0	18.0	950.87	18.0	-7.0	-26.0	-996.0
1634976035.12024	0.0	1.0	4.0	0.0	0.0	0.0	54.0	57.0	10.0	0.0	18.0	950.84	18.0	-5.0	-14.0	-977.0
1634976035.223941	0.0	1.0	4.0	0.0	0.0	0.0	55.0	57.0	10.0	0.0	18.0	950.88	18.0	0.0	-12.0	-985.0
1634976035.326298	0.0	1.0	4.0	0.0	0.0	0.0	55.0	57.0	10.0	0.0	18.0	950.91	18.0	-8.0	-17.0	-1000.0
1634976035.413129	0.0	1.0	4.0	0.0	0.0	0.0	55.0	57.0	10.0	0.0	18.0	950.88	18.0	-15.0	-27.0	-1018.0
1634976035.524328	0.0	1.0	4.0	0.0	0.0	0.0	55.0	57.0	10.0	0.0	18.0	950.96	18.0	-10.0	-25.0	-1014.0
1634976035.623186	0.0	1.0	4.0	0.0	0.0	0.0	55.0	57.0	10.0	0.0	18.0	950.86	18.0	-7.0	-19.0	-976.0
1634976035.727413	0.0	1.0	4.0	0.0	0.0	0.0	55.0	57.0	10.0	0.0	18.0	950.87	18.0	-1.0	-16.0	-978.0
1634976035.824035	0.0	1.0	4.0	0.0	0.0	0.0	55.0	57.0	10.0	0.0	18.0	950.9	18.0	-3.0	-14.0	-984.0
1634976035.923915	0.0	1.0	4.0	0.0	0.0	0.0	55.0	57.0	10.0	0.0	18.0	950.92	18.0	-6.0	-18.0	-992.0
1634976036.034848	0.0	1.0	4.0	0.0	0.0	0.0	55.0	57.0	10.0	0.0	18.0	950.94	18.0	-4.0	-19.0	-987.0
1634976036.130166	0.0	1.0	4.0	0.0	0.0	0.0	55.0	57.0	10.0	0.0	17.0	950.9	18.0	-6.0	-17.0	-1004.0
1634976036.241889	0.0	1.0	4.0	0.0	0.0	0.0	54.0	57.0	10.0	0.0	17.0	950.97	18.0	-7.0	-19.0	-995.0
1634976036.339889	0.0	1.0	4.0	0.0	0.0	0.0	54.0	57.0	10.0	0.0	17.0	950.91	18.0	-3.0	-21.0	-998.0
1634976036.441278	0.0	1.0	4.0	0.0	0.0	0.0	54.0	57.0	10.0	0.0	17.0	950.89	18.0	-5.0	-15.0	-992.0
1634976036.542995	0.0	1.0	4.0	0.0	0.0	0.0	54.0	57.0	10.0	0.0	17.0	950.93	18.0	-4.0	-16.0	-996.0
1634976036.638566	0.0	1.0	4.0	0.0	0.0	0.0	54.0	57.0	10.0	0.0	17.0	950.94	18.0	-6.0	-23.0	-1000.0
1634976036.741975	0.0	1.0	4.0	0.0	0.0	0.0	54.0	57.0	10.0	0.0	17.0	950.91	18.0	-4.0	-20.0	-995.0
1634976036.855902	0.0	1.0	4.0	0.0	0.0	0.0	54.0	57.0	10.0	0.0	17.0	950.96	18.0	-5.0	-15.0	-1000.0
1634976036.948069	0.0	1.0	4.0	0.0	0.0	0.0	54.0	57.0	10.0	0.0	17.0	950.92	18.0	-6.0	-25.0	-996.0
1634976037.058714	0.0	1.0	4.0	0.0	0.0	0.0	54.0	57.0	10.0	0.0	17.0	950.96	18.0	-4.0	-19.0	-1006.0
1634976037.161368	0.0	1.0	4.0	0.0	0.0	0.0	54.0	57.0	10.0	0.0	17.0	950.92	18.0	-8.0	-20.0	-984.0
1634976037.256862	0.0	1.0	4.0	0.0	0.0	0.0	54.0	57.0	10.0	0.0	17.0	950.95	18.0	-3.0	-25.0	-989.0
1634976037.356931	0.0	1.0	4.0	0.0	0.0	0.0	54.0	57.0	10.0	0.0	17.0	950.97	18.0	-6.0	-17.0	-994.0
1634976037.464503	0.0	1.0	4.0	0.0	0.0	0.0	54.0	57.0	10.0	0.0	17.0	950.99	18.0	-8.0	-19.0	-999.0
1634976037.561697	0.0	1.0	4.0	0.0	0.0	0.0	54.0	57.0	10.0	0.0	17.0	950.9	18.0	-8.0	-23.0	-995.0
1634976037.657238	0.0	1.0	4.0	0.0	0.0	0.0	54.0	57.0	10.0	0.0	17.0	950.81	18.0	-5.0	-16.0	-999.0
1634976037.772171	0.0	1.0	4.0	0.0	0.0	0.0	54.0	57.0	10.0	0.0	17.0	950.93	18.0	-7.0	-18.0	-996.0
1634976037.876386	0.0	1.0	4.0	0.0	0.0	0.0	54.0	57.0	10.0	0.0	17.0	950.93	18.0	-4.0	-21.0	-994.0
1634976037.966774	0.0	1.0	4.0	0.0	0.0	0.0	54.0	57.0	10.0	0.0	17.0	950.96	18.0	-8.0	-20.0	-988.0
1634976038.069071	0.0	1.0	4.0	0.0	0.0	0.0	54.0	57.0	10.0	0.0	17.0	950.91	18.0	-4.0	-19.0	-1003.0
1634976038.119022	0.0	1.0	4.0	0.0	0.0	0.0	54.0	57.0	10.0	0.0	16.0	950.94	18.0	-13.0	-23.0	-988.0
1634976038.27721	0.0	1.0	4.0	0.0	0.0	0.0	54.0	57.0	10.0	0.0	16.0	950.89	18.0	-6.0	-19.0	-994.0
1634976038.335731	0.0	1.0	4.0	0.0	0.0	0.0	54.0	57.0	10.0	0.0	16.0	950.94	18.0	-6.0	-21.0	-1014.0
1634976038.433628	0.0	1.0	4.0	0.0	0.0	0.0	54.0	57.0	10.0	0.0	16.0	950.91	18.0	-12.0	-22.0	-1011.0
1634976038.533542	0.0	1.0	4.0	0.0	0.0	0.0	54.0	57.0	10.0	0.0	16.0	950.94	18.0	-4.0	-20.0	-1013.0
1634976038.640734	0.0	1.0	4.0	0.0	0.0	0.0	54.0	57.0	10.0	0.0	16.0	950.92	18.0	-6.0	-20.0	-1007.0
1634976038.741787	0.0	1.0	4.0	0.0	0.0	0.0	54.0	57.0	10.0	0.0	16.0	950.97	18.0	-8.0	-17.0	-994.0
1634976038.836833	0.0	1.0	4.0	0.0	0.0	0.0	54.0	57.0	10.0	0.0	16.0	950.96	18.0	0.0	-8.0	-986.0
1634976038.938168	0.0	1.0	4.0	0.0	0.0	0.0	54.0	57.0	10.0	0.0	16.0	950.94	18.0	-7.0	-21.0	-981.0
1634976039.033468	0.0	1.0	4.0	0.0	0.0	0.0	54.0	57.0	10.0	0.0	16.0	950.95	18.0	-7.0	-27.0	-987.0
1634976039.148127	0.0	1.0	4.0	0.0	0.0	0.0	54.0	57.0	10.0	0.0	16.0	950.87	18.0	-4.0	-9.0	-991.0
1634976039.25244	0.0	1.0	4.0	0.0	0.0	0.0	54.0	58.0	10.0	0.0	16.0	950.97	18.0	-10.0	-23.0	-1001.0
1634976039.355361	0.0	1.0	4.0	0.0	0.0	0.0	54.0	58.0	10.0	0.0	16.0	950.95	18.0	-7.0	-21.0	-1003.0
1634976039.448795	0.0	1.0	4.0	0.0	0.0	0.0	54.0	58.0	10.0	0.0	16.0	951.0	18.0	-5.0	-15.0	-1002.0
1634976039.558066	0.0	1.0	4.0	0.0	0.0	0.0	54.0	58.0	10.0	0.0	16.0	950.95	18.0	-10.0	-20.0	-1013.0
1634976039.653516	0.0	1.0	4.0	0.0	0.0	0.0	54.0	58.0	10.0	0.0	16.0	950.86	18.0	-4.0	-23.0	-1006.0
1634976039.766113	0.0	1.0	4.0	0.0	0.0	0.0	54.0	58.0	10.0	0.0	16.0	950.96	18.0	-10.0	-20.0	-1018.0
1634976039.854521	0.0	1.0	4.0	0.0	0.0	0.0	54.0	58.0	10.0	0.0	16.0	950.95	18.0	-9.0	-18.0	-1010.0
1634976039.960919	0.0	1.0	4.0	0.0	0.0	0.0	54.0	58.0	10.0	0.0	16.0	950.97	18.0	-11.0	-23.0	-1008.0
1634976040.063207	0.0	1.0	4.0	0.0	0.0	0.0	54.0	58.0	10.0	0.0	16.0	950.93	18.0	-6.0	-19.0	-998.0
1634976040.156254	0.0	1.0	4.0	0.0	0.0	0.0	54.0	58.0	10.0	0.0	15.0	950.89	18.0	-6.0	-16.0	-999.0
1634976040.265627	0.0	1.0	4.0	0.0	0.0	0.0	55.0	58.0	10.0	0.0	15.0	950.91	18.0	-5.0	-20.0	-988.0
1634976040.374981	0.0	1.0	4.0	0.0	0.0	0.0	55.0	58.0	10.0	0.0	15.0	950.9	18.0	-3.0	-16.0	-996.0
1634976040.475954	0.0	1.0	4.0	0.0	0.0	0.0	55.0	58.0	10.0	0.0	15.0	950.93	18.0	-6.0	-19.0	-990.0
1634976040.573557	0.0	1.0	4.0	0.0	0.0	0.0	55.0	58.0	10.0	0.0	15.0	950.97	18.0	-9.0	-20.0	-992.0
1634976040.680791	0.0	1.0	4.0	0.0	0.0	0.0	55.0	58.0	10.0	0.0	15.0	950.9	18.0	-6.0	-19.0	-1001.0
1634976040.777736	0.0	1.0	4.0	0.0	0.0	0.0	55.0	58.0	10.0	0.0	15.0	950.94	18.0	-7.0	-19.0	-994.0
1634976040.873031	0.0	1.0	4.0	0.0	0.0	0.0	55.0	58.0	10.0	0.0	15.0	950.93	18.0	-6.0	-15.0	-988.0
1634976040.974495	0.0	1.0	4.0	0.0	0.0	0.0	55.0	58.0	10.0	0.0	15.0	950.94	18.0	-1.0	-20.0	-987.0
1634976041.083539	0.0	1.0	4.0	0.0	0.0	0.0	55.0	58.0	10.0	0.0	15.0	950.94	18.0	-5.0	-23.0	-980.0
1634976041.179152	0.0	1.0	4.0	0.0	0.0	0.0	55.0	58.0	10.0	0.0	15.0	950.97	18.0	-4.0	-17.0	-997.0
1634976041.283383	0.0	1.0	4.0	0.0	0.0	0.0	55.0	58.0	10.0	0.0	15.0	950.94	18.0	-4.0	-19.0	-1000.0
1634976041.386932	0.0	1.0	4.0	0.0	0.0	0.0	55.0	58.0	10.0	0.0	15.0	950.97	18.0	-12.0	-20.0	-988.0
1634976041.496882	0.0	1.0	4.0	0.0	0.0	0.0	55.0	58.0	10.0	0.0	15.0	951.01	18.0	3.0	-19.0	-992.0
1634976041.597599	0.0	1.0	4.0	0.0	0.0	0.0	55.0	58.0	10.0	0.0	15.0	951.0	18.0	-12.0	-22.0	-994.0
1634976041.694879	0.0	1.0	4.0	0.0	0.0	0.0	55.0	58.0	10.0	0.0	15.0	951.0	18.0	-5.0	-13.0	-999.0
1634976041.802314	0.0	1.0	4.0	0.0	0.0	0.0	55.0	58.0	10.0	0.0	15.0	950.91	18.0	-7.0	-21.0	-1004.0
1634976041.90361	0.0	1.0	4.0	0.0	0.0	0.0	55.0	58.0	10.0	0.0	15.0	950.99	18.0	-10.0	-24.0	-1012.0
1634976041.954972	0.0	1.0	4.0	0.0	0.0	0.0	55.0	58.0	10.0	0.0	15.0	950.98	18.0	-7.0	-19.0	-1025.0
1634976042.057007	0.0	1.0	4.0	0.0	0.0	0.0	55.0	58.0	10.0	0.0	15.0	950.97	18.0	-11.0	-30.0	-1018.0
1634976042.152816	0.0	1.0	4.0	0.0	0.0	0.0	55.0	58.0	10.0	0.0	14.0	950.92	18.0	-12.0	-18.0	-1005.0
1634976042.263376	0.0	1.0	4.0	0.0	0.0	0.0	55.0	58.0	10.0	0.0	14.0	951.09	18.0	-6.0	-16.0	-996.0
1634976042.363777	0.0	1.0	4.0	0.0	0.0	0.0	55.0	58.0	10.0	0.0	14.0	951.0	18.0	-4.0	-20.0	-999.0
1634976042.464497	0.0	1.0	4.0	0.0	0.0	0.0	55.0	58.0	10.0	0.0	14.0	950.98	18.0	-7.0	-19.0	-988.0
1634976042.566694	0.0	1.0	4.0	0.0	0.0	0.0	55.0	58.0	10.0	0.0	14.0	951.0	18.0	-2.0	-18.0	-996.0
1634976042.669407	0.0	1.0	4.0	0.0	0.0	0.0	55.0	58.0	10.0	0.0	14.0	950.96	18.0	-8.0	-24.0	-992.0
1634976042.768695	0.0	1.0	4.0	0.0	0.0	0.0	55.0	58.0	10.0	0.0	14.0	950.98	18.0	-8.0	-20.0	-1010.0
1634976042.873052	0.0	1.0	4.0	0.0	0.0	0.0	55.0	58.0	10.0	0.0	14.0	950.96	18.0	-9.0	-23.0	-991.0
1634976042.975456	0.0	1.0	4.0	0.0	0.0	0.0	55.0	58.0	10.0	0.0	14.0	950.94	18.0	-8.0	-21.0	-991.0
1634976043.077285	0.0	1.0	4.0	0.0	0.0	0.0	55.0	58.0	10.0	0.0	14.0	950.97	18.0	-6.0	-14.0	-993.0
1634976043.17686	0.0	1.0	4.0	0.0	0.0	0.0	55.0	58.0	10.0	0.0	14.0	950.94	18.0	-8.0	-17.0	-1001.0
1634976043.269332	0.0	1.0	4.0	0.0	0.0	0.0	55.0	58.0	10.0	0.0	14.0	950.95	18.0	-6.0	-22.0	-992.0
1634976043.382648	0.0	1.0	4.0	0.0	0.0	0.0	55.0	58.0	10.0	0.0	14.0	950.93	18.0	-5.0	-18.0	-987.0
1634976043.485442	0.0	1.0	4.0	0.0	0.0	0.0	55.0	58.0	10.0	0.0	14.0	950.98	18.0	-7.0	-21.0	-997.0
1634976043.579555	0.0	1.0	4.0	0.0	0.0	0.0	55.0	58.0	10.0	0.0	14.0	950.94	18.0	-9.0	-23.0	-977.0
1634976043.689464	0.0	1.0	4.0	0.0	0.0	0.0	55.0	58.0	10.0	0.0	14.0	950.99	18.0	-4.0	-12.0	-993.0
1634976043.785707	0.0	1.0	4.0	0.0	0.0	0.0	55.0	58.0	10.0	0.0	14.0	951.0	18.0	-3.0	-11.0	-987.0
1634976043.879607	0.0	1.0	4.0	0.0	0.0	0.0	55.0	58.0	10.0	0.0	14.0	950.92	19.0	-3.0	-23.0	-989.0
1634976043.99516	0.0	1.0	4.0	0.0	0.0	0.0	55.0	58.0	10.0	0.0	14.0	950.53	19.0	-2.0	-23.0	-984.0
1634976044.089963	0.0	1.0	4.0	0.0	0.0	0.0	55.0	58.0	10.0	0.0	14.0	949.97	19.0	4.0	-23.0	-998.0
