timestamp	pitch	roll	yaw	vgx	vgy	vgz	templ	temph	tof	h	bat	baro	time	agx	agy	agz
1634976217.115809
1634976217.218191	0.0	1.0	0.0	0.0	0.0	0.0	69.0	73.0	10.0	0.0	24.0	950.97	0.0	-13.0	-21.0	-1002.0
1634976217.319774	0.0	1.0	0.0	0.0	0.0	0.0	69.0	73.0	10.0	0.0	24.0	950.97	0.0	-13.0	-20.0	-1003.0
1634976217.42227	0.0	1.0	0.0	0.0	0.0	0.0	69.0	73.0	10.0	0.0	24.0	950.97	0.0	-3.0	-24.0	-1010.0
1634976217.518638	0.0	1.0	0.0	0.0	0.0	0.0	69.0	73.0	10.0	0.0	24.0	950.97	0.0	-25.0	-34.0	-982.0
1634976217.611071	0.0	1.0	0.0	0.0	0.0	0.0	69.0	73.0	10.0	0.0	24.0	950.97	0.0	-3.0	-10.0	-1010.0
1634976217.72792	0.0	1.0	0.0	0.0	0.0	0.0	69.0	73.0	10.0	0.0	24.0	950.97	0.0	-43.0	14.0	-960.0
1634976217.82377	0.0	0.0	0.0	0.0	0.0	0.0	69.0	73.0	10.0	0.0	24.0	950.97	0.0	-13.0	-9.0	-1051.0
1634976217.925074	0.0	0.0	0.0	0.0	0.0	0.0	69.0	73.0	10.0	0.0	24.0	950.97	0.0	-9.0	-13.0	-1075.0
1634976218.034495	0.0	-1.0	0.0	0.0	0.0	-1.0	69.0	73.0	10.0	0.0	24.0	950.97	0.0	-5.0	-34.0	-1305.0
1634976218.132787	0.0	0.0	0.0	0.0	0.0	-3.0	70.0	73.0	10.0	0.0	24.0	950.97	0.0	-6.0	-24.0	-1238.0
1634976218.225314	0.0	1.0	0.0	0.0	0.0	-5.0	70.0	73.0	16.0	0.0	24.0	951.18	0.0	-50.0	-43.0	-1113.0
1634976218.340189	1.0	1.0	0.0	0.0	0.0	-7.0	70.0	73.0	24.0	10.0	24.0	951.48	1.0	-51.0	-41.0	-1081.0
1634976218.438377	0.0	2.0	0.0	0.0	0.0	-7.0	70.0	73.0	32.0	10.0	24.0	951.44	1.0	-35.0	-37.0	-1006.0
1634976218.535674	-2.0	2.0	0.0	0.0	0.0	-7.0	70.0	73.0	40.0	20.0	24.0	951.53	1.0	-26.0	-48.0	-981.0
1634976218.63299	-2.0	3.0	0.0	0.0	0.0	-7.0	70.0	73.0	47.0	30.0	24.0	951.57	1.0	-22.0	-41.0	-945.0
1634976218.745865	-2.0	3.0	0.0	0.0	0.0	-7.0	70.0	73.0	55.0	40.0	24.0	951.66	1.0	-34.0	-40.0	-924.0
1634976218.836191	-2.0	3.0	0.0	0.0	0.0	-6.0	70.0	73.0	62.0	40.0	24.0	951.78	1.0	-28.0	-47.0	-884.0
1634976218.952108	-1.0	3.0	0.0	0.0	0.0	-5.0	70.0	73.0	70.0	50.0	24.0	951.71	1.0	-19.0	-55.0	-891.0
1634976219.038644	-1.0	3.0	0.0	0.0	0.0	-4.0	70.0	73.0	75.0	50.0	24.0	951.74	1.0	-33.0	-37.0	-879.0
1634976219.142781	-2.0	3.0	0.0	0.0	0.0	-3.0	70.0	73.0	79.0	60.0	24.0	951.78	1.0	-42.0	-69.0	-901.0
1634976219.253851	-3.0	2.0	0.0	0.0	0.0	-2.0	70.0	73.0	81.0	60.0	24.0	951.82	1.0	-81.0	-20.0	-905.0
1634976219.357205	-3.0	3.0	0.0	0.0	0.0	-1.0	70.0	73.0	84.0	60.0	24.0	951.85	2.0	-24.0	-57.0	-927.0
1634976219.453911	-2.0	3.0	0.0	0.0	0.0	0.0	70.0	73.0	86.0	60.0	24.0	951.91	2.0	-35.0	-41.0	-941.0
1634976219.552485	-2.0	3.0	0.0	0.0	0.0	0.0	70.0	73.0	86.0	60.0	24.0	951.99	2.0	-33.0	-54.0	-958.0
1634976219.603433	-2.0	3.0	0.0	0.0	0.0	0.0	70.0	73.0	86.0	70.0	24.0	951.97	2.0	-9.0	-63.0	-967.0
1634976219.709879	-1.0	3.0	0.0	0.0	0.0	0.0	70.0	73.0	86.0	70.0	23.0	951.91	2.0	-21.0	-71.0	-967.0
1634976219.818248	-1.0	3.0	0.0	0.0	0.0	0.0	70.0	73.0	86.0	70.0	23.0	951.93	2.0	-24.0	-64.0	-982.0
1634976219.908898	-1.0	3.0	0.0	0.0	0.0	0.0	70.0	73.0	86.0	70.0	23.0	951.96	2.0	-47.0	-41.0	-994.0
1634976220.023452	-1.0	3.0	0.0	0.0	0.0	0.0	70.0	73.0	86.0	70.0	23.0	951.79	2.0	-35.0	-67.0	-989.0
1634976220.114881	-2.0	3.0	0.0	0.0	0.0	0.0	69.0	72.0	84.0	70.0	23.0	951.88	2.0	-63.0	-43.0	-1000.0
1634976220.226922	-2.0	3.0	0.0	0.0	0.0	0.0	69.0	72.0	84.0	70.0	23.0	951.9	2.0	-70.0	-56.0	-1000.0
1634976220.319942	-2.0	3.0	0.0	0.0	0.0	0.0	69.0	72.0	84.0	70.0	23.0	951.9	3.0	-43.0	-59.0	-1001.0
1634976220.415619	-1.0	4.0	0.0	0.0	0.0	0.0	69.0	72.0	84.0	70.0	23.0	951.84	3.0	-21.0	-83.0	-985.0
1634976220.528785	-1.0	3.0	0.0	0.0	0.0	0.0	69.0	72.0	83.0	70.0	23.0	951.78	3.0	-45.0	-63.0	-990.0
1634976220.620686	-2.0	3.0	0.0	0.0	0.0	0.0	69.0	72.0	82.0	70.0	23.0	951.69	3.0	-45.0	-49.0	-995.0
1634976220.734133	-2.0	3.0	0.0	0.0	0.0	0.0	69.0	72.0	82.0	70.0	23.0	951.7	3.0	-46.0	-58.0	-1007.0
1634976220.83883	-2.0	3.0	0.0	0.0	0.0	0.0	69.0	72.0	82.0	70.0	23.0	951.76	3.0	-64.0	-58.0	-1043.0
1634976220.937724	-2.0	3.0	0.0	0.0	0.0	0.0	69.0	72.0	81.0	60.0	23.0	951.76	3.0	-53.0	-52.0	-996.0
1634976221.036765	-2.0	3.0	0.0	0.0	0.0	0.0	69.0	72.0	80.0	60.0	23.0	951.75	3.0	-20.0	-69.0	-994.0
1634976221.145382	-2.0	3.0	0.0	0.0	0.0	0.0	70.0	72.0	79.0	60.0	23.0	951.81	3.0	3.0	-73.0	-988.0
1634976221.240519	-2.0	3.0	0.0	0.0	0.0	0.0	70.0	72.0	79.0	60.0	23.0	951.73	3.0	-47.0	-49.0	-998.0
1634976221.347798	-2.0	3.0	0.0	0.0	0.0	0.0	70.0	72.0	79.0	60.0	23.0	951.68	4.0	-45.0	-53.0	-1009.0
1634976221.442713	-2.0	3.0	0.0	0.0	0.0	0.0	70.0	72.0	78.0	60.0	23.0	951.68	4.0	-34.0	-54.0	-1004.0
1634976221.537832	-2.0	3.0	0.0	0.0	0.0	0.0	70.0	72.0	78.0	60.0	23.0	951.7	4.0	-45.0	-49.0	-1004.0
1634976221.654997	-2.0	3.0	0.0	0.0	0.0	0.0	70.0	72.0	78.0	60.0	23.0	951.63	4.0	-39.0	-61.0	-1005.0
1634976221.750883	-2.0	2.0	0.0	0.0	0.0	0.0	70.0	72.0	78.0	60.0	22.0	951.71	4.0	-63.0	-34.0	-1004.0
1634976221.845509	-2.0	2.0	0.0	0.0	0.0	0.0	70.0	72.0	78.0	60.0	22.0	951.68	4.0	-45.0	-51.0	-994.0
1634976221.95883	-2.0	2.0	0.0	0.0	0.0	0.0	70.0	72.0	78.0	60.0	22.0	951.65	4.0	-62.0	-42.0	-999.0
1634976222.062952	-2.0	2.0	0.0	0.0	0.0	0.0	70.0	72.0	78.0	60.0	22.0	951.69	4.0	-39.0	-51.0	-1008.0
1634976222.164991	-2.0	2.0	0.0	0.0	0.0	0.0	69.0	71.0	78.0	60.0	22.0	951.6	4.0	-44.0	-54.0	-1009.0
1634976222.215409	-2.0	2.0	0.0	0.0	0.0	0.0	69.0	71.0	79.0	60.0	22.0	951.66	4.0	-52.0	-55.0	-994.0
1634976222.313798	-2.0	2.0	0.0	0.0	0.0	0.0	69.0	71.0	79.0	60.0	22.0	951.77	5.0	-24.0	-75.0	-1005.0
1634976222.419898	-2.0	2.0	0.0	0.0	0.0	0.0	69.0	71.0	79.0	60.0	22.0	951.64	5.0	-25.0	-81.0	-1005.0
1634976222.52208	-2.0	3.0	0.0	0.0	0.0	0.0	69.0	71.0	80.0	60.0	22.0	951.75	5.0	-39.0	-56.0	-999.0
1634976222.572595	-2.0	3.0	0.0	0.0	0.0	0.0	69.0	71.0	80.0	60.0	22.0	951.75	5.0	-39.0	-56.0	-999.0
1634976222.623045	-2.0	3.0	0.0	0.0	0.0	0.0	69.0	71.0	80.0	60.0	22.0	951.66	5.0	-51.0	-38.0	-991.0
1634976222.7198	-2.0	3.0	0.0	0.0	0.0	0.0	69.0	71.0	80.0	60.0	22.0	951.58	5.0	-49.0	-45.0	-989.0
1634976222.819866	-2.0	3.0	0.0	0.0	0.0	0.0	69.0	71.0	80.0	60.0	22.0	951.68	5.0	-47.0	-41.0	-966.0
1634976222.927749	-2.0	2.0	0.0	0.0	0.0	0.0	69.0	71.0	81.0	60.0	22.0	951.68	5.0	-63.0	-44.0	-999.0
1634976223.019373	-2.0	2.0	0.0	0.0	0.0	0.0	69.0	71.0	81.0	60.0	22.0	951.75	5.0	-49.0	-53.0	-997.0
1634976223.133315	-2.0	2.0	0.0	0.0	0.0	0.0	69.0	71.0	81.0	60.0	22.0	951.78	5.0	-39.0	-59.0	-1006.0
1634976223.235553	-2.0	2.0	0.0	0.0	0.0	0.0	69.0	71.0	81.0	60.0	22.0	951.8	5.0	-49.0	-58.0	-986.0
1634976223.333731	-2.0	3.0	0.0	0.0	0.0	0.0	69.0	71.0	81.0	60.0	22.0	951.74	6.0	-24.0	-72.0	-1017.0
1634976223.426866	-1.0	4.0	0.0	0.0	0.0	0.0	69.0	71.0	81.0	60.0	22.0	951.83	6.0	-38.0	-41.0	-1002.0
1634976223.531123	-1.0	4.0	0.0	0.0	0.0	0.0	69.0	71.0	81.0	60.0	22.0	951.79	6.0	-22.0	-91.0	-987.0
1634976223.643285	-1.0	3.0	0.0	0.0	0.0	0.0	69.0	71.0	82.0	60.0	22.0	951.75	6.0	-48.0	-63.0	-1001.0
1634976223.740806	-2.0	3.0	0.0	0.0	0.0	0.0	69.0	71.0	82.0	60.0	21.0	951.77	6.0	-43.0	-65.0	-988.0
1634976223.847428	-2.0	3.0	0.0	0.0	0.0	0.0	69.0	71.0	82.0	60.0	21.0	951.81	6.0	-37.0	-71.0	-990.0
1634976223.944736	-2.0	3.0	0.0	0.0	0.0	0.0	69.0	71.0	83.0	60.0	21.0	951.73	6.0	-22.0	-74.0	-997.0
1634976224.037873	-2.0	4.0	0.0	0.0	0.0	0.0	69.0	71.0	83.0	60.0	21.0	951.77	6.0	-45.0	-56.0	-985.0
1634976224.142677	-2.0	4.0	0.0	0.0	0.0	0.0	67.0	72.0	83.0	60.0	21.0	951.75	6.0	-38.0	-65.0	-977.0
1634976224.254782	-2.0	4.0	0.0	0.0	0.0	0.0	67.0	72.0	83.0	60.0	21.0	951.73	6.0	-33.0	-59.0	-982.0
1634976224.351915	-1.0	4.0	0.0	0.0	0.0	0.0	67.0	72.0	83.0	70.0	21.0	951.7	7.0	-46.0	-55.0	-1014.0
1634976224.450515	-1.0	4.0	0.0	0.0	0.0	0.0	67.0	72.0	84.0	70.0	21.0	951.69	7.0	-60.0	-58.0	-1013.0
1634976224.562157	-1.0	3.0	0.0	0.0	0.0	0.0	67.0	72.0	84.0	70.0	21.0	951.77	7.0	-46.0	-52.0	-981.0
1634976224.663274	-2.0	3.0	0.0	0.0	0.0	0.0	67.0	72.0	84.0	70.0	21.0	951.79	7.0	-27.0	-76.0	-979.0
1634976224.714005	-2.0	3.0	0.0	0.0	0.0	0.0	67.0	72.0	84.0	70.0	21.0	951.72	7.0	-28.0	-67.0	-984.0
1634976224.813298	-2.0	3.0	0.0	0.0	0.0	0.0	67.0	72.0	84.0	70.0	21.0	951.73	7.0	-46.0	-67.0	-993.0
1634976224.918893	-2.0	4.0	0.0	0.0	0.0	0.0	67.0	72.0	83.0	70.0	21.0	951.79	7.0	-8.0	-78.0	-984.0
1634976225.016184	-1.0	4.0	0.0	0.0	0.0	0.0	67.0	72.0	83.0	60.0	21.0	951.77	7.0	-44.0	-64.0	-1009.0
1634976225.120053	-1.0	3.0	0.0	0.0	0.0	0.0	68.0	71.0	83.0	60.0	21.0	951.62	7.0	-27.0	-65.0	-985.0
1634976225.221052	-2.0	3.0	0.0	0.0	0.0	0.0	68.0	71.0	84.0	60.0	21.0	951.63	7.0	-43.0	-43.0	-1001.0
1634976225.31966	-2.0	3.0	0.0	0.0	0.0	0.0	68.0	71.0	83.0	60.0	21.0	951.62	8.0	-22.0	-63.0	-984.0
1634976225.423936	-2.0	3.0	0.0	0.0	0.0	0.0	68.0	71.0	83.0	60.0	21.0	951.65	8.0	-41.0	-49.0	-991.0
1634976225.531839	-2.0	3.0	0.0	0.0	0.0	0.0	68.0	71.0	83.0	60.0	21.0	951.71	8.0	-26.0	-72.0	-982.0
1634976225.625477	-1.0	2.0	0.0	0.0	0.0	0.0	68.0	71.0	83.0	70.0	21.0	951.64	8.0	-32.0	-72.0	-992.0
1634976225.729178	-2.0	3.0	0.0	0.0	0.0	0.0	68.0	71.0	83.0	70.0	20.0	951.77	8.0	-30.0	-79.0	-981.0
1634976225.833697	-2.0	3.0	0.0	0.0	0.0	0.0	68.0	71.0	84.0	70.0	20.0	951.77	8.0	-48.0	-68.0	-998.0
1634976225.927796	-2.0	3.0	0.0	0.0	0.0	0.0	68.0	71.0	84.0	70.0	20.0	951.68	8.0	-52.0	-57.0	-983.0
1634976226.04367	-2.0	4.0	0.0	0.0	0.0	0.0	68.0	71.0	85.0	70.0	20.0	951.66	8.0	-58.0	-39.0	-982.0
1634976226.144793	-2.0	4.0	0.0	0.0	0.0	0.0	68.0	71.0	85.0	70.0	20.0	951.65	8.0	-45.0	-63.0	-1011.0
1634976226.236001	-3.0	3.0	0.0	0.0	0.0	0.0	68.0	71.0	85.0	70.0	20.0	951.74	8.0	-15.0	-75.0	-970.0
1634976226.339126	-3.0	3.0	0.0	0.0	0.0	0.0	68.0	71.0	84.0	70.0	20.0	951.7	9.0	-42.0	-53.0	-981.0
1634976226.448074	-2.0	3.0	0.0	0.0	0.0	0.0	68.0	71.0	84.0	70.0	20.0	951.69	9.0	-27.0	-64.0	-991.0
1634976226.552408	-2.0	2.0	0.0	0.0	0.0	0.0	68.0	71.0	84.0	70.0	20.0	951.74	9.0	-50.0	-51.0	-989.0
1634976226.654075	-2.0	2.0	0.0	0.0	0.0	0.0	68.0	71.0	84.0	70.0	20.0	951.66	9.0	-29.0	-56.0	-983.0
1634976226.748525	-2.0	2.0	0.0	0.0	0.0	0.0	68.0	71.0	83.0	70.0	20.0	951.75	9.0	-22.0	-65.0	-1008.0
1634976226.849559	-2.0	3.0	0.0	0.0	0.0	0.0	68.0	71.0	82.0	70.0	20.0	951.68	9.0	-37.0	-66.0	-997.0
1634976226.947274	-1.0	3.0	0.0	0.0	0.0	0.0	68.0	71.0	82.0	60.0	20.0	951.72	9.0	-1.0	-62.0	-987.0
1634976227.064465	-2.0	3.0	0.0	0.0	0.0	0.0	68.0	71.0	82.0	60.0	20.0	951.7	9.0	-33.0	-57.0	-993.0
1634976227.163542	-2.0	2.0	0.0	0.0	0.0	0.0	68.0	71.0	82.0	60.0	20.0	951.7	9.0	-34.0	-60.0	-991.0
1634976227.215468	-2.0	2.0	0.0	0.0	0.0	0.0	68.0	71.0	82.0	60.0	20.0	951.66	9.0	-25.0	-66.0	-1004.0
1634976227.317722	-2.0	2.0	0.0	0.0	0.0	0.0	68.0	71.0	82.0	60.0	20.0	951.65	10.0	-43.0	-49.0	-1000.0
1634976227.416692	-2.0	3.0	0.0	0.0	0.0	0.0	68.0	71.0	82.0	60.0	20.0	951.66	10.0	-49.0	-42.0	-1000.0
1634976227.521648	-1.0	3.0	0.0	0.0	0.0	0.0	68.0	71.0	81.0	60.0	20.0	951.71	10.0	-23.0	-58.0	-995.0
1634976227.625505	-1.0	3.0	0.0	0.0	0.0	0.0	68.0	71.0	81.0	60.0	20.0	951.72	10.0	-4.0	-71.0	-994.0
1634976227.72582	-1.0	2.0	0.0	0.0	0.0	0.0	68.0	71.0	81.0	60.0	19.0	951.67	10.0	-31.0	-39.0	-995.0
1634976227.827729	-1.0	2.0	0.0	0.0	0.0	0.0	68.0	71.0	81.0	60.0	19.0	951.77	10.0	-33.0	-62.0	-992.0
1634976227.930466	-2.0	2.0	0.0	0.0	0.0	0.0	68.0	71.0	81.0	60.0	19.0	951.69	10.0	-10.0	-69.0	-997.0
1634976228.032218	-2.0	2.0	0.0	0.0	0.0	0.0	68.0	71.0	80.0	60.0	19.0	951.73	10.0	-18.0	-63.0	-982.0
1634976228.13384	-1.0	3.0	0.0	0.0	0.0	0.0	67.0	71.0	80.0	60.0	19.0	951.7	10.0	-36.0	-38.0	-988.0
1634976228.232302	-1.0	3.0	0.0	0.0	0.0	0.0	67.0	71.0	80.0	60.0	19.0	951.79	10.0	-24.0	-44.0	-996.0
1634976228.331986	-1.0	2.0	0.0	0.0	0.0	0.0	67.0	71.0	79.0	60.0	19.0	951.78	11.0	14.0	-80.0	-999.0
1634976228.437253	-1.0	2.0	0.0	0.0	0.0	0.0	67.0	71.0	78.0	60.0	19.0	951.65	11.0	-20.0	-52.0	-990.0
1634976228.535462	-1.0	3.0	0.0	0.0	0.0	0.0	67.0	71.0	77.0	60.0	19.0	951.65	11.0	-30.0	-60.0	-1015.0
1634976228.62963	0.0	3.0	0.0	0.0	0.0	0.0	67.0	71.0	77.0	60.0	19.0	951.62	11.0	-36.0	-47.0	-997.0
1634976228.744774	-1.0	3.0	0.0	0.0	0.0	0.0	67.0	71.0	77.0	60.0	19.0	951.66	11.0	-47.0	-41.0	-993.0
1634976228.836623	-2.0	2.0	0.0	0.0	0.0	0.0	67.0	71.0	77.0	60.0	19.0	951.57	11.0	-26.0	-58.0	-1002.0
1634976228.948293	-2.0	2.0	0.0	0.0	0.0	0.0	67.0	71.0	77.0	60.0	19.0	951.68	11.0	-16.0	-59.0	-984.0
1634976229.045559	-2.0	2.0	0.0	0.0	0.0	0.0	67.0	71.0	77.0	60.0	19.0	951.7	11.0	-33.0	-51.0	-1005.0
1634976229.143305	-2.0	2.0	0.0	0.0	0.0	0.0	68.0	71.0	77.0	60.0	19.0	951.68	11.0	-33.0	-51.0	-1004.0
1634976229.255376	-1.0	3.0	0.0	0.0	0.0	0.0	68.0	71.0	77.0	60.0	19.0	951.72	11.0	-19.0	-53.0	-993.0
1634976229.351332	-1.0	3.0	0.0	0.0	0.0	0.0	68.0	71.0	76.0	60.0	19.0	951.73	12.0	-29.0	-50.0	-988.0
1634976229.449737	-1.0	3.0	0.0	0.0	0.0	0.0	68.0	71.0	76.0	60.0	19.0	951.78	12.0	-1.0	-76.0	-998.0
1634976229.557245	-1.0	3.0	0.0	0.0	0.0	0.0	68.0	71.0	76.0	60.0	19.0	951.82	12.0	0.0	-65.0	-987.0
1634976229.650168	-1.0	3.0	0.0	0.0	0.0	0.0	68.0	71.0	76.0	60.0	19.0	951.8	12.0	-27.0	-52.0	-1015.0
1634976229.71452	-1.0	3.0	0.0	0.0	0.0	0.0	68.0	71.0	76.0	60.0	18.0	951.69	12.0	-38.0	-38.0	-1010.0
1634976229.811816	-1.0	3.0	0.0	0.0	0.0	0.0	68.0	71.0	75.0	60.0	18.0	951.73	12.0	-10.0	-46.0	-1000.0
1634976229.905543	-1.0	2.0	0.0	0.0	0.0	0.0	68.0	71.0	75.0	60.0	18.0	951.7	12.0	-32.0	-49.0	-1017.0
1634976230.020295	-1.0	2.0	0.0	0.0	0.0	0.0	68.0	71.0	76.0	60.0	18.0	951.73	12.0	-20.0	-54.0	-1029.0
1634976230.122778	-1.0	2.0	0.0	0.0	0.0	0.0	67.0	71.0	75.0	60.0	18.0	951.68	12.0	-6.0	-46.0	-1000.0
1634976230.220431	-1.0	2.0	0.0	0.0	0.0	0.0	67.0	71.0	75.0	60.0	18.0	951.68	12.0	-30.0	-33.0	-1013.0
1634976230.313738	0.0	2.0	0.0	0.0	0.0	0.0	67.0	71.0	75.0	60.0	18.0	951.68	13.0	-30.0	-41.0	-989.0
1634976230.424231	-1.0	2.0	0.0	0.0	0.0	0.0	67.0	71.0	75.0	60.0	18.0	951.64	13.0	-24.0	-51.0	-993.0
1634976230.51927	-1.0	2.0	0.0	0.0	0.0	0.0	67.0	71.0	75.0	60.0	18.0	951.7	13.0	-36.0	-37.0	-1003.0
1634976230.632503	-1.0	2.0	0.0	0.0	0.0	0.0	67.0	71.0	76.0	60.0	18.0	951.72	13.0	-28.0	-44.0	-1007.0
1634976230.729714	-2.0	2.0	0.0	0.0	0.0	0.0	67.0	71.0	75.0	60.0	18.0	951.79	13.0	-27.0	-52.0	-1005.0
1634976230.824649	-2.0	2.0	0.0	0.0	0.0	0.0	67.0	71.0	76.0	60.0	18.0	951.73	13.0	-29.0	-28.0	-985.0
1634976230.924027	-2.0	2.0	0.0	0.0	0.0	0.0	67.0	71.0	77.0	60.0	18.0	951.74	13.0	2.0	-43.0	-974.0
1634976231.040536	-2.0	2.0	0.0	0.0	0.0	0.0	67.0	71.0	77.0	60.0	18.0	951.73	13.0	-27.0	-25.0	-991.0
1634976231.142388	-1.0	2.0	0.0	0.0	0.0	0.0	67.0	71.0	76.0	60.0	18.0	951.73	13.0	-6.0	-54.0	-1012.0
1634976231.244037	-1.0	2.0	0.0	0.0	0.0	0.0	67.0	71.0	77.0	60.0	18.0	951.75	13.0	-19.0	-38.0	-1014.0
1634976231.346182	0.0	2.0	0.0	0.0	0.0	0.0	67.0	71.0	77.0	60.0	18.0	951.83	14.0	-8.0	-46.0	-1010.0
1634976231.443598	0.0	2.0	0.0	0.0	0.0	0.0	67.0	71.0	77.0	60.0	18.0	951.71	14.0	-3.0	-55.0	-1001.0
1634976231.544757	0.0	2.0	0.0	0.0	0.0	0.0	67.0	71.0	78.0	60.0	18.0	951.71	14.0	4.0	-64.0	-1030.0
1634976231.649514	-1.0	3.0	0.0	0.0	0.0	0.0	67.0	71.0	78.0	60.0	18.0	951.78	14.0	-9.0	-57.0	-973.0
1634976231.751029	-1.0	3.0	0.0	0.0	0.0	0.0	67.0	71.0	79.0	60.0	17.0	951.81	14.0	4.0	-54.0	-986.0
1634976231.856067	0.0	2.0	0.0	0.0	0.0	0.0	67.0	71.0	79.0	60.0	17.0	951.77	14.0	-29.0	-43.0	-995.0
1634976231.9573	0.0	2.0	0.0	0.0	0.0	0.0	67.0	71.0	79.0	60.0	17.0	951.75	14.0	-22.0	-41.0	-990.0
1634976232.055401	0.0	2.0	0.0	0.0	0.0	0.0	67.0	71.0	79.0	60.0	17.0	951.84	14.0	10.0	-52.0	-995.0
1634976232.16165	0.0	2.0	0.0	0.0	0.0	0.0	67.0	69.0	79.0	60.0	17.0	951.78	14.0	7.0	-60.0	-975.0
1634976232.260738	0.0	3.0	0.0	0.0	0.0	0.0	67.0	69.0	78.0	60.0	17.0	951.81	14.0	-3.0	-55.0	-1030.0
1634976232.366652	0.0	2.0	0.0	0.0	0.0	0.0	67.0	69.0	79.0	60.0	17.0	951.81	15.0	0.0	-56.0	-990.0
1634976232.453502	0.0	3.0	0.0	0.0	0.0	0.0	67.0	69.0	79.0	60.0	17.0	951.83	15.0	8.0	-61.0	-987.0
1634976232.558396	0.0	2.0	0.0	0.0	0.0	0.0	67.0	69.0	78.0	60.0	17.0	951.75	15.0	-10.0	-56.0	-990.0
1634976232.671986	0.0	2.0	0.0	0.0	0.0	0.0	67.0	69.0	79.0	60.0	17.0	951.79	15.0	-21.0	-43.0	-992.0
1634976232.771046	0.0	2.0	0.0	0.0	0.0	0.0	67.0	69.0	78.0	60.0	17.0	951.76	15.0	-1.0	-47.0	-994.0
1634976232.811395	0.0	2.0	0.0	0.0	0.0	0.0	67.0	69.0	79.0	60.0	17.0	951.81	15.0	-21.0	-35.0	-1036.0
1634976232.926872	0.0	2.0	0.0	0.0	0.0	0.0	67.0	69.0	78.0	60.0	17.0	951.84	15.0	1.0	-45.0	-1010.0
1634976233.020543	-1.0	2.0	0.0	0.0	0.0	0.0	67.0	69.0	79.0	60.0	17.0	951.81	15.0	-12.0	-44.0	-983.0
1634976233.131607	-1.0	2.0	0.0	0.0	0.0	0.0	66.0	70.0	78.0	60.0	17.0	951.7	15.0	-8.0	-42.0	-1005.0
1634976233.231318	0.0	2.0	0.0	0.0	0.0	0.0	66.0	70.0	78.0	60.0	17.0	951.73	15.0	2.0	-49.0	-991.0
1634976233.33939	0.0	2.0	0.0	0.0	0.0	0.0	66.0	70.0	78.0	60.0	17.0	951.73	16.0	-18.0	-45.0	-991.0
1634976233.428276	0.0	2.0	0.0	0.0	0.0	0.0	66.0	70.0	77.0	60.0	17.0	951.78	16.0	-22.0	-48.0	-1004.0
1634976233.526631	0.0	3.0	0.0	0.0	0.0	0.0	66.0	70.0	77.0	60.0	17.0	951.73	16.0	-19.0	-39.0	-988.0
1634976233.632032	-1.0	2.0	0.0	0.0	0.0	0.0	66.0	70.0	78.0	60.0	17.0	951.73	16.0	-20.0	-39.0	-948.0
1634976233.743477	-1.0	2.0	0.0	0.0	0.0	0.0	66.0	70.0	77.0	60.0	16.0	951.72	16.0	-29.0	-45.0	-934.0
1634976233.839115	-2.0	2.0	0.0	0.0	0.0	1.0	66.0	70.0	77.0	60.0	16.0	951.79	16.0	-10.0	-54.0	-924.0
1634976233.932843	-2.0	2.0	0.0	0.0	0.0	1.0	66.0	70.0	75.0	60.0	16.0	951.74	16.0	-30.0	-41.0	-923.0
1634976234.046009	-2.0	2.0	0.0	0.0	0.0	2.0	66.0	70.0	72.0	60.0	16.0	951.59	16.0	-16.0	-55.0	-921.0
1634976234.151543	-1.0	2.0	0.0	0.0	0.0	3.0	67.0	69.0	68.0	50.0	16.0	951.68	16.0	-23.0	-40.0	-935.0
1634976234.24467	-1.0	2.0	0.0	0.0	0.0	3.0	67.0	69.0	65.0	50.0	16.0	951.62	16.0	-22.0	-34.0	-954.0
1634976234.351164	-1.0	2.0	0.0	0.0	0.0	4.0	67.0	69.0	61.0	50.0	16.0	951.59	17.0	7.0	-59.0	-986.0
1634976234.444893	-1.0	2.0	0.0	0.0	0.0	4.0	67.0	69.0	56.0	40.0	16.0	951.57	17.0	-17.0	-37.0	-973.0
1634976234.554242	-1.0	2.0	0.0	0.0	0.0	4.0	67.0	69.0	51.0	40.0	16.0	951.53	17.0	-50.0	-37.0	-994.0
1634976234.64967	-1.0	2.0	0.0	0.0	0.0	4.0	67.0	69.0	47.0	40.0	16.0	951.39	17.0	-12.0	-47.0	-999.0
1634976234.74927	-1.0	2.0	0.0	0.0	0.0	4.0	67.0	69.0	42.0	30.0	16.0	951.43	17.0	-28.0	-40.0	-993.0
1634976234.862488	-1.0	2.0	0.0	0.0	0.0	4.0	67.0	69.0	39.0	30.0	16.0	951.35	17.0	6.0	-67.0	-991.0
1634976234.969573	-1.0	2.0	0.0	0.0	0.0	4.0	67.0	69.0	33.0	20.0	16.0	951.32	17.0	-32.0	-44.0	-991.0
1634976235.068414	-1.0	2.0	0.0	0.0	0.0	4.0	67.0	69.0	28.0	20.0	16.0	951.2	17.0	-40.0	-50.0	-970.0
1634976235.170301	-2.0	2.0	0.0	0.0	0.0	4.0	67.0	69.0	24.0	10.0	16.0	951.15	17.0	-37.0	-53.0	-985.0
1634976235.272383	-2.0	3.0	0.0	0.0	0.0	4.0	67.0	69.0	18.0	0.0	16.0	950.99	18.0	-39.0	-56.0	-1018.0
1634976235.375111	-2.0	3.0	0.0	0.0	0.0	4.0	67.0	69.0	11.0	0.0	16.0	950.24	18.0	-29.0	-55.0	-1019.0
1634976235.475406	-2.0	3.0	0.0	0.0	0.0	3.0	67.0	69.0	10.0	0.0	16.0	949.64	18.0	-30.0	-61.0	-1061.0
1634976235.579288	3.0	-2.0	0.0	0.0	0.0	3.0	67.0	69.0	10.0	0.0	16.0	947.87	18.0	-7.0	-37.0	-1101.0
1634976235.681266	9.0	-8.0	-1.0	-1.0	-1.0	0.0	67.0	69.0	10.0	0.0	16.0	949.6	18.0	3.0	-31.0	-885.0
1634976235.773449	3.0	-10.0	0.0	0.0	0.0	0.0	67.0	69.0	10.0	0.0	15.0	949.96	18.0	1406.0	797.0	-1900.0
1634976235.876812	0.0	-5.0	0.0	0.0	0.0	0.0	67.0	69.0	10.0	0.0	15.0	950.38	18.0	28.0	85.0	-1122.0
1634976235.972069	-1.0	-6.0	0.0	0.0	0.0	0.0	67.0	69.0	10.0	0.0	15.0	950.66	18.0	36.0	269.0	-1174.0
1634976236.076278	-1.0	-5.0	0.0	1.0	0.0	0.0	67.0	69.0	10.0	0.0	15.0	950.77	18.0	-43.0	113.0	-1017.0
1634976236.190152	-2.0	-5.0	0.0	1.0	0.0	0.0	66.0	69.0	10.0	0.0	15.0	950.83	18.0	14.0	85.0	-989.0
1634976236.289359	-2.0	-5.0	0.0	1.0	0.0	0.0	66.0	69.0	10.0	0.0	15.0	950.77	18.0	-38.0	104.0	-992.0
1634976236.390541	-2.0	-5.0	0.0	1.0	0.0	0.0	66.0	69.0	10.0	0.0	15.0	950.88	18.0	-11.0	102.0	-972.0
1634976236.496032	-2.0	-5.0	0.0	1.0	0.0	0.0	66.0	69.0	10.0	0.0	15.0	950.85	18.0	-31.0	108.0	-999.0
1634976236.547813	-2.0	-5.0	0.0	1.0	0.0	0.0	66.0	69.0	10.0	0.0	15.0	950.85	18.0	-29.0	100.0	-984.0
1634976236.644054	-2.0	-5.0	0.0	1.0	0.0	0.0	66.0	69.0	10.0	0.0	15.0	950.9	18.0	-28.0	109.0	-985.0
1634976236.736999	-2.0	-5.0	0.0	1.0	0.0	0.0	66.0	69.0	10.0	0.0	15.0	950.88	18.0	-32.0	105.0	-997.0
1634976236.853493	-2.0	-5.0	0.0	1.0	0.0	0.0	66.0	69.0	10.0	0.0	15.0	950.85	18.0	-27.0	105.0	-993.0
1634976236.955595	-2.0	-5.0	0.0	1.0	0.0	0.0	66.0	69.0	10.0	0.0	15.0	950.87	18.0	-30.0	104.0	-996.0
1634976237.058526	-2.0	-5.0	0.0	1.0	0.0	-1.0	66.0	69.0	10.0	0.0	15.0	950.9	18.0	-31.0	107.0	-994.0
1634976237.160407	-2.0	-5.0	0.0	1.0	0.0	-1.0	66.0	69.0	10.0	0.0	15.0	950.89	18.0	-29.0	105.0	-997.0
1634976237.208658	-2.0	-5.0	0.0	1.0	0.0	-1.0	66.0	69.0	10.0	0.0	15.0	950.89	18.0	-29.0	105.0	-997.0
1634976237.260764	-2.0	-5.0	0.0	1.0	0.0	-1.0	66.0	69.0	10.0	0.0	15.0	950.92	18.0	-30.0	105.0	-997.0
1634976237.363767	-2.0	-5.0	0.0	0.0	0.0	0.0	66.0	69.0	10.0	0.0	15.0	950.86	18.0	-30.0	103.0	-997.0
1634976237.466153	-2.0	-5.0	0.0	0.0	0.0	0.0	66.0	69.0	10.0	0.0	15.0	950.9	18.0	-29.0	106.0	-995.0
1634976237.567904	-2.0	-5.0	0.0	0.0	0.0	0.0	66.0	69.0	10.0	0.0	15.0	950.89	18.0	-32.0	106.0	-998.0
1634976237.65949	-1.0	-5.0	0.0	0.0	0.0	0.0	66.0	69.0	10.0	0.0	15.0	950.86	18.0	-27.0	103.0	-997.0
1634976237.757469	-1.0	-5.0	0.0	0.0	0.0	0.0	66.0	69.0	10.0	0.0	14.0	950.89	18.0	-29.0	104.0	-997.0
1634976237.86964	-1.0	-5.0	0.0	0.0	0.0	0.0	66.0	69.0	10.0	0.0	14.0	950.91	18.0	-29.0	103.0	-998.0
1634976237.976252	-1.0	-5.0	0.0	0.0	0.0	0.0	66.0	69.0	10.0	0.0	14.0	950.94	18.0	-26.0	105.0	-997.0
1634976238.078134	-1.0	-5.0	0.0	0.0	0.0	0.0	66.0	69.0	10.0	0.0	14.0	950.86	18.0	-29.0	105.0	-998.0
1634976238.180148	-1.0	-5.0	0.0	0.0	0.0	0.0	65.0	69.0	10.0	0.0	14.0	950.84	18.0	-30.0	104.0	-998.0
1634976238.271648	-1.0	-5.0	0.0	0.0	0.0	0.0	65.0	69.0	10.0	0.0	14.0	950.86	18.0	-28.0	103.0	-996.0
1634976238.381661	-1.0	-5.0	0.0	0.0	0.0	0.0	65.0	69.0	10.0	0.0	14.0	950.9	18.0	-29.0	105.0	-998.0
1634976238.485932	-1.0	-5.0	0.0	0.0	0.0	0.0	65.0	69.0	10.0	0.0	14.0	950.9	18.0	-29.0	103.0	-1000.0
1634976238.5874	-1.0	-5.0	0.0	0.0	0.0	0.0	65.0	69.0	10.0	0.0	14.0	950.89	18.0	-28.0	105.0	-997.0
1634976238.680986	-1.0	-5.0	0.0	0.0	0.0	0.0	65.0	69.0	10.0	0.0	14.0	950.88	18.0	-28.0	104.0	-999.0
1634976238.791474	-1.0	-5.0	0.0	0.0	0.0	0.0	65.0	69.0	10.0	0.0	14.0	950.91	18.0	-28.0	104.0	-1001.0
1634976238.893976	-1.0	-5.0	0.0	0.0	0.0	0.0	65.0	69.0	10.0	0.0	14.0	950.93	18.0	-30.0	105.0	-1001.0
1634976238.995665	-1.0	-5.0	0.0	0.0	0.0	0.0	65.0	69.0	10.0	0.0	14.0	950.84	18.0	-29.0	106.0	-1000.0
1634976239.098102	-1.0	-5.0	0.0	0.0	0.0	0.0	65.0	69.0	10.0	0.0	14.0	950.9	18.0	-29.0	104.0	-1000.0
1634976239.197747	-1.0	-5.0	0.0	0.0	0.0	0.0	66.0	69.0	10.0	0.0	14.0	950.85	18.0	-29.0	105.0	-997.0
1634976239.299356	-1.0	-5.0	0.0	0.0	0.0	0.0	66.0	69.0	10.0	0.0	14.0	950.98	18.0	-29.0	104.0	-999.0
1634976239.403437	-1.0	-5.0	0.0	0.0	0.0	0.0	66.0	69.0	10.0	0.0	14.0	950.94	18.0	-32.0	106.0	-999.0
1634976239.506084	-1.0	-5.0	0.0	0.0	0.0	0.0	66.0	69.0	10.0	0.0	14.0	950.87	18.0	-26.0	103.0	-997.0
1634976239.608057	-1.0	-5.0	0.0	0.0	0.0	0.0	66.0	69.0	10.0	0.0	14.0	950.89	18.0	-33.0	103.0	-1006.0
1634976239.710461	-1.0	-5.0	0.0	0.0	0.0	0.0	66.0	69.0	10.0	0.0	14.0	950.87	18.0	-27.0	106.0	-998.0
1634976239.812019	-1.0	-5.0	0.0	0.0	0.0	0.0	66.0	69.0	10.0	0.0	13.0	950.89	18.0	-25.0	106.0	-992.0
1634976239.86585	-1.0	-5.0	0.0	0.0	0.0	0.0	66.0	69.0	10.0	0.0	13.0	950.88	18.0	-36.0	103.0	-1007.0
1634976239.958162	-1.0	-5.0	0.0	0.0	0.0	0.0	66.0	69.0	10.0	0.0	13.0	950.81	18.0	-23.0	105.0	-992.0
