timestamp	pitch	roll	yaw	vgx	vgy	vgz	templ	temph	tof	h	bat	baro	time	agx	agy	agz
1634986510.575927
1634986510.685278	0.0	-1.0	8.0	0.0	0.0	0.0	77.0	79.0	10.0	0.0	90.0	970.23	14.0	-12.0	20.0	-998.0
1634986510.791675	0.0	-1.0	8.0	0.0	0.0	0.0	77.0	79.0	10.0	0.0	90.0	970.22	14.0	-15.0	21.0	-1001.0
1634986510.894286	0.0	-1.0	8.0	0.0	0.0	0.0	77.0	79.0	10.0	0.0	90.0	970.17	14.0	-14.0	19.0	-998.0
1634986510.992258	0.0	-1.0	8.0	0.0	0.0	0.0	77.0	79.0	10.0	0.0	90.0	970.18	14.0	-14.0	21.0	-1001.0
1634986511.091457	0.0	-1.0	8.0	0.0	0.0	0.0	77.0	79.0	10.0	0.0	90.0	970.14	14.0	-12.0	20.0	-999.0
1634986511.138324	0.0	-1.0	8.0	0.0	0.0	0.0	77.0	79.0	10.0	0.0	90.0	970.14	14.0	-16.0	20.0	-1000.0
1634986511.24487	0.0	-1.0	8.0	0.0	0.0	0.0	77.0	79.0	10.0	0.0	90.0	970.13	14.0	-15.0	20.0	-999.0
1634986511.353211	0.0	-1.0	8.0	0.0	0.0	0.0	77.0	79.0	10.0	0.0	90.0	970.21	14.0	-14.0	20.0	-999.0
1634986511.455361	0.0	-1.0	8.0	0.0	0.0	0.0	77.0	79.0	10.0	0.0	90.0	970.22	14.0	-14.0	23.0	-1000.0
1634986511.557077	0.0	-1.0	8.0	0.0	0.0	0.0	77.0	79.0	10.0	0.0	90.0	970.17	14.0	-16.0	20.0	-999.0
1634986511.644035	0.0	-1.0	8.0	0.0	0.0	0.0	77.0	79.0	10.0	0.0	90.0	970.18	14.0	-14.0	21.0	-997.0
1634986511.751662	0.0	-1.0	8.0	0.0	0.0	0.0	77.0	79.0	10.0	0.0	90.0	970.16	14.0	-15.0	19.0	-1000.0
1634986511.850827	0.0	-1.0	8.0	0.0	0.0	0.0	77.0	79.0	10.0	0.0	90.0	970.19	14.0	-16.0	20.0	-1000.0
1634986511.956524	0.0	-1.0	8.0	0.0	0.0	0.0	77.0	79.0	10.0	0.0	90.0	970.2	14.0	-15.0	20.0	-1001.0
1634986512.053646	0.0	-1.0	8.0	0.0	0.0	0.0	77.0	79.0	10.0	0.0	90.0	970.21	14.0	-14.0	17.0	-999.0
1634986512.162994	0.0	-1.0	8.0	0.0	0.0	0.0	77.0	79.0	10.0	0.0	90.0	970.2	14.0	-15.0	18.0	-999.0
1634986512.265366	0.0	-1.0	8.0	0.0	0.0	0.0	77.0	79.0	10.0	0.0	90.0	970.22	14.0	-14.0	21.0	-998.0
1634986512.359095	0.0	-1.0	8.0	0.0	0.0	0.0	77.0	79.0	10.0	0.0	90.0	970.25	14.0	-15.0	19.0	-999.0
1634986512.470654	0.0	-1.0	8.0	0.0	0.0	0.0	77.0	79.0	10.0	0.0	90.0	970.18	14.0	-15.0	20.0	-999.0
1634986512.561721	0.0	-1.0	8.0	0.0	0.0	0.0	77.0	79.0	10.0	0.0	90.0	970.22	14.0	-16.0	20.0	-1001.0
1634986512.671069	0.0	-1.0	8.0	0.0	0.0	0.0	77.0	79.0	10.0	0.0	90.0	970.21	14.0	-14.0	18.0	-1003.0
1634986512.78069	0.0	-1.0	8.0	0.0	0.0	0.0	77.0	79.0	10.0	0.0	90.0	970.21	14.0	-16.0	20.0	-1001.0
1634986512.872228	0.0	-1.0	8.0	0.0	0.0	0.0	77.0	79.0	10.0	0.0	90.0	970.24	14.0	-15.0	20.0	-1001.0
1634986512.984883	0.0	-1.0	8.0	0.0	0.0	0.0	77.0	79.0	10.0	0.0	90.0	970.25	14.0	-14.0	22.0	-998.0
1634986513.074159	0.0	-1.0	8.0	0.0	0.0	0.0	77.0	79.0	10.0	0.0	90.0	970.2	14.0	-15.0	21.0	-1001.0
1634986513.18532	0.0	-1.0	8.0	0.0	0.0	0.0	77.0	79.0	10.0	0.0	90.0	970.2	14.0	-15.0	20.0	-1003.0
1634986513.280258	0.0	-1.0	8.0	0.0	0.0	0.0	77.0	79.0	10.0	0.0	90.0	970.19	14.0	-14.0	22.0	-1001.0
1634986513.381554	0.0	-1.0	8.0	0.0	0.0	0.0	77.0	79.0	10.0	0.0	90.0	970.16	14.0	-15.0	23.0	-1000.0
1634986513.494484	0.0	-1.0	8.0	0.0	0.0	0.0	77.0	79.0	10.0	0.0	90.0	970.2	14.0	-15.0	22.0	-1000.0
1634986513.589443	0.0	-1.0	8.0	0.0	0.0	0.0	76.0	79.0	10.0	0.0	90.0	970.16	14.0	-15.0	22.0	-1001.0
1634986513.694201	0.0	-1.0	8.0	0.0	0.0	0.0	76.0	79.0	10.0	0.0	90.0	970.16	14.0	-14.0	19.0	-1000.0
1634986513.73527	0.0	-1.0	8.0	0.0	0.0	0.0	76.0	79.0	10.0	0.0	90.0	970.15	14.0	-15.0	21.0	-999.0
1634986513.851985	0.0	-1.0	8.0	0.0	0.0	0.0	76.0	79.0	10.0	0.0	90.0	970.19	14.0	-16.0	20.0	-1000.0
1634986513.951561	0.0	-1.0	8.0	0.0	0.0	0.0	76.0	79.0	10.0	0.0	90.0	970.21	14.0	-16.0	21.0	-997.0
1634986514.130504	0.0	-1.0	8.0	0.0	0.0	0.0	76.0	79.0	10.0	0.0	90.0	970.21	14.0	-15.0	20.0	-999.0
1634986514.160713	0.0	-1.0	8.0	0.0	0.0	0.0	76.0	79.0	10.0	0.0	90.0	970.19	14.0	-18.0	19.0	-1013.0
1634986514.306412	0.0	-1.0	8.0	0.0	0.0	0.0	76.0	79.0	10.0	0.0	90.0	970.19	15.0	0.0	16.0	-1005.0
1634986514.415763	0.0	-1.0	8.0	0.0	0.0	0.0	76.0	79.0	10.0	0.0	90.0	970.19	15.0	-6.0	19.0	-989.0
1634986514.4648	0.0	-1.0	8.0	0.0	0.0	0.0	76.0	79.0	10.0	0.0	90.0	970.19	15.0	-5.0	-2.0	-1037.0
1634986514.55219	0.0	-1.0	8.0	0.0	0.0	0.0	76.0	80.0	10.0	0.0	90.0	970.19	15.0	-8.0	-7.0	-1002.0
1634986514.693409	0.0	0.0	8.0	0.0	0.0	0.0	76.0	80.0	10.0	0.0	90.0	970.19	15.0	-10.0	0.0	-1084.0
1634986514.75594	0.0	-1.0	8.0	0.0	0.0	0.0	76.0	80.0	10.0	0.0	90.0	970.19	15.0	-48.0	1.0	-1216.0
1634986514.892313	0.0	0.0	8.0	0.0	0.0	-2.0	76.0	80.0	11.0	0.0	90.0	970.19	15.0	-42.0	-20.0	-1407.0
1634986515.023379	0.0	0.0	8.0	0.0	0.0	-5.0	76.0	80.0	14.0	0.0	90.0	970.29	15.0	-78.0	-5.0	-1127.0
1634986515.070245	-2.0	0.0	8.0	-1.0	0.0	-7.0	76.0	80.0	23.0	0.0	90.0	970.51	15.0	-77.0	1.0	-1053.0
1634986515.191497	-3.0	0.0	8.0	-1.0	0.0	-8.0	76.0	80.0	34.0	10.0	90.0	970.58	15.0	-76.0	-8.0	-1021.0
1634986515.336136	-4.0	0.0	8.0	-1.0	0.0	-8.0	76.0	80.0	44.0	10.0	90.0	970.71	16.0	-50.0	4.0	-958.0
1634986515.367489	-5.0	0.0	8.0	-1.0	0.0	-7.0	76.0	80.0	51.0	20.0	90.0	970.73	16.0	-56.0	-5.0	-911.0
1634986515.506968	-5.0	0.0	8.0	-1.0	0.0	-7.0	76.0	80.0	58.0	30.0	90.0	970.83	16.0	-68.0	-10.0	-884.0
1634986515.650453	-5.0	0.0	8.0	0.0	0.0	-5.0	77.0	80.0	65.0	30.0	90.0	970.86	16.0	-70.0	0.0	-861.0
1634986515.683068	-4.0	0.0	8.0	0.0	0.0	-4.0	77.0	80.0	70.0	40.0	90.0	970.92	16.0	-74.0	3.0	-861.0
1634986515.80247	-5.0	0.0	8.0	0.0	0.0	-3.0	77.0	80.0	76.0	40.0	90.0	970.95	16.0	-75.0	0.0	-875.0
1634986515.952506	-5.0	0.0	8.0	0.0	0.0	-2.0	77.0	80.0	79.0	40.0	90.0	970.96	16.0	-77.0	2.0	-901.0
1634986515.985319	-5.0	0.0	8.0	0.0	0.0	-1.0	77.0	80.0	82.0	50.0	90.0	971.0	16.0	-85.0	4.0	-912.0
1634986516.109674	-5.0	0.0	8.0	0.0	0.0	0.0	77.0	80.0	83.0	50.0	90.0	970.96	16.0	-80.0	3.0	-937.0
1634986516.255301	-5.0	0.0	8.0	0.0	0.0	0.0	77.0	80.0	85.0	50.0	90.0	970.92	16.0	-71.0	8.0	-968.0
1634986516.255301	-5.0	0.0	8.0	0.0	0.0	0.0	77.0	80.0	85.0	50.0	90.0	971.02	17.0	-95.0	20.0	-962.0
1634986516.425447	-5.0	0.0	8.0	0.0	0.0	0.0	77.0	80.0	87.0	50.0	90.0	971.02	17.0	-98.0	12.0	-1000.0
1634986516.442641	-5.0	0.0	8.0	0.0	0.0	0.0	77.0	80.0	87.0	50.0	90.0	971.15	17.0	-115.0	29.0	-1001.0
1634986516.568085	-5.0	0.0	8.0	0.0	0.0	0.0	77.0	81.0	87.0	50.0	90.0	971.04	17.0	-108.0	21.0	-986.0
1634986516.735493	-5.0	0.0	8.0	0.0	0.0	0.0	77.0	81.0	88.0	50.0	90.0	971.08	17.0	-114.0	24.0	-1006.0
1634986516.753956	-5.0	-1.0	8.0	0.0	0.0	0.0	77.0	81.0	88.0	50.0	90.0	970.97	17.0	-92.0	-33.0	-1009.0
1634986516.879297	-6.0	0.0	8.0	0.0	0.0	0.0	77.0	81.0	89.0	50.0	90.0	970.91	17.0	-118.0	-14.0	-997.0
1634986517.016723	-5.0	0.0	8.0	0.0	0.0	0.0	77.0	81.0	89.0	50.0	90.0	970.98	17.0	-97.0	-14.0	-966.0
1634986517.161046	-6.0	0.0	8.0	0.0	0.0	0.0	77.0	81.0	88.0	60.0	90.0	970.96	17.0	-107.0	-12.0	-982.0
1634986517.171906	-6.0	1.0	8.0	0.0	0.0	0.0	77.0	81.0	89.0	60.0	90.0	971.0	17.0	-104.0	-17.0	-980.0
1634986517.338663	-6.0	0.0	8.0	0.0	0.0	0.0	77.0	81.0	89.0	60.0	90.0	970.84	18.0	-93.0	-43.0	-966.0
1634986517.371762	-6.0	1.0	8.0	0.0	0.0	0.0	77.0	81.0	87.0	60.0	90.0	970.83	18.0	-128.0	-14.0	-1020.0
1634986517.493427	-6.0	1.0	8.0	0.0	0.0	0.0	77.0	81.0	86.0	60.0	90.0	970.83	18.0	-135.0	0.0	-997.0
1634986517.645196	-6.0	0.0	8.0	0.0	0.0	0.0	77.0	80.0	85.0	60.0	90.0	971.0	18.0	-103.0	-19.0	-963.0
1634986517.662719	-6.0	1.0	8.0	0.0	0.0	0.0	77.0	80.0	84.0	50.0	90.0	970.93	18.0	-101.0	-22.0	-986.0
1634986517.789131	-6.0	1.0	8.0	0.0	0.0	0.0	77.0	80.0	82.0	50.0	90.0	970.9	18.0	-133.0	-10.0	-1013.0
1634986517.957984	-6.0	1.0	8.0	0.0	0.0	0.0	77.0	80.0	80.0	50.0	90.0	970.92	18.0	-118.0	-43.0	-1019.0
1634986517.975151	-6.0	1.0	8.0	0.0	0.0	0.0	77.0	80.0	79.0	50.0	90.0	970.76	18.0	-110.0	-35.0	-1005.0
1634986518.107626	-6.0	2.0	8.0	0.0	0.0	0.0	77.0	80.0	77.0	50.0	90.0	970.89	18.0	-109.0	-39.0	-991.0
1634986518.173714	-6.0	2.0	8.0	0.0	0.0	0.0	77.0	80.0	76.0	50.0	90.0	970.98	18.0	-120.0	-28.0	-970.0
1634986518.285984	-6.0	1.0	8.0	0.0	0.0	0.0	77.0	80.0	74.0	50.0	90.0	970.88	19.0	-112.0	-45.0	-1007.0
1634986518.385361	-6.0	1.0	8.0	0.0	0.0	0.0	77.0	80.0	73.0	50.0	90.0	970.79	19.0	-116.0	-46.0	-1014.0
1634986518.479277	-6.0	2.0	8.0	0.0	0.0	0.0	77.0	80.0	72.0	50.0	90.0	970.85	19.0	-109.0	-39.0	-1084.0
1634986518.586309	-6.0	2.0	8.0	0.0	0.0	0.0	76.0	81.0	71.0	50.0	90.0	970.84	19.0	-121.0	-40.0	-1030.0
1634986518.687511	-6.0	2.0	8.0	0.0	0.0	0.0	76.0	81.0	69.0	50.0	90.0	970.65	19.0	-111.0	-40.0	-986.0
1634986518.739734	-6.0	2.0	8.0	0.0	0.0	0.0	76.0	81.0	69.0	40.0	90.0	970.59	19.0	-132.0	-23.0	-995.0
1634986518.851019	-6.0	2.0	8.0	0.0	0.0	0.0	76.0	81.0	68.0	40.0	90.0	970.51	19.0	-107.0	-43.0	-981.0
1634986518.95035	-7.0	2.0	8.0	0.0	0.0	0.0	76.0	81.0	67.0	40.0	90.0	970.64	19.0	-119.0	-21.0	-1022.0
1634986519.04575	-7.0	0.0	8.0	0.0	0.0	0.0	76.0	81.0	66.0	40.0	90.0	970.74	19.0	-135.0	-32.0	-1023.0
1634986519.150173	-7.0	0.0	8.0	0.0	0.0	0.0	76.0	81.0	65.0	40.0	90.0	970.68	19.0	-92.0	-22.0	-965.0
1634986519.259496	-7.0	1.0	8.0	0.0	0.0	0.0	76.0	81.0	64.0	40.0	90.0	970.64	20.0	-107.0	-33.0	-1074.0
1634986519.353241	-6.0	1.0	8.0	0.0	0.0	0.0	76.0	81.0	63.0	40.0	90.0	970.51	20.0	-81.0	-27.0	-1099.0
1634986519.464459	-5.0	1.0	8.0	0.0	0.0	0.0	76.0	81.0	64.0	40.0	90.0	970.54	20.0	-121.0	-23.0	-1149.0
1634986519.562855	-5.0	1.0	8.0	0.0	0.0	-2.0	76.0	80.0	65.0	40.0	90.0	970.61	20.0	-117.0	-2.0	-1147.0
1634986519.656586	-6.0	1.0	8.0	0.0	0.0	-3.0	76.0	80.0	67.0	40.0	90.0	970.56	20.0	-85.0	0.0	-971.0
1634986519.761271	-5.0	0.0	8.0	0.0	0.0	-3.0	76.0	80.0	67.0	50.0	90.0	970.71	20.0	-61.0	18.0	-901.0
1634986519.871922	-5.0	0.0	8.0	0.0	1.0	-2.0	76.0	80.0	68.0	50.0	90.0	970.77	20.0	-87.0	69.0	-927.0
1634986519.964159	-4.0	-1.0	8.0	0.0	1.0	0.0	76.0	80.0	67.0	50.0	90.0	970.69	20.0	-89.0	51.0	-966.0
1634986520.066757	-3.0	-3.0	8.0	0.0	1.0	0.0	76.0	80.0	66.0	40.0	90.0	970.7	20.0	-64.0	-7.0	-1026.0
1634986520.164989	-3.0	-3.0	8.0	0.0	1.0	0.0	76.0	80.0	64.0	40.0	90.0	970.65	20.0	-83.0	0.0	-1064.0
1634986520.275782	-2.0	-2.0	8.0	0.0	0.0	0.0	76.0	80.0	64.0	40.0	90.0	970.53	21.0	-85.0	5.0	-983.0
1634986520.370922	-3.0	-2.0	8.0	0.0	0.0	0.0	76.0	80.0	64.0	40.0	90.0	970.47	21.0	-82.0	23.0	-984.0
1634986520.483895	-3.0	-2.0	8.0	0.0	0.0	0.0	76.0	80.0	64.0	40.0	90.0	970.52	21.0	-93.0	8.0	-979.0
1634986520.572321	-4.0	-1.0	8.0	0.0	0.0	0.0	75.0	78.0	64.0	40.0	90.0	970.69	21.0	-85.0	8.0	-942.0
1634986520.683016	-4.0	-1.0	8.0	0.0	0.0	0.0	75.0	78.0	64.0	50.0	90.0	970.69	21.0	-92.0	19.0	-986.0
1634986520.77985	-4.0	-1.0	8.0	0.0	0.0	0.0	75.0	78.0	63.0	40.0	90.0	970.51	21.0	-88.0	-12.0	-1158.0
1634986520.877635	-4.0	0.0	8.0	0.0	0.0	0.0	75.0	78.0	65.0	50.0	90.0	970.31	21.0	-130.0	-18.0	-1267.0
1634986520.978463	-4.0	0.0	8.0	0.0	0.0	-3.0	75.0	78.0	69.0	50.0	90.0	970.46	21.0	-156.0	2.0	-1240.0
1634986521.092048	-5.0	0.0	8.0	0.0	0.0	-5.0	75.0	78.0	75.0	50.0	90.0	970.47	21.0	-123.0	-22.0	-1115.0
1634986521.182743	-6.0	0.0	8.0	0.0	0.0	-7.0	75.0	78.0	82.0	60.0	90.0	970.71	21.0	-124.0	11.0	-894.0
1634986521.248416	-7.0	0.0	8.0	0.0	0.0	-6.0	75.0	78.0	87.0	70.0	90.0	970.9	22.0	-66.0	-7.0	-847.0
1634986521.342166	-6.0	0.0	8.0	0.0	0.0	-4.0	75.0	78.0	89.0	70.0	90.0	970.85	22.0	-83.0	22.0	-890.0
1634986521.452662	-4.0	1.0	8.0	0.0	0.0	-3.0	75.0	78.0	91.0	70.0	90.0	970.74	22.0	-70.0	45.0	-910.0
1634986521.542413	-3.0	0.0	8.0	0.0	0.0	-2.0	77.0	79.0	93.0	80.0	90.0	970.9	22.0	-96.0	13.0	-934.0
1634986521.645157	-2.0	-2.0	8.0	0.0	0.0	-1.0	77.0	79.0	95.0	80.0	90.0	970.64	22.0	-114.0	-12.0	-951.0
1634986521.747344	-3.0	-1.0	8.0	0.0	0.0	0.0	77.0	79.0	96.0	80.0	90.0	970.74	22.0	-118.0	13.0	-976.0
1634986521.85668	-4.0	-1.0	8.0	0.0	0.0	0.0	77.0	79.0	96.0	80.0	90.0	970.73	22.0	-132.0	5.0	-981.0
1634986521.948311	-5.0	0.0	8.0	0.0	0.0	0.0	77.0	79.0	97.0	80.0	90.0	970.63	22.0	-85.0	-23.0	-985.0
1634986522.058016	-5.0	1.0	8.0	0.0	-1.0	0.0	77.0	79.0	98.0	80.0	90.0	970.76	22.0	-127.0	12.0	-966.0
1634986522.153248	-6.0	1.0	8.0	0.0	0.0	0.0	77.0	79.0	98.0	80.0	90.0	970.76	22.0	-141.0	31.0	-974.0
1634986522.262597	-6.0	0.0	8.0	0.0	0.0	0.0	77.0	79.0	99.0	80.0	90.0	970.97	23.0	-134.0	26.0	-989.0
1634986522.36557	-6.0	0.0	8.0	0.0	0.0	0.0	77.0	79.0	100.0	80.0	90.0	970.74	23.0	-124.0	11.0	-972.0
1634986522.472792	-7.0	-1.0	8.0	0.0	0.0	0.0	77.0	79.0	103.0	80.0	90.0	970.8	23.0	-134.0	17.0	-972.0
1634986522.572951	-12.0	-1.0	8.0	0.0	0.0	0.0	76.0	79.0	106.0	80.0	90.0	970.79	23.0	-137.0	-6.0	-993.0
1634986522.663263	-17.0	0.0	8.0	1.0	0.0	0.0	76.0	79.0	108.0	80.0	90.0	970.86	23.0	-159.0	-69.0	-998.0
1634986522.846332	-20.0	0.0	8.0	3.0	0.0	0.0	76.0	79.0	108.0	80.0	90.0	970.88	23.0	-100.0	-37.0	-963.0
1634986522.877757	-13.0	0.0	8.0	5.0	0.0	0.0	76.0	79.0	98.0	80.0	90.0	970.72	23.0	-199.0	-16.0	-1068.0
1634986522.968449	-4.0	0.0	8.0	5.0	0.0	0.0	76.0	79.0	97.0	80.0	90.0	970.71	23.0	-173.0	-10.0	-959.0
1634986523.0845	-5.0	1.0	8.0	4.0	0.0	0.0	76.0	79.0	99.0	80.0	90.0	970.76	23.0	-177.0	-1.0	-912.0
1634986523.180977	-6.0	0.0	8.0	3.0	0.0	0.0	76.0	79.0	102.0	80.0	90.0	970.85	23.0	-154.0	-23.0	-968.0
1634986523.288515	-6.0	0.0	8.0	2.0	0.0	0.0	76.0	79.0	102.0	80.0	90.0	970.67	24.0	-153.0	-10.0	-1098.0
1634986523.383489	-6.0	0.0	8.0	2.0	0.0	0.0	76.0	79.0	103.0	80.0	90.0	970.57	24.0	-124.0	-17.0	-1067.0
1634986523.492229	-6.0	0.0	8.0	2.0	0.0	0.0	76.0	79.0	103.0	80.0	90.0	970.8	24.0	-165.0	13.0	-995.0
1634986523.581823	-6.0	0.0	8.0	2.0	0.0	0.0	75.0	79.0	103.0	80.0	90.0	970.63	24.0	-152.0	-3.0	-1095.0
1634986523.693034	-6.0	0.0	8.0	2.0	0.0	0.0	75.0	79.0	102.0	80.0	90.0	970.78	24.0	-142.0	-12.0	-901.0
1634986523.786765	-6.0	0.0	8.0	2.0	0.0	0.0	75.0	79.0	102.0	80.0	90.0	970.64	24.0	-131.0	-10.0	-1024.0
1634986523.84567	-6.0	0.0	8.0	2.0	0.0	0.0	75.0	79.0	100.0	80.0	90.0	970.46	24.0	-95.0	0.0	-994.0
1634986523.942579	-6.0	1.0	8.0	2.0	0.0	0.0	75.0	79.0	100.0	80.0	90.0	970.74	24.0	-79.0	-38.0	-1006.0
1634986524.039545	-6.0	0.0	8.0	2.0	0.0	0.0	75.0	79.0	99.0	80.0	90.0	970.66	24.0	-116.0	-18.0	-979.0
1634986524.142062	-6.0	0.0	8.0	2.0	0.0	0.0	75.0	79.0	99.0	80.0	90.0	970.77	24.0	-107.0	-35.0	-979.0
1634986524.247393	-6.0	0.0	8.0	2.0	0.0	0.0	75.0	79.0	97.0	80.0	90.0	970.7	25.0	-106.0	-38.0	-1002.0
1634986524.358424	-6.0	0.0	8.0	3.0	0.0	0.0	75.0	79.0	98.0	80.0	90.0	970.69	25.0	-96.0	-25.0	-1005.0
1634986524.448803	-5.0	0.0	8.0	3.0	0.0	0.0	75.0	79.0	97.0	80.0	90.0	970.46	25.0	-128.0	-23.0	-1023.0
1634986524.563475	-5.0	1.0	8.0	3.0	0.0	0.0	75.0	78.0	98.0	80.0	90.0	970.66	25.0	-134.0	1.0	-1042.0
1634986524.652129	-5.0	0.0	8.0	3.0	0.0	0.0	75.0	78.0	98.0	80.0	90.0	970.74	25.0	-110.0	-58.0	-947.0
1634986524.761483	-6.0	0.0	8.0	3.0	0.0	0.0	75.0	78.0	97.0	80.0	90.0	970.69	25.0	-122.0	-25.0	-980.0
1634986524.855218	-6.0	0.0	8.0	3.0	0.0	0.0	75.0	78.0	97.0	80.0	90.0	970.5	25.0	-115.0	-17.0	-1023.0
1634986524.961945	-5.0	1.0	8.0	3.0	0.0	0.0	75.0	78.0	98.0	80.0	90.0	970.55	25.0	-108.0	1.0	-977.0
1634986525.072147	-5.0	1.0	8.0	3.0	0.0	0.0	75.0	78.0	97.0	80.0	90.0	970.66	25.0	-124.0	19.0	-993.0
1634986525.165877	-5.0	1.0	8.0	2.0	0.0	0.0	75.0	78.0	97.0	80.0	90.0	970.62	25.0	-107.0	-14.0	-979.0
1634986525.266491	-5.0	0.0	8.0	2.0	0.0	0.0	75.0	78.0	98.0	80.0	90.0	970.64	26.0	-112.0	-41.0	-998.0
1634986525.365339	-5.0	0.0	8.0	2.0	0.0	0.0	75.0	78.0	96.0	80.0	90.0	970.57	26.0	-133.0	-13.0	-1009.0
1634986525.481565	-5.0	1.0	8.0	2.0	0.0	0.0	75.0	78.0	96.0	80.0	90.0	970.58	26.0	-120.0	-24.0	-964.0
1634986525.582445	-6.0	1.0	8.0	2.0	0.0	0.0	75.0	79.0	97.0	80.0	90.0	970.7	26.0	-80.0	-42.0	-976.0
1634986525.67798	-5.0	2.0	8.0	2.0	0.0	0.0	75.0	79.0	96.0	80.0	90.0	970.7	26.0	-74.0	-35.0	-995.0
1634986525.774297	-5.0	2.0	8.0	3.0	0.0	0.0	75.0	79.0	96.0	80.0	90.0	970.8	26.0	-96.0	-34.0	-1000.0
1634986525.877529	-5.0	2.0	8.0	3.0	0.0	0.0	75.0	79.0	95.0	80.0	90.0	970.65	26.0	-80.0	-31.0	-977.0
1634986525.990257	-6.0	1.0	8.0	3.0	0.0	0.0	75.0	79.0	94.0	80.0	90.0	970.65	26.0	-96.0	-27.0	-1018.0
1634986526.087714	-5.0	1.0	8.0	3.0	0.0	0.0	75.0	79.0	94.0	80.0	90.0	970.69	26.0	-65.0	-37.0	-1012.0
1634986526.191654	-5.0	2.0	8.0	3.0	0.0	0.0	75.0	79.0	95.0	80.0	90.0	970.64	27.0	-87.0	-30.0	-1058.0
1634986526.287326	-4.0	2.0	8.0	3.0	0.0	0.0	75.0	79.0	95.0	80.0	90.0	970.63	27.0	-83.0	-28.0	-1008.0
1634986526.396667	-3.0	1.0	8.0	3.0	0.0	0.0	75.0	79.0	96.0	80.0	90.0	970.7	27.0	-93.0	-29.0	-1000.0
1634986526.488342	-3.0	1.0	8.0	3.0	0.0	0.0	75.0	79.0	96.0	80.0	90.0	970.78	27.0	-116.0	0.0	-980.0
1634986526.589264	-3.0	1.0	8.0	2.0	0.0	0.0	75.0	78.0	97.0	80.0	90.0	970.66	27.0	-99.0	-32.0	-984.0
1634986526.706428	-3.0	1.0	8.0	2.0	0.0	0.0	75.0	78.0	99.0	80.0	90.0	970.79	27.0	-95.0	-47.0	-964.0
1634986526.794473	-3.0	1.0	8.0	2.0	0.0	0.0	75.0	78.0	99.0	80.0	90.0	970.72	27.0	-112.0	-20.0	-988.0
1634986526.910311	-3.0	1.0	8.0	2.0	0.0	0.0	75.0	78.0	100.0	80.0	90.0	970.75	27.0	-97.0	-27.0	-1002.0
1634986526.958395	-4.0	1.0	8.0	2.0	0.0	0.0	75.0	78.0	99.0	80.0	90.0	970.78	27.0	-121.0	-23.0	-988.0
1634986527.052814	-4.0	1.0	8.0	2.0	0.0	0.0	75.0	78.0	100.0	80.0	90.0	970.67	27.0	-66.0	-36.0	-973.0
1634986527.151496	-3.0	2.0	8.0	1.0	0.0	0.0	75.0	78.0	100.0	80.0	90.0	970.65	28.0	-107.0	-26.0	-1156.0
1634986527.264648	-3.0	1.0	8.0	1.0	0.0	0.0	75.0	78.0	100.0	80.0	90.0	970.7	28.0	-102.0	-2.0	-979.0
1634986527.354734	-4.0	0.0	8.0	1.0	0.0	0.0	75.0	78.0	102.0	80.0	90.0	970.76	28.0	-77.0	-51.0	-977.0
1634986527.464081	-3.0	0.0	8.0	1.0	0.0	0.0	75.0	78.0	100.0	80.0	90.0	970.76	28.0	-104.0	-40.0	-981.0
1634986527.57304	-1.0	1.0	8.0	0.0	0.0	0.0	75.0	78.0	100.0	80.0	90.0	970.67	28.0	-106.0	-27.0	-1114.0
1634986527.665627	-5.0	1.0	8.0	0.0	0.0	0.0	75.0	78.0	100.0	80.0	90.0	970.73	28.0	-94.0	-26.0	-985.0
1634986527.777387	-5.0	0.0	8.0	0.0	0.0	0.0	75.0	78.0	100.0	80.0	90.0	970.62	28.0	-95.0	-3.0	-1126.0
1634986527.866704	-6.0	0.0	8.0	0.0	0.0	0.0	75.0	78.0	99.0	80.0	90.0	970.78	28.0	-93.0	0.0	-993.0
1634986527.969298	-5.0	0.0	8.0	0.0	0.0	0.0	75.0	78.0	99.0	80.0	90.0	970.62	28.0	-80.0	-28.0	-997.0
1634986528.080271	-5.0	0.0	8.0	0.0	0.0	0.0	75.0	78.0	97.0	80.0	90.0	970.71	28.0	-90.0	-31.0	-974.0
1634986528.275187	-6.0	0.0	8.0	1.0	0.0	0.0	75.0	78.0	96.0	80.0	90.0	970.71	29.0	-96.0	-49.0	-999.0
1634986528.276184	-6.0	0.0	8.0	1.0	0.0	0.0	75.0	78.0	96.0	80.0	90.0	970.64	29.0	-62.0	-49.0	-997.0
1634986528.402902	-6.0	0.0	8.0	1.0	0.0	0.0	75.0	78.0	95.0	80.0	90.0	970.62	29.0	-77.0	-31.0	-1011.0
1634986528.574734	-5.0	0.0	8.0	2.0	0.0	0.0	75.0	78.0	95.0	80.0	90.0	970.73	29.0	-93.0	-15.0	-1031.0
1634986528.579216	-5.0	0.0	8.0	2.0	0.0	0.0	75.0	77.0	94.0	80.0	90.0	970.66	29.0	-82.0	-24.0	-1040.0
1634986528.708287	-5.0	0.0	8.0	2.0	-1.0	0.0	75.0	77.0	94.0	80.0	90.0	970.65	29.0	-94.0	-24.0	-1007.0
1634986528.796762	-6.0	0.0	8.0	2.0	-1.0	0.0	75.0	77.0	94.0	80.0	90.0	970.69	29.0	-103.0	4.0	-1006.0
1634986528.89735	-5.0	1.0	8.0	2.0	-1.0	0.0	75.0	77.0	94.0	80.0	90.0	970.65	29.0	-84.0	-19.0	-997.0
1634986529.107769	-5.0	1.0	8.0	3.0	-1.0	0.0	75.0	77.0	94.0	80.0	90.0	970.66	29.0	-113.0	11.0	-1002.0
1634986529.107769	-5.0	1.0	8.0	3.0	-1.0	0.0	75.0	77.0	95.0	80.0	90.0	970.54	29.0	-115.0	11.0	-999.0
1634986529.205053	-5.0	1.0	8.0	2.0	-1.0	0.0	75.0	77.0	94.0	80.0	90.0	970.5	30.0	-102.0	-37.0	-973.0
1634986529.330451	-5.0	1.0	8.0	2.0	-1.0	0.0	75.0	77.0	95.0	80.0	90.0	970.65	30.0	-106.0	-22.0	-1023.0
1634986529.401887	-5.0	1.0	8.0	2.0	-1.0	0.0	75.0	77.0	96.0	80.0	90.0	970.6	30.0	-122.0	-27.0	-1030.0
1634986529.512646	-5.0	1.0	8.0	2.0	-1.0	0.0	75.0	77.0	96.0	80.0	90.0	970.54	30.0	-122.0	-6.0	-979.0
1634986529.60526	-6.0	1.0	8.0	2.0	-1.0	0.0	74.0	77.0	97.0	80.0	90.0	970.47	30.0	-94.0	-30.0	-974.0
1634986529.715104	-6.0	1.0	8.0	2.0	-1.0	0.0	74.0	77.0	98.0	80.0	90.0	970.6	30.0	-92.0	-18.0	-971.0
1634986529.810594	-5.0	1.0	8.0	2.0	0.0	0.0	74.0	77.0	99.0	80.0	90.0	970.59	30.0	-99.0	-15.0	-993.0
1634986529.921479	-5.0	1.0	8.0	2.0	0.0	0.0	74.0	77.0	99.0	80.0	90.0	970.64	30.0	-111.0	13.0	-965.0
1634986530.031886	-5.0	1.0	8.0	3.0	0.0	0.0	74.0	77.0	100.0	80.0	90.0	970.59	30.0	-89.0	0.0	-990.0
1634986530.112049	-5.0	1.0	8.0	3.0	0.0	0.0	74.0	77.0	100.0	80.0	90.0	970.66	30.0	-73.0	-14.0	-993.0
1634986530.221583	-5.0	2.0	8.0	3.0	0.0	0.0	74.0	77.0	100.0	80.0	90.0	970.7	31.0	-91.0	-55.0	-1002.0
1634986530.327236	-5.0	2.0	8.0	3.0	0.0	0.0	74.0	77.0	101.0	80.0	90.0	970.59	31.0	-62.0	-29.0	-1022.0
1634986530.424493	-3.0	1.0	8.0	3.0	0.0	0.0	74.0	77.0	100.0	80.0	90.0	970.6	31.0	-58.0	-32.0	-983.0
1634986530.521169	-2.0	1.0	8.0	3.0	0.0	0.0	74.0	77.0	101.0	80.0	90.0	970.65	31.0	-74.0	-36.0	-1031.0
1634986530.62677	-1.0	2.0	8.0	3.0	0.0	0.0	75.0	78.0	101.0	80.0	90.0	970.64	31.0	-82.0	-44.0	-1033.0
1634986530.724049	-2.0	2.0	8.0	2.0	0.0	0.0	75.0	78.0	101.0	80.0	90.0	970.63	31.0	-73.0	-56.0	-992.0
1634986530.833398	-3.0	2.0	8.0	2.0	0.0	0.0	75.0	78.0	100.0	80.0	90.0	970.65	31.0	-105.0	-33.0	-1015.0
1634986530.93898	-3.0	3.0	8.0	2.0	0.0	0.0	75.0	78.0	100.0	80.0	90.0	970.65	31.0	-85.0	-29.0	-969.0
1634986531.03753	-2.0	2.0	8.0	2.0	0.0	0.0	75.0	78.0	99.0	80.0	90.0	970.5	31.0	-94.0	-18.0	-1000.0
1634986531.133556	-2.0	1.0	8.0	1.0	0.0	0.0	75.0	78.0	98.0	80.0	90.0	970.55	31.0	-83.0	-60.0	-1000.0
1634986531.235158	-3.0	2.0	8.0	1.0	0.0	0.0	75.0	78.0	98.0	80.0	90.0	970.6	32.0	-73.0	-60.0	-958.0
1634986531.345999	-1.0	2.0	8.0	1.0	0.0	0.0	75.0	78.0	97.0	80.0	90.0	970.51	32.0	-82.0	-48.0	-982.0
1634986531.394586	3.0	2.0	8.0	0.0	0.0	0.0	75.0	78.0	95.0	80.0	90.0	970.58	32.0	-79.0	-35.0	-1003.0
1634986531.501077	5.0	1.0	8.0	-1.0	0.0	0.0	75.0	78.0	95.0	80.0	90.0	970.68	32.0	-88.0	-15.0	-1022.0
1634986531.597926	5.0	1.0	8.0	-2.0	0.0	0.0	74.0	78.0	92.0	80.0	90.0	970.66	32.0	-64.0	-38.0	-1040.0
1634986531.698812	5.0	1.0	8.0	-4.0	0.0	0.0	74.0	78.0	92.0	80.0	90.0	970.71	32.0	-50.0	-25.0	-1039.0
1634986531.797382	5.0	1.0	8.0	-5.0	0.0	0.0	74.0	78.0	90.0	70.0	90.0	970.74	32.0	-38.0	-10.0	-1017.0
1634986531.909099	4.0	1.0	8.0	-6.0	0.0	0.0	74.0	78.0	89.0	70.0	90.0	970.74	32.0	-40.0	-32.0	-1035.0
1634986532.00594	0.0	1.0	8.0	-6.0	0.0	0.0	74.0	78.0	87.0	70.0	90.0	970.74	32.0	-23.0	-15.0	-1028.0
1634986532.113047	-3.0	1.0	8.0	-6.0	0.0	0.0	74.0	78.0	86.0	70.0	90.0	970.76	32.0	-8.0	-30.0	-1022.0
1634986532.208873	-3.0	0.0	8.0	-5.0	0.0	0.0	74.0	78.0	86.0	70.0	90.0	970.89	33.0	-18.0	-58.0	-1035.0
1634986532.302601	-3.0	0.0	8.0	-5.0	0.0	0.0	74.0	78.0	85.0	70.0	90.0	970.84	33.0	-24.0	-41.0	-1027.0
1634986532.410074	-3.0	1.0	8.0	-4.0	0.0	0.0	74.0	78.0	86.0	70.0	90.0	970.84	33.0	-18.0	-30.0	-988.0
1634986532.521752	-3.0	1.0	8.0	-4.0	0.0	0.0	74.0	78.0	85.0	70.0	90.0	970.84	33.0	-41.0	-9.0	-996.0
1634986532.622238	-3.0	1.0	8.0	-4.0	0.0	0.0	74.0	78.0	85.0	70.0	90.0	970.8	33.0	-31.0	-15.0	-1010.0
1634986532.722339	-3.0	1.0	8.0	-3.0	0.0	0.0	74.0	78.0	85.0	70.0	90.0	970.87	33.0	-16.0	-32.0	-1012.0
1634986532.828269	-4.0	1.0	8.0	-3.0	0.0	0.0	74.0	78.0	85.0	70.0	90.0	970.78	33.0	-28.0	-14.0	-1007.0
1634986532.924752	-4.0	0.0	8.0	-3.0	0.0	0.0	74.0	78.0	85.0	70.0	90.0	970.88	33.0	-41.0	-19.0	-1015.0
1634986533.029666	-3.0	0.0	8.0	-2.0	0.0	0.0	74.0	78.0	86.0	70.0	90.0	970.87	33.0	-30.0	-15.0	-997.0
1634986533.12339	0.0	0.0	8.0	-2.0	0.0	0.0	74.0	78.0	87.0	70.0	90.0	970.89	33.0	-6.0	-50.0	-994.0
1634986533.235128	5.0	0.0	8.0	-3.0	0.0	0.0	74.0	78.0	88.0	70.0	90.0	970.92	34.0	-55.0	-17.0	-1018.0
1634986533.322782	5.0	0.0	8.0	-4.0	0.0	0.0	74.0	78.0	90.0	70.0	90.0	970.9	34.0	-46.0	-2.0	-980.0
1634986533.432308	5.0	0.0	8.0	-6.0	0.0	0.0	74.0	78.0	91.0	70.0	90.0	970.93	34.0	-7.0	-14.0	-1009.0
1634986533.532212	5.0	0.0	8.0	-7.0	0.0	0.0	74.0	78.0	92.0	70.0	90.0	970.98	34.0	-10.0	-10.0	-986.0
1634986533.577276	5.0	0.0	8.0	-7.0	0.0	0.0	74.0	78.0	92.0	70.0	90.0	970.98	34.0	-10.0	-10.0	-986.0
1634986533.642804	4.0	0.0	8.0	-7.0	0.0	0.0	75.0	78.0	92.0	80.0	90.0	971.07	34.0	-12.0	-3.0	-1018.0
1634986533.731272	0.0	0.0	8.0	-8.0	0.0	0.0	75.0	78.0	94.0	80.0	90.0	971.02	34.0	10.0	-13.0	-1053.0
1634986533.846128	-2.0	0.0	8.0	-7.0	0.0	0.0	75.0	78.0	95.0	80.0	90.0	971.01	34.0	-7.0	13.0	-987.0
1634986533.9423	-3.0	0.0	8.0	-6.0	0.0	0.0	75.0	78.0	96.0	80.0	90.0	971.09	34.0	-15.0	5.0	-974.0
1634986534.037706	-3.0	0.0	8.0	-6.0	0.0	0.0	75.0	78.0	98.0	80.0	90.0	970.99	34.0	-2.0	-4.0	-1000.0
1634986534.149508	-3.0	0.0	8.0	-5.0	0.0	0.0	75.0	78.0	99.0	80.0	90.0	971.06	34.0	-12.0	4.0	-990.0
1634986534.241164	-3.0	0.0	8.0	-5.0	0.0	0.0	75.0	78.0	100.0	80.0	90.0	971.13	35.0	-25.0	2.0	-998.0
1634986534.352248	-3.0	0.0	8.0	-5.0	0.0	0.0	75.0	78.0	101.0	80.0	90.0	971.07	35.0	-20.0	3.0	-983.0
1634986534.446691	-4.0	0.0	8.0	-4.0	0.0	0.0	75.0	78.0	102.0	80.0	90.0	971.19	35.0	-6.0	-13.0	-996.0
1634986534.5591	-4.0	0.0	8.0	-4.0	0.0	0.0	75.0	78.0	103.0	80.0	90.0	971.21	35.0	4.0	-26.0	-999.0
1634986534.654467	-4.0	0.0	8.0	-3.0	0.0	0.0	73.0	77.0	103.0	90.0	90.0	971.24	35.0	-20.0	9.0	-987.0
1634986534.762635	-3.0	0.0	8.0	-3.0	0.0	0.0	73.0	77.0	104.0	90.0	90.0	971.23	35.0	-22.0	-6.0	-970.0
1634986534.856547	0.0	0.0	8.0	-2.0	0.0	0.0	73.0	77.0	105.0	90.0	90.0	971.12	35.0	-19.0	-11.0	-970.0
1634986534.967512	5.0	0.0	8.0	-3.0	0.0	0.0	73.0	77.0	105.0	90.0	90.0	971.02	35.0	-37.0	12.0	-1001.0
1634986535.069044	5.0	0.0	8.0	-4.0	0.0	0.0	73.0	77.0	102.0	90.0	90.0	971.23	35.0	-6.0	-5.0	-921.0
1634986535.16277	5.0	0.0	8.0	-6.0	0.0	0.0	73.0	77.0	101.0	90.0	90.0	971.07	35.0	-20.0	1.0	-978.0
1634986535.263155	5.0	0.0	8.0	-6.0	0.0	0.0	73.0	77.0	100.0	90.0	90.0	971.14	36.0	6.0	-15.0	-984.0
1634986535.326113	5.0	0.0	8.0	-7.0	0.0	0.0	73.0	77.0	99.0	80.0	90.0	971.27	36.0	12.0	-17.0	-1031.0
1634986535.421042	5.0	0.0	8.0	-8.0	-1.0	0.0	73.0	77.0	97.0	80.0	90.0	971.24	36.0	20.0	-58.0	-992.0
1634986535.530759	5.0	0.0	8.0	-9.0	-1.0	0.0	73.0	77.0	95.0	80.0	90.0	971.13	36.0	-7.0	-27.0	-1011.0
1634986535.676122	5.0	0.0	8.0	-9.0	-1.0	0.0	73.0	77.0	92.0	80.0	90.0	971.15	36.0	14.0	-29.0	-1017.0
1634986535.77691	5.0	1.0	8.0	-10.0	-2.0	0.0	73.0	77.0	91.0	80.0	90.0	971.14	36.0	22.0	7.0	-1041.0
1634986535.823964	2.0	2.0	8.0	-10.0	-1.0	0.0	73.0	77.0	89.0	80.0	90.0	971.07	36.0	26.0	-41.0	-1056.0
1634986535.933309	-1.0	1.0	8.0	-10.0	-1.0	0.0	73.0	77.0	87.0	80.0	90.0	971.15	36.0	24.0	-21.0	-1034.0
1634986536.035743	-2.0	1.0	8.0	-9.0	-1.0	0.0	73.0	77.0	86.0	80.0	90.0	971.04	36.0	43.0	-42.0	-1039.0
1634986536.131281	-2.0	0.0	8.0	-8.0	-1.0	0.0	73.0	77.0	83.0	80.0	90.0	971.04	36.0	0.0	-7.0	-1047.0
1634986536.237078	-3.0	0.0	8.0	-7.0	0.0	0.0	73.0	77.0	81.0	70.0	90.0	971.1	37.0	31.0	-40.0	-994.0
1634986536.346848	-3.0	0.0	8.0	-6.0	0.0	0.0	73.0	77.0	79.0	70.0	90.0	971.01	37.0	-5.0	-1.0	-1042.0
1634986536.443649	-3.0	0.0	8.0	-6.0	0.0	0.0	73.0	77.0	77.0	70.0	90.0	970.97	37.0	4.0	-20.0	-995.0
1634986536.540781	-3.0	0.0	8.0	-5.0	0.0	0.0	73.0	77.0	76.0	70.0	89.0	971.04	37.0	4.0	-28.0	-1024.0
1634986536.640692	-3.0	0.0	8.0	-5.0	0.0	0.0	74.0	77.0	74.0	70.0	89.0	970.98	37.0	9.0	-28.0	-1010.0
1634986536.741502	-3.0	0.0	8.0	-4.0	0.0	0.0	74.0	77.0	73.0	70.0	89.0	970.9	37.0	9.0	-15.0	-1029.0
1634986536.857378	-3.0	0.0	8.0	-3.0	0.0	0.0	74.0	77.0	72.0	60.0	89.0	970.92	37.0	-2.0	-31.0	-1035.0
1634986536.958777	-3.0	1.0	8.0	-3.0	0.0	0.0	74.0	77.0	72.0	60.0	89.0	970.89	37.0	-24.0	-18.0	-1041.0
1634986537.055388	-2.0	1.0	8.0	-3.0	0.0	0.0	74.0	77.0	72.0	60.0	89.0	970.96	37.0	-22.0	-30.0	-1000.0
1634986537.149102	-3.0	1.0	8.0	-2.0	0.0	0.0	74.0	77.0	72.0	60.0	89.0	970.94	37.0	-14.0	-6.0	-996.0
1634986537.25062	-5.0	0.0	8.0	-2.0	0.0	-1.0	74.0	77.0	74.0	60.0	89.0	970.87	38.0	-27.0	3.0	-1063.0
1634986537.364574	-4.0	0.0	8.0	-1.0	0.0	-1.0	74.0	77.0	74.0	60.0	89.0	970.88	38.0	-47.0	18.0	-1015.0
1634986537.458299	-4.0	1.0	8.0	0.0	0.0	-1.0	74.0	77.0	75.0	60.0	89.0	970.84	38.0	-30.0	-9.0	-1039.0
1634986537.565494	-4.0	0.0	8.0	0.0	0.0	-1.0	74.0	77.0	75.0	60.0	89.0	970.9	38.0	-44.0	-3.0	-1035.0
1634986537.658799	-4.0	0.0	8.0	0.0	0.0	-1.0	73.0	77.0	76.0	60.0	89.0	970.81	38.0	-41.0	7.0	-1071.0
1634986537.761344	-5.0	0.0	8.0	0.0	0.0	-1.0	73.0	77.0	76.0	60.0	89.0	970.9	38.0	-33.0	-46.0	-981.0
1634986537.867081	-5.0	0.0	8.0	0.0	0.0	-1.0	73.0	77.0	76.0	60.0	89.0	970.84	38.0	-42.0	7.0	-957.0
1634986537.977947	-3.0	0.0	8.0	1.0	0.0	-1.0	73.0	77.0	76.0	70.0	89.0	970.87	38.0	-51.0	-2.0	-980.0
1634986538.075854	1.0	0.0	8.0	1.0	0.0	0.0	73.0	77.0	77.0	70.0	89.0	970.98	38.0	-41.0	25.0	-1016.0
1634986538.169387	-3.0	0.0	8.0	0.0	0.0	0.0	73.0	77.0	78.0	70.0	89.0	970.82	38.0	-42.0	19.0	-1017.0
1634986538.279836	-5.0	0.0	8.0	0.0	0.0	0.0	73.0	77.0	77.0	70.0	89.0	970.84	39.0	-41.0	9.0	-979.0
1634986538.375123	-5.0	0.0	8.0	1.0	1.0	0.0	73.0	77.0	78.0	70.0	89.0	970.78	39.0	-52.0	0.0	-982.0
1634986538.477692	-5.0	-1.0	8.0	2.0	1.0	0.0	73.0	77.0	79.0	70.0	89.0	970.85	39.0	-64.0	19.0	-1038.0
1634986538.575857	-3.0	-1.0	8.0	2.0	1.0	0.0	73.0	77.0	79.0	70.0	89.0	970.84	39.0	-54.0	17.0	-1065.0
1634986538.686629	-1.0	0.0	8.0	2.0	0.0	0.0	73.0	76.0	79.0	70.0	89.0	970.9	39.0	-44.0	11.0	-995.0
1634986538.792508	-1.0	0.0	8.0	2.0	0.0	0.0	73.0	76.0	81.0	70.0	89.0	970.86	39.0	-55.0	16.0	-1004.0
1634986538.88796	-4.0	0.0	8.0	2.0	0.0	0.0	73.0	76.0	83.0	70.0	89.0	970.81	39.0	-53.0	5.0	-997.0
1634986538.987748	-5.0	0.0	8.0	2.0	0.0	0.0	73.0	76.0	85.0	70.0	89.0	970.88	39.0	-33.0	-5.0	-984.0
1634986539.097834	-5.0	0.0	8.0	3.0	1.0	0.0	73.0	76.0	86.0	70.0	89.0	970.85	39.0	-37.0	-1.0	-985.0
1634986539.195987	-5.0	0.0	8.0	3.0	1.0	0.0	73.0	76.0	88.0	70.0	89.0	970.84	40.0	-47.0	-4.0	-1012.0
1634986539.29228	-3.0	0.0	8.0	4.0	1.0	0.0	73.0	76.0	88.0	70.0	89.0	970.83	40.0	-61.0	2.0	-975.0
1634986539.490599	0.0	0.0	8.0	3.0	0.0	0.0	73.0	76.0	92.0	80.0	89.0	970.88	40.0	-50.0	-12.0	-996.0
1634986539.620854	0.0	0.0	8.0	3.0	0.0	0.0	73.0	76.0	93.0	80.0	88.0	970.94	40.0	-41.0	-26.0	-988.0
1634986539.768361	0.0	0.0	8.0	3.0	0.0	0.0	73.0	76.0	93.0	80.0	88.0	970.95	40.0	-40.0	-31.0	-958.0
1634986539.768361	0.0	0.0	8.0	2.0	0.0	0.0	73.0	76.0	94.0	80.0	88.0	971.03	40.0	-46.0	-51.0	-975.0
1634986539.926327	0.0	1.0	8.0	2.0	0.0	0.0	73.0	76.0	95.0	80.0	88.0	971.05	40.0	-37.0	-55.0	-983.0
1634986540.02755	-1.0	1.0	8.0	2.0	0.0	0.0	73.0	76.0	96.0	80.0	88.0	971.07	40.0	-42.0	-39.0	-961.0
1634986540.15898	-5.0	1.0	8.0	2.0	0.0	0.0	73.0	76.0	98.0	80.0	88.0	970.98	40.0	-40.0	-30.0	-935.0
1634986540.162763	-5.0	0.0	8.0	3.0	0.0	0.0	73.0	76.0	98.0	80.0	88.0	971.01	41.0	-60.0	-34.0	-989.0
1634986540.380415	-5.0	1.0	8.0	3.0	0.0	0.0	73.0	76.0	98.0	80.0	88.0	970.92	41.0	-46.0	-31.0	-949.0
1634986540.380415	-5.0	1.0	8.0	4.0	0.0	0.0	73.0	76.0	100.0	80.0	88.0	971.1	41.0	-59.0	-41.0	-962.0
1634986540.522705	-4.0	2.0	8.0	4.0	0.0	0.0	73.0	76.0	100.0	80.0	88.0	970.92	41.0	-72.0	-12.0	-984.0
1634986540.580027	-2.0	2.0	8.0	4.0	0.0	0.0	73.0	76.0	100.0	80.0	88.0	970.91	41.0	-39.0	-51.0	-1013.0
1634986540.696849	-1.0	2.0	8.0	4.0	0.0	0.0	73.0	76.0	100.0	80.0	88.0	971.01	41.0	-25.0	-57.0	-974.0
1634986540.72109	-1.0	2.0	8.0	4.0	0.0	0.0	73.0	76.0	100.0	80.0	88.0	971.01	41.0	-25.0	-57.0	-974.0
1634986540.768121	0.0	2.0	8.0	4.0	0.0	0.0	73.0	76.0	98.0	80.0	88.0	971.02	41.0	-62.0	-46.0	-969.0
1634986540.885382	0.0	2.0	8.0	3.0	0.0	0.0	73.0	76.0	97.0	80.0	88.0	971.0	41.0	-57.0	-26.0	-989.0
1634986540.977387	0.0	2.0	8.0	3.0	0.0	0.0	73.0	76.0	96.0	80.0	88.0	970.95	41.0	-52.0	-39.0	-1007.0
1634986541.088423	0.0	2.0	8.0	3.0	0.0	0.0	73.0	76.0	95.0	80.0	88.0	970.98	41.0	-47.0	-33.0	-1025.0
1634986541.178204	-4.0	2.0	8.0	3.0	0.0	0.0	73.0	76.0	94.0	80.0	88.0	970.9	42.0	-59.0	-35.0	-1005.0
1634986541.289655	-5.0	1.0	8.0	4.0	0.0	0.0	73.0	76.0	93.0	80.0	88.0	970.95	42.0	-45.0	-81.0	-974.0
1634986541.38892	-5.0	2.0	8.0	4.0	0.0	0.0	73.0	76.0	92.0	80.0	88.0	970.89	42.0	-58.0	-17.0	-983.0
1634986541.496906	-3.0	3.0	8.0	5.0	0.0	0.0	73.0	76.0	91.0	80.0	88.0	970.93	42.0	-36.0	-33.0	-993.0
1634986541.596362	-1.0	2.0	8.0	5.0	0.0	0.0	73.0	76.0	89.0	80.0	88.0	970.92	42.0	-38.0	-32.0	-1049.0
1634986541.690098	0.0	1.0	8.0	4.0	0.0	0.0	73.0	76.0	86.0	80.0	88.0	970.93	42.0	-58.0	-20.0	-1014.0
1634986541.795958	0.0	1.0	8.0	4.0	0.0	0.0	73.0	76.0	86.0	80.0	88.0	970.94	42.0	-45.0	-32.0	-1010.0
1634986541.89154	0.0	1.0	8.0	3.0	0.0	0.0	73.0	76.0	85.0	70.0	88.0	970.87	42.0	-32.0	-52.0	-1068.0
1634986542.004589	0.0	1.0	8.0	3.0	0.0	0.0	73.0	76.0	85.0	70.0	88.0	970.88	42.0	-46.0	-2.0	-973.0
1634986542.106768	0.0	1.0	8.0	3.0	0.0	0.0	73.0	76.0	84.0	70.0	88.0	970.94	42.0	-27.0	-24.0	-1002.0
1634986542.202323	0.0	1.0	8.0	2.0	0.0	0.0	73.0	76.0	84.0	70.0	88.0	971.0	43.0	-25.0	-17.0	-1026.0
1634986542.309629	0.0	1.0	8.0	2.0	0.0	0.0	73.0	76.0	84.0	70.0	88.0	970.9	43.0	-49.0	-19.0	-1089.0
1634986542.40006	-4.0	0.0	8.0	2.0	0.0	0.0	73.0	76.0	84.0	70.0	88.0	970.99	43.0	-27.0	-16.0	-1038.0
1634986542.512636	-5.0	0.0	8.0	3.0	0.0	0.0	73.0	76.0	84.0	70.0	88.0	970.93	43.0	-29.0	-25.0	-1010.0
1634986542.608989	-5.0	0.0	8.0	4.0	0.0	0.0	73.0	76.0	85.0	70.0	88.0	970.92	43.0	-24.0	-22.0	-996.0
1634986542.714015	-5.0	0.0	8.0	5.0	0.0	0.0	73.0	76.0	87.0	70.0	88.0	970.92	43.0	-45.0	-7.0	-1002.0
1634986542.823375	-5.0	0.0	8.0	5.0	0.0	0.0	73.0	76.0	88.0	70.0	88.0	970.88	43.0	-42.0	-26.0	-1015.0
1634986542.922854	-5.0	0.0	8.0	6.0	0.0	0.0	73.0	76.0	89.0	70.0	88.0	970.89	43.0	-45.0	-11.0	-1008.0
1634986543.027472	-5.0	0.0	8.0	7.0	0.0	0.0	73.0	76.0	90.0	70.0	88.0	970.86	43.0	-39.0	-34.0	-939.0
1634986543.11979	-5.0	0.0	8.0	7.0	0.0	0.0	73.0	76.0	91.0	80.0	88.0	970.93	43.0	-47.0	-19.0	-966.0
1634986543.229143	-5.0	1.0	8.0	7.0	0.0	0.0	73.0	76.0	92.0	80.0	88.0	970.98	44.0	-49.0	-21.0	-985.0
1634986543.336002	-5.0	2.0	8.0	8.0	0.0	0.0	73.0	76.0	93.0	80.0	88.0	970.98	44.0	-52.0	-20.0	-1000.0
1634986543.434445	-5.0	2.0	8.0	8.0	0.0	0.0	73.0	76.0	95.0	80.0	88.0	970.86	44.0	-35.0	-39.0	-1045.0
1634986543.529805	-4.0	3.0	8.0	9.0	0.0	0.0	73.0	76.0	95.0	80.0	88.0	970.86	44.0	-50.0	-121.0	-986.0
1634986543.634971	-2.0	3.0	8.0	9.0	0.0	0.0	73.0	76.0	96.0	80.0	88.0	970.82	44.0	-45.0	-58.0	-1032.0
1634986543.730344	0.0	3.0	8.0	8.0	0.0	0.0	73.0	76.0	97.0	80.0	88.0	970.91	44.0	-61.0	-27.0	-1037.0
1634986543.836905	1.0	2.0	8.0	8.0	0.0	0.0	73.0	76.0	98.0	80.0	88.0	970.84	44.0	-63.0	-27.0	-964.0
1634986543.94534	1.0	2.0	8.0	7.0	0.0	0.0	73.0	76.0	99.0	80.0	88.0	970.92	44.0	-40.0	-34.0	-980.0
1634986544.043834	1.0	2.0	8.0	6.0	0.0	0.0	73.0	76.0	101.0	80.0	88.0	970.95	44.0	-26.0	-40.0	-975.0
1634986544.137562	1.0	2.0	8.0	6.0	0.0	0.0	73.0	76.0	100.0	80.0	88.0	970.89	44.0	-38.0	-25.0	-972.0
1634986544.191009	1.0	2.0	8.0	5.0	0.0	0.0	73.0	76.0	100.0	80.0	88.0	970.96	45.0	-54.0	-9.0	-989.0
1634986544.290686	1.0	1.0	8.0	5.0	0.0	0.0	73.0	76.0	101.0	80.0	88.0	971.01	45.0	-23.0	-31.0	-963.0
1634986544.397729	1.0	1.0	8.0	5.0	0.0	0.0	73.0	76.0	101.0	80.0	88.0	970.99	45.0	-21.0	-29.0	-971.0
1634986544.498076	2.0	1.0	8.0	4.0	0.0	0.0	73.0	76.0	101.0	90.0	87.0	971.03	45.0	-2.0	-23.0	-990.0
1634986544.596437	1.0	1.0	8.0	4.0	0.0	0.0	73.0	76.0	101.0	80.0	87.0	970.98	45.0	-12.0	-23.0	-1022.0
1634986544.710407	3.0	1.0	8.0	3.0	0.0	0.0	73.0	77.0	101.0	80.0	87.0	971.07	45.0	-7.0	-50.0	-1007.0
1634986544.804393	5.0	0.0	8.0	3.0	0.0	0.0	73.0	77.0	101.0	80.0	87.0	971.07	45.0	-4.0	-25.0	-971.0
1634986544.914436	5.0	0.0	8.0	2.0	0.0	0.0	73.0	77.0	101.0	80.0	87.0	971.02	45.0	0.0	-21.0	-964.0
1634986545.010919	5.0	0.0	8.0	1.0	0.0	0.0	73.0	77.0	101.0	80.0	87.0	971.05	45.0	9.0	-47.0	-980.0
1634986545.114531	5.0	0.0	8.0	0.0	0.0	0.0	73.0	77.0	100.0	80.0	87.0	970.99	45.0	12.0	-17.0	-999.0
1634986545.211553	5.0	1.0	8.0	0.0	0.0	0.0	73.0	77.0	99.0	80.0	87.0	971.0	46.0	29.0	-26.0	-1034.0
1634986545.308827	5.0	1.0	8.0	0.0	0.0	0.0	73.0	77.0	99.0	80.0	87.0	971.1	46.0	33.0	-21.0	-1010.0
1634986545.411129	5.0	2.0	8.0	-1.0	0.0	0.0	73.0	77.0	98.0	80.0	87.0	971.11	46.0	43.0	-32.0	-1059.0
1634986545.524009	4.0	2.0	8.0	-2.0	0.0	0.0	73.0	77.0	99.0	80.0	87.0	971.09	46.0	48.0	-69.0	-1060.0
1634986545.620474	-1.0	1.0	8.0	-2.0	0.0	0.0	73.0	77.0	98.0	80.0	87.0	971.0	46.0	47.0	-9.0	-986.0
1634986545.728662	-5.0	1.0	8.0	-1.0	0.0	0.0	72.0	76.0	98.0	80.0	87.0	971.04	46.0	51.0	-37.0	-952.0
1634986545.827258	1.0	1.0	8.0	0.0	0.0	0.0	72.0	76.0	97.0	80.0	87.0	971.06	46.0	32.0	-19.0	-985.0
1634986545.933875	6.0	0.0	8.0	0.0	0.0	0.0	72.0	76.0	96.0	80.0	87.0	971.03	46.0	33.0	-36.0	-1067.0
1634986546.029236	5.0	0.0	8.0	-1.0	0.0	0.0	72.0	76.0	95.0	80.0	87.0	970.99	46.0	55.0	-90.0	-1031.0
1634986546.142282	5.0	0.0	8.0	-1.0	-1.0	0.0	72.0	76.0	94.0	80.0	87.0	971.01	46.0	48.0	-41.0	-946.0
1634986546.236007	5.0	0.0	8.0	-2.0	-2.0	0.0	72.0	76.0	92.0	80.0	87.0	970.99	47.0	53.0	-40.0	-1011.0
1634986546.331874	5.0	2.0	8.0	-2.0	-2.0	0.0	72.0	76.0	91.0	80.0	87.0	971.02	47.0	41.0	-19.0	-949.0
1634986546.44037	4.0	3.0	8.0	-2.0	-2.0	0.0	72.0	76.0	88.0	80.0	87.0	970.94	47.0	45.0	-11.0	-993.0
1634986546.535993	3.0	4.0	8.0	-3.0	-1.0	0.0	72.0	76.0	86.0	80.0	87.0	970.81	47.0	57.0	-28.0	-1000.0
1634986546.634867	2.0	3.0	8.0	-2.0	-1.0	0.0	72.0	76.0	82.0	80.0	87.0	970.88	47.0	64.0	-43.0	-1036.0
1634986546.751219	1.0	2.0	8.0	-2.0	-1.0	0.0	72.0	76.0	80.0	80.0	87.0	970.86	47.0	49.0	-50.0	-1001.0
1634986546.85231	1.0	2.0	8.0	-2.0	-1.0	0.0	72.0	76.0	77.0	70.0	87.0	970.83	47.0	47.0	-50.0	-974.0
1634986546.954416	1.0	2.0	8.0	-2.0	-1.0	0.0	72.0	76.0	75.0	70.0	87.0	970.9	47.0	64.0	-56.0	-1073.0
1634986547.052482	4.0	2.0	8.0	-1.0	-1.0	0.0	72.0	76.0	73.0	70.0	87.0	970.88	47.0	29.0	-62.0	-986.0
1634986547.146412	5.0	1.0	8.0	-2.0	-1.0	0.0	72.0	76.0	70.0	70.0	87.0	970.79	47.0	51.0	-69.0	-1027.0
1634986547.252697	4.0	1.0	8.0	-3.0	-2.0	0.0	72.0	76.0	67.0	70.0	87.0	970.88	48.0	56.0	-63.0	-987.0
1634986547.348239	4.0	3.0	8.0	-3.0	-2.0	0.0	72.0	76.0	65.0	70.0	87.0	970.83	48.0	55.0	-49.0	-1027.0
1634986547.463269	2.0	4.0	8.0	-3.0	-2.0	0.0	72.0	76.0	62.0	70.0	87.0	970.77	48.0	53.0	-46.0	-1021.0
1634986547.564868	1.0	4.0	8.0	-3.0	-1.0	0.0	72.0	76.0	60.0	70.0	87.0	970.86	48.0	70.0	-49.0	-1036.0
1634986547.660404	0.0	3.0	8.0	-2.0	-1.0	0.0	72.0	76.0	58.0	70.0	87.0	970.69	48.0	59.0	-56.0	-1053.0
1634986547.660404	0.0	3.0	8.0	-2.0	-1.0	0.0	72.0	76.0	58.0	70.0	87.0	970.69	48.0	59.0	-56.0	-1053.0
1634986547.769757	1.0	3.0	8.0	-2.0	-1.0	0.0	73.0	76.0	54.0	60.0	87.0	970.73	48.0	71.0	-56.0	-987.0
1634986547.86936	1.0	3.0	8.0	-2.0	-1.0	0.0	73.0	76.0	52.0	60.0	87.0	970.7	48.0	55.0	-37.0	-985.0
1634986547.974342	1.0	3.0	8.0	-2.0	-1.0	0.0	73.0	76.0	51.0	60.0	87.0	970.68	48.0	44.0	-35.0	-1004.0
1634986548.071935	1.0	3.0	8.0	-1.0	-1.0	-2.0	73.0	76.0	52.0	60.0	87.0	970.7	48.0	63.0	-65.0	-1171.0
1634986548.114023	1.0	3.0	8.0	-1.0	-1.0	-4.0	73.0	76.0	56.0	70.0	87.0	970.71	48.0	92.0	-83.0	-1220.0
1634986548.220698	1.0	3.0	8.0	-1.0	-1.0	-5.0	73.0	76.0	60.0	70.0	87.0	970.75	49.0	65.0	-52.0	-1144.0
1634986548.33005	-2.0	4.0	6.0	-1.0	0.0	-7.0	73.0	76.0	66.0	80.0	87.0	970.81	49.0	38.0	-32.0	-1197.0
1634986548.432742	-1.0	4.0	5.0	0.0	0.0	-6.0	73.0	76.0	71.0	80.0	87.0	970.82	49.0	49.0	-44.0	-1181.0
1634986548.532568	0.0	3.0	5.0	0.0	0.0	-4.0	73.0	76.0	74.0	90.0	87.0	970.78	49.0	58.0	-55.0	-858.0
1634986548.633854	1.0	3.0	5.0	0.0	0.0	-2.0	73.0	76.0	77.0	90.0	87.0	970.92	49.0	45.0	-41.0	-848.0
1634986548.729205	1.0	3.0	5.0	0.0	0.0	-1.0	73.0	76.0	78.0	90.0	87.0	970.92	49.0	36.0	-50.0	-932.0
1634986548.841444	0.0	3.0	5.0	0.0	0.0	-1.0	73.0	76.0	79.0	90.0	87.0	970.87	49.0	26.0	-30.0	-978.0
1634986548.939518	0.0	3.0	5.0	0.0	0.0	0.0	73.0	76.0	80.0	90.0	87.0	970.93	49.0	25.0	-52.0	-961.0
1634986549.04121	1.0	3.0	5.0	0.0	0.0	0.0	73.0	76.0	82.0	90.0	87.0	970.98	49.0	27.0	-44.0	-1096.0
1634986549.138155	0.0	3.0	5.0	0.0	0.0	-1.0	73.0	76.0	84.0	90.0	87.0	971.01	49.0	43.0	-60.0	-1260.0
1634986549.236469	1.0	3.0	5.0	0.0	0.0	-3.0	73.0	76.0	89.0	100.0	87.0	971.02	50.0	31.0	-51.0	-1270.0
1634986549.347452	2.0	3.0	5.0	0.0	0.0	-5.0	73.0	76.0	95.0	100.0	87.0	971.0	50.0	33.0	-39.0	-922.0
1634986549.477682	1.0	3.0	5.0	0.0	0.0	-6.0	73.0	76.0	101.0	110.0	87.0	971.07	50.0	25.0	-32.0	-895.0
1634986549.555878	1.0	3.0	5.0	0.0	0.0	-5.0	73.0	76.0	104.0	110.0	87.0	971.15	50.0	34.0	-33.0	-870.0
1634986549.649914	1.0	3.0	5.0	0.0	0.0	-3.0	73.0	76.0	109.0	120.0	87.0	971.24	50.0	29.0	-41.0	-886.0
1634986549.754612	1.0	2.0	5.0	0.0	0.0	-2.0	72.0	76.0	110.0	120.0	87.0	971.17	50.0	37.0	-39.0	-914.0
1634986549.850208	1.0	2.0	5.0	0.0	0.0	-1.0	72.0	76.0	113.0	120.0	87.0	971.19	50.0	35.0	-41.0	-917.0
1634986549.960042	1.0	2.0	5.0	0.0	0.0	-1.0	72.0	76.0	115.0	130.0	87.0	971.23	50.0	31.0	-46.0	-969.0
1634986550.052533	2.0	2.0	5.0	0.0	0.0	0.0	72.0	76.0	116.0	130.0	87.0	971.26	50.0	38.0	-49.0	-949.0
1634986550.154247	2.0	3.0	5.0	0.0	0.0	0.0	72.0	76.0	117.0	130.0	87.0	971.23	50.0	33.0	-49.0	-971.0
1634986550.266325	1.0	3.0	5.0	0.0	0.0	0.0	72.0	76.0	117.0	130.0	87.0	971.29	51.0	22.0	-62.0	-973.0
1634986550.369799	-3.0	3.0	5.0	0.0	0.0	0.0	72.0	76.0	116.0	130.0	87.0	971.26	51.0	22.0	-26.0	-925.0
1634986550.46782	-6.0	2.0	5.0	1.0	0.0	0.0	72.0	76.0	117.0	130.0	87.0	971.29	51.0	20.0	-51.0	-1019.0
1634986550.576106	-6.0	1.0	5.0	3.0	0.0	0.0	72.0	76.0	115.0	130.0	86.0	971.28	51.0	29.0	-56.0	-1054.0
1634986550.662889	-5.0	2.0	5.0	4.0	0.0	0.0	72.0	76.0	114.0	130.0	86.0	971.26	51.0	40.0	-77.0	-1001.0
1634986550.779657	-3.0	3.0	5.0	5.0	0.0	0.0	72.0	76.0	115.0	130.0	86.0	971.26	51.0	-2.0	-50.0	-987.0
1634986550.873373	0.0	4.0	5.0	5.0	0.0	0.0	72.0	76.0	112.0	130.0	86.0	971.28	51.0	-1.0	-47.0	-1033.0
1634986550.973612	2.0	3.0	5.0	5.0	0.0	0.0	72.0	76.0	111.0	130.0	86.0	971.31	51.0	11.0	-49.0	-976.0
1634986551.070653	2.0	3.0	5.0	4.0	0.0	0.0	72.0	76.0	110.0	130.0	86.0	971.35	51.0	17.0	-72.0	-1034.0
1634986551.173383	2.0	3.0	5.0	4.0	0.0	0.0	72.0	76.0	109.0	120.0	86.0	971.35	51.0	34.0	-90.0	-1009.0
1634986551.282732	1.0	4.0	5.0	4.0	0.0	0.0	72.0	76.0	109.0	120.0	86.0	971.38	52.0	19.0	-57.0	-1066.0
1634986551.392074	4.0	4.0	6.0	4.0	0.0	0.0	72.0	76.0	109.0	120.0	86.0	971.35	52.0	27.0	-82.0	-1030.0
1634986551.480398	5.0	1.0	6.0	3.0	0.0	0.0	72.0	76.0	109.0	120.0	86.0	971.31	52.0	20.0	-80.0	-1106.0
1634986551.59624	6.0	0.0	5.0	2.0	0.0	0.0	72.0	76.0	108.0	120.0	86.0	971.31	52.0	25.0	-59.0	-898.0
1634986551.646976	6.0	1.0	5.0	1.0	-1.0	0.0	72.0	76.0	109.0	120.0	86.0	971.3	52.0	40.0	-56.0	-1027.0
1634986551.787656	5.0	3.0	5.0	0.0	-2.0	0.0	74.0	76.0	107.0	120.0	86.0	971.36	52.0	29.0	-69.0	-956.0
1634986551.889998	5.0	3.0	5.0	0.0	-2.0	0.0	74.0	76.0	107.0	120.0	86.0	971.38	52.0	44.0	-65.0	-1011.0
1634986551.99772	5.0	3.0	5.0	0.0	-2.0	0.0	74.0	76.0	106.0	120.0	86.0	971.37	52.0	40.0	-66.0	-936.0
1634986552.095024	5.0	2.0	5.0	0.0	-2.0	0.0	74.0	76.0	105.0	120.0	86.0	971.34	52.0	60.0	-64.0	-1038.0
1634986552.195664	5.0	1.0	5.0	-1.0	-2.0	0.0	74.0	76.0	104.0	120.0	86.0	971.22	53.0	66.0	-56.0	-1014.0
1634986552.305014	5.0	3.0	5.0	-1.0	-2.0	0.0	74.0	76.0	104.0	120.0	86.0	971.18	53.0	64.0	-23.0	-989.0
1634986552.351877	5.0	3.0	5.0	-1.0	-2.0	0.0	74.0	76.0	105.0	120.0	86.0	971.23	53.0	80.0	-34.0	-1018.0
1634986552.454271	5.0	2.0	5.0	-1.0	-1.0	0.0	74.0	76.0	104.0	120.0	86.0	971.27	53.0	78.0	-22.0	-1034.0
1634986552.565236	4.0	2.0	5.0	-1.0	-1.0	0.0	74.0	76.0	105.0	120.0	86.0	971.19	53.0	85.0	-37.0	-1004.0
1634986552.662767	5.0	2.0	5.0	-1.0	-1.0	0.0	74.0	76.0	107.0	120.0	86.0	971.18	53.0	87.0	-29.0	-1008.0
1634986552.76637	6.0	1.0	5.0	-1.0	-1.0	0.0	72.0	75.0	111.0	120.0	86.0	971.22	53.0	74.0	-42.0	-968.0
1634986552.867226	6.0	1.0	5.0	-2.0	-2.0	-1.0	72.0	75.0	113.0	130.0	86.0	971.22	53.0	70.0	-33.0	-982.0
1634986552.960951	6.0	2.0	5.0	-2.0	-2.0	-1.0	72.0	75.0	115.0	130.0	86.0	971.28	53.0	87.0	-52.0	-1010.0
1634986553.068424	5.0	3.0	5.0	-2.0	-2.0	-1.0	72.0	75.0	118.0	130.0	86.0	971.32	53.0	97.0	-24.0	-954.0
1634986553.164137	5.0	2.0	5.0	-3.0	-1.0	-1.0	72.0	75.0	120.0	130.0	86.0	971.32	54.0	78.0	-14.0	-968.0
1634986553.275155	5.0	2.0	5.0	-3.0	-1.0	-1.0	72.0	75.0	124.0	130.0	86.0	971.4	54.0	87.0	-45.0	-982.0
1634986553.375811	5.0	2.0	5.0	-3.0	-1.0	0.0	72.0	75.0	126.0	130.0	86.0	971.38	54.0	91.0	-52.0	-959.0
1634986553.471336	5.0	3.0	6.0	-3.0	-1.0	0.0	72.0	75.0	129.0	140.0	86.0	971.46	54.0	93.0	-51.0	-919.0
1634986553.585203	4.0	2.0	5.0	-3.0	-1.0	0.0	72.0	75.0	131.0	140.0	86.0	971.48	54.0	87.0	-69.0	-970.0
1634986553.694588	2.0	-3.0	5.0	-3.0	-2.0	0.0	72.0	75.0	132.0	140.0	86.0	971.47	54.0	73.0	-39.0	-997.0
1634986553.788312	0.0	-6.0	5.0	-2.0	-3.0	0.0	72.0	76.0	135.0	140.0	86.0	971.5	54.0	75.0	-56.0	-961.0
1634986553.88516	0.0	-6.0	5.0	-1.0	-5.0	0.0	72.0	76.0	122.0	140.0	86.0	971.38	54.0	108.0	-76.0	-946.0
1634986553.986427	1.0	-5.0	5.0	-1.0	-6.0	0.0	72.0	76.0	107.0	140.0	86.0	971.35	54.0	90.0	-38.0	-972.0
1634986554.094437	3.0	-4.0	5.0	0.0	-7.0	0.0	72.0	76.0	103.0	140.0	86.0	971.45	54.0	93.0	-17.0	-963.0
1634986554.19409	3.0	0.0	5.0	0.0	-7.0	0.0	72.0	76.0	100.0	140.0	86.0	971.45	55.0	86.0	-4.0	-997.0
1634986554.283806	3.0	3.0	5.0	-1.0	-7.0	0.0	72.0	76.0	104.0	140.0	86.0	971.47	55.0	79.0	-10.0	-1013.0
1634986554.390162	2.0	4.0	5.0	-1.0	-5.0	0.0	72.0	76.0	132.0	130.0	86.0	971.53	55.0	88.0	0.0	-977.0
1634986554.487325	1.0	6.0	5.0	-1.0	-4.0	0.0	72.0	76.0	138.0	130.0	86.0	971.52	55.0	77.0	9.0	-1001.0
1634986554.604412	0.0	7.0	5.0	0.0	-3.0	0.0	72.0	76.0	123.0	140.0	86.0	971.57	55.0	73.0	-7.0	-1029.0
1634986554.703178	0.0	6.0	5.0	0.0	-2.0	-1.0	72.0	76.0	28.0	140.0	86.0	971.55	55.0	78.0	-11.0	-981.0
