timestamp	pitch	roll	yaw	vgx	vgy	vgz	templ	temph	tof	h	bat	baro	time	agx	agy	agz
1634987529.867593
1634987529.87366	-1.0	-1.0	-2.0	0.0	0.0	0.0	76.0	79.0	10.0	0.0	52.0	971.92	66.0	-26.0	22.0	-1001.0
1634987529.972544	-1.0	-1.0	-2.0	0.0	0.0	0.0	76.0	79.0	10.0	0.0	52.0	971.88	66.0	-24.0	20.0	-999.0
1634987530.069253	-1.0	-1.0	-2.0	0.0	0.0	0.0	76.0	79.0	10.0	0.0	52.0	971.9	66.0	-26.0	22.0	-997.0
1634987530.174905	-1.0	-1.0	-2.0	0.0	0.0	0.0	76.0	79.0	10.0	0.0	52.0	971.88	66.0	-26.0	22.0	-997.0
1634987530.279299	-1.0	-1.0	-2.0	0.0	0.0	0.0	76.0	79.0	10.0	0.0	52.0	971.91	66.0	-26.0	23.0	-999.0
1634987530.3735	-1.0	-1.0	-2.0	0.0	0.0	0.0	76.0	79.0	10.0	0.0	52.0	971.88	66.0	-25.0	23.0	-997.0
1634987530.485381	-1.0	-1.0	-2.0	0.0	0.0	0.0	76.0	79.0	10.0	0.0	52.0	971.95	66.0	-24.0	22.0	-1000.0
1634987530.584346	-1.0	-1.0	-2.0	0.0	0.0	0.0	76.0	79.0	10.0	0.0	52.0	971.93	66.0	-24.0	22.0	-996.0
1634987530.689572	-1.0	-1.0	-2.0	0.0	0.0	0.0	76.0	79.0	10.0	0.0	52.0	971.94	66.0	-26.0	23.0	-999.0
1634987530.790872	-1.0	-1.0	-2.0	0.0	0.0	0.0	76.0	79.0	10.0	0.0	52.0	971.95	66.0	-25.0	22.0	-999.0
1634987530.842047	-1.0	-1.0	-2.0	0.0	0.0	0.0	76.0	79.0	10.0	0.0	52.0	971.93	66.0	-27.0	23.0	-997.0
1634987530.943716	-1.0	-1.0	-2.0	0.0	0.0	0.0	76.0	79.0	10.0	0.0	52.0	971.93	66.0	-26.0	22.0	-1000.0
1634987531.045083	-1.0	-1.0	-2.0	0.0	0.0	0.0	76.0	79.0	10.0	0.0	52.0	971.94	66.0	-24.0	22.0	-999.0
1634987531.147775	-1.0	-1.0	-2.0	0.0	0.0	0.0	76.0	79.0	10.0	0.0	52.0	971.91	66.0	-24.0	23.0	-997.0
1634987531.248941	-1.0	-1.0	-2.0	0.0	0.0	0.0	76.0	79.0	10.0	0.0	52.0	971.91	66.0	-23.0	22.0	-998.0
1634987531.350944	-1.0	-1.0	-2.0	0.0	0.0	0.0	76.0	79.0	10.0	0.0	52.0	971.98	66.0	-25.0	22.0	-1000.0
1634987531.440476	-1.0	-1.0	-2.0	0.0	0.0	0.0	76.0	79.0	10.0	0.0	52.0	971.96	66.0	-23.0	22.0	-1000.0
1634987531.547367	-1.0	-1.0	-2.0	0.0	0.0	0.0	76.0	79.0	10.0	0.0	52.0	971.9	66.0	-25.0	21.0	-998.0
1634987531.658507	-1.0	-1.0	-2.0	0.0	0.0	0.0	76.0	79.0	10.0	0.0	52.0	971.99	66.0	-26.0	22.0	-998.0
1634987531.760769	-1.0	-1.0	-2.0	0.0	0.0	0.0	76.0	79.0	10.0	0.0	52.0	971.98	66.0	-26.0	23.0	-999.0
1634987531.851401	-1.0	-1.0	-2.0	0.0	0.0	0.0	76.0	79.0	10.0	0.0	52.0	971.96	66.0	-25.0	21.0	-997.0
1634987531.964279	-1.0	-1.0	-2.0	0.0	0.0	0.0	76.0	79.0	10.0	0.0	52.0	971.94	66.0	-25.0	23.0	-999.0
1634987532.051529	-1.0	-1.0	-2.0	0.0	0.0	0.0	76.0	79.0	10.0	0.0	52.0	971.94	66.0	-25.0	22.0	-998.0
1634987532.168326	-1.0	-1.0	-2.0	0.0	0.0	0.0	76.0	79.0	10.0	0.0	52.0	971.91	66.0	-27.0	23.0	-999.0
1634987532.266631	-1.0	-1.0	-2.0	0.0	0.0	0.0	76.0	79.0	10.0	0.0	52.0	971.95	66.0	-26.0	22.0	-997.0
1634987532.36498	-1.0	-1.0	-2.0	0.0	0.0	0.0	76.0	79.0	10.0	0.0	52.0	972.02	66.0	-25.0	22.0	-1000.0
1634987532.473136	-1.0	-1.0	-2.0	0.0	0.0	0.0	76.0	79.0	10.0	0.0	52.0	971.99	66.0	-25.0	21.0	-998.0
1634987532.572427	-1.0	-1.0	-2.0	0.0	0.0	0.0	76.0	79.0	10.0	0.0	52.0	971.98	66.0	-25.0	23.0	-997.0
1634987532.667714	-1.0	-1.0	-2.0	0.0	0.0	0.0	76.0	79.0	10.0	0.0	52.0	972.01	66.0	-24.0	21.0	-999.0
1634987532.780401	-1.0	-1.0	-2.0	0.0	0.0	0.0	76.0	79.0	10.0	0.0	52.0	972.02	66.0	-24.0	22.0	-996.0
1634987532.878812	-1.0	-1.0	-2.0	0.0	0.0	0.0	76.0	79.0	10.0	0.0	52.0	971.99	66.0	-25.0	22.0	-999.0
1634987532.984324	-1.0	-1.0	-2.0	0.0	0.0	0.0	76.0	79.0	10.0	0.0	52.0	972.06	66.0	-26.0	23.0	-999.0
1634987533.086094	-1.0	-1.0	-2.0	0.0	0.0	0.0	76.0	79.0	10.0	0.0	52.0	972.04	66.0	-26.0	22.0	-997.0
1634987533.188058	-1.0	-1.0	-2.0	0.0	0.0	0.0	76.0	79.0	10.0	0.0	52.0	972.06	66.0	-24.0	22.0	-999.0
1634987533.283723	-1.0	-1.0	-2.0	0.0	0.0	0.0	76.0	79.0	10.0	0.0	52.0	971.98	66.0	-25.0	20.0	-997.0
1634987533.383173	-1.0	-1.0	-2.0	0.0	0.0	0.0	76.0	79.0	10.0	0.0	52.0	971.99	66.0	-29.0	19.0	-998.0
1634987533.494255	-1.0	-1.0	-2.0	0.0	0.0	0.0	76.0	79.0	10.0	0.0	52.0	971.99	66.0	-30.0	23.0	-1006.0
1634987533.591833	-1.0	-1.0	-2.0	0.0	0.0	0.0	76.0	79.0	10.0	0.0	52.0	971.99	66.0	-31.0	22.0	-1000.0
1634987533.698963	-1.0	-1.0	-2.0	0.0	0.0	0.0	77.0	80.0	10.0	0.0	52.0	971.99	66.0	-31.0	15.0	-970.0
1634987533.796869	-1.0	-1.0	-2.0	0.0	0.0	0.0	77.0	80.0	10.0	0.0	52.0	971.99	67.0	-57.0	0.0	-1055.0
1634987533.894014	-1.0	-1.0	-1.0	0.0	0.0	0.0	77.0	80.0	10.0	0.0	52.0	971.99	67.0	-16.0	14.0	-984.0
1634987533.993923	0.0	-1.0	-1.0	0.0	0.0	0.0	77.0	80.0	10.0	0.0	52.0	971.99	67.0	31.0	-23.0	-1139.0
1634987534.094314	0.0	0.0	-1.0	0.0	0.0	-1.0	77.0	80.0	10.0	0.0	52.0	971.99	67.0	32.0	-6.0	-1279.0
1634987534.209486	1.0	0.0	-1.0	0.0	0.0	-4.0	77.0	80.0	10.0	0.0	52.0	971.99	67.0	-71.0	-31.0	-1245.0
1634987534.309557	0.0	1.0	-1.0	0.0	0.0	-6.0	77.0	80.0	15.0	0.0	52.0	972.37	67.0	7.0	-17.0	-1121.0
1634987534.41215	0.0	2.0	-1.0	0.0	0.0	-7.0	77.0	80.0	23.0	10.0	52.0	972.59	67.0	-6.0	-34.0	-1053.0
1634987534.515286	0.0	2.0	-1.0	0.0	0.0	-7.0	77.0	80.0	32.0	10.0	52.0	972.57	67.0	6.0	-47.0	-1007.0
1634987534.556113	0.0	2.0	-1.0	0.0	0.0	-7.0	77.0	80.0	38.0	20.0	52.0	972.67	67.0	-18.0	-36.0	-967.0
1634987534.791488	0.0	3.0	-1.0	0.0	0.0	-6.0	77.0	80.0	46.0	30.0	52.0	972.71	68.0	-23.0	-27.0	-953.0
1634987534.82232	0.0	3.0	-2.0	0.0	0.0	-5.0	77.0	80.0	54.0	40.0	52.0	972.74	68.0	4.0	-29.0	-882.0
1634987535.016375	0.0	2.0	-1.0	0.0	0.0	-4.0	77.0	80.0	59.0	40.0	52.0	972.84	68.0	12.0	-38.0	-888.0
1634987535.016375	0.0	1.0	-1.0	0.0	0.0	-3.0	77.0	80.0	64.0	50.0	52.0	972.86	68.0	32.0	-16.0	-883.0
1634987535.159716	1.0	0.0	-1.0	0.0	0.0	-2.0	77.0	80.0	68.0	50.0	52.0	972.89	68.0	36.0	-10.0	-900.0
1634987535.325927	2.0	0.0	-1.0	0.0	0.0	-1.0	77.0	80.0	71.0	50.0	52.0	972.93	68.0	38.0	-19.0	-939.0
1634987535.325927	2.0	0.0	-1.0	0.0	0.0	-1.0	77.0	80.0	74.0	50.0	52.0	972.91	68.0	52.0	-34.0	-937.0
1634987535.377248	3.0	0.0	-1.0	0.0	0.0	0.0	77.0	80.0	76.0	50.0	52.0	973.03	68.0	25.0	-20.0	-953.0
1634987535.486549	2.0	0.0	-1.0	0.0	0.0	0.0	77.0	80.0	77.0	60.0	52.0	972.98	68.0	31.0	-20.0	-977.0
1634987535.641162	2.0	1.0	-1.0	0.0	0.0	0.0	77.0	80.0	79.0	60.0	52.0	973.03	68.0	38.0	-15.0	-994.0
1634987535.776687	2.0	0.0	-1.0	0.0	0.0	0.0	77.0	80.0	80.0	60.0	52.0	973.0	69.0	32.0	-12.0	-969.0
1634987535.792312	3.0	0.0	-1.0	0.0	0.0	0.0	77.0	80.0	81.0	60.0	52.0	973.01	69.0	37.0	-5.0	-1002.0
1634987535.940961	2.0	1.0	-1.0	0.0	0.0	0.0	77.0	80.0	82.0	60.0	52.0	973.12	69.0	41.0	-66.0	-976.0
1634987536.084283	2.0	1.0	-1.0	0.0	0.0	0.0	77.0	80.0	82.0	60.0	52.0	973.09	69.0	3.0	-30.0	-972.0
1634987536.097811	1.0	2.0	-1.0	0.0	0.0	0.0	77.0	80.0	82.0	60.0	52.0	973.16	69.0	20.0	-72.0	-985.0
1634987536.249132	0.0	2.0	-1.0	0.0	0.0	0.0	77.0	80.0	81.0	60.0	52.0	973.14	69.0	18.0	-35.0	-987.0
1634987536.402829	0.0	2.0	-1.0	0.0	0.0	0.0	77.0	80.0	81.0	60.0	52.0	973.11	69.0	16.0	-53.0	-971.0
1634987536.404151	0.0	2.0	-1.0	0.0	0.0	0.0	77.0	80.0	80.0	60.0	52.0	973.08	69.0	6.0	-48.0	-965.0
1634987536.507081	0.0	2.0	-1.0	0.0	0.0	0.0	77.0	80.0	79.0	60.0	52.0	973.0	69.0	-1.0	-35.0	-977.0
1634987536.594261	0.0	2.0	-1.0	0.0	0.0	0.0	77.0	80.0	79.0	60.0	52.0	973.01	69.0	0.0	-41.0	-1016.0
1634987536.706592	0.0	1.0	-1.0	0.0	0.0	0.0	76.0	80.0	76.0	60.0	52.0	973.11	70.0	6.0	-48.0	-997.0
1634987536.805883	0.0	1.0	-1.0	0.0	0.0	0.0	76.0	80.0	76.0	60.0	52.0	973.04	70.0	-16.0	-36.0	-1005.0
1634987536.901244	0.0	1.0	-1.0	0.0	0.0	0.0	76.0	80.0	75.0	60.0	52.0	973.02	70.0	1.0	-47.0	-986.0
1634987537.017111	0.0	2.0	-1.0	0.0	0.0	0.0	76.0	80.0	74.0	60.0	52.0	972.99	70.0	7.0	-36.0	-1000.0
1634987537.118783	0.0	2.0	-1.0	0.0	0.0	0.0	76.0	80.0	73.0	60.0	52.0	972.99	70.0	15.0	-51.0	-1000.0
1634987537.220159	0.0	2.0	-1.0	0.0	0.0	0.0	76.0	80.0	72.0	60.0	52.0	973.01	70.0	5.0	-46.0	-974.0
1634987537.322921	0.0	2.0	-1.0	0.0	0.0	0.0	76.0	80.0	71.0	60.0	52.0	972.97	70.0	10.0	-49.0	-1008.0
1634987537.423685	0.0	1.0	-1.0	0.0	0.0	0.0	76.0	80.0	70.0	60.0	52.0	972.98	70.0	-8.0	-45.0	-1025.0
1634987537.527515	0.0	1.0	-1.0	0.0	0.0	0.0	76.0	80.0	69.0	50.0	52.0	972.94	70.0	-14.0	-31.0	-993.0
1634987537.6252	0.0	2.0	-1.0	0.0	0.0	0.0	76.0	80.0	68.0	50.0	52.0	972.93	70.0	6.0	-46.0	-1048.0
1634987537.716507	0.0	1.0	-1.0	0.0	0.0	0.0	77.0	80.0	67.0	50.0	52.0	972.89	71.0	-19.0	-14.0	-992.0
1634987537.817775	0.0	1.0	-1.0	0.0	0.0	0.0	77.0	80.0	66.0	50.0	52.0	972.94	71.0	-1.0	-40.0	-1163.0
1634987537.929773	0.0	1.0	-1.0	0.0	0.0	-2.0	77.0	80.0	66.0	50.0	52.0	973.01	71.0	-12.0	-40.0	-1245.0
1634987538.036728	0.0	1.0	-1.0	0.0	0.0	-4.0	77.0	80.0	68.0	50.0	52.0	972.91	71.0	-21.0	-15.0	-978.0
1634987538.131899	0.0	0.0	-1.0	0.0	0.0	-3.0	77.0	80.0	69.0	60.0	52.0	972.99	71.0	-12.0	-22.0	-945.0
1634987538.230208	0.0	1.0	-1.0	0.0	0.0	-2.0	77.0	80.0	71.0	60.0	52.0	973.03	71.0	-23.0	-21.0	-916.0
1634987538.331378	0.0	1.0	-1.0	0.0	0.0	-2.0	77.0	80.0	71.0	60.0	52.0	973.03	71.0	9.0	-29.0	-906.0
1634987538.444086	0.0	2.0	-1.0	0.0	0.0	-1.0	77.0	80.0	70.0	60.0	52.0	972.99	71.0	1.0	-24.0	-964.0
1634987538.547018	0.0	1.0	-1.0	0.0	0.0	0.0	77.0	80.0	70.0	60.0	52.0	973.03	71.0	11.0	-33.0	-956.0
1634987538.639835	0.0	0.0	-1.0	0.0	0.0	0.0	77.0	80.0	68.0	60.0	52.0	973.11	71.0	9.0	-50.0	-1129.0
1634987538.738728	1.0	1.0	-1.0	0.0	0.0	-2.0	77.0	79.0	69.0	60.0	52.0	973.03	72.0	3.0	-44.0	-1180.0
1634987538.853111	1.0	2.0	-1.0	0.0	0.0	-4.0	77.0	79.0	71.0	70.0	52.0	973.0	72.0	-5.0	-50.0	-1075.0
1634987538.942266	0.0	2.0	-1.0	0.0	0.0	-3.0	77.0	79.0	73.0	70.0	52.0	972.99	72.0	-13.0	-38.0	-907.0
1634987539.04236	0.0	2.0	-1.0	0.0	0.0	-3.0	77.0	79.0	74.0	70.0	52.0	972.96	72.0	-12.0	-50.0	-929.0
1634987539.15449	0.0	2.0	-1.0	0.0	0.0	-2.0	77.0	79.0	76.0	70.0	52.0	973.1	72.0	-5.0	-47.0	-923.0
1634987539.247803	0.0	2.0	-1.0	0.0	0.0	-1.0	77.0	79.0	76.0	70.0	52.0	973.02	72.0	-14.0	-51.0	-926.0
1634987539.34898	0.0	2.0	-1.0	0.0	0.0	0.0	77.0	79.0	76.0	70.0	52.0	973.01	72.0	12.0	-61.0	-985.0
1634987539.461126	0.0	2.0	-1.0	0.0	0.0	-1.0	77.0	79.0	76.0	70.0	52.0	973.13	72.0	-25.0	-36.0	-1178.0
1634987539.554455	0.0	3.0	-1.0	0.0	0.0	-3.0	77.0	79.0	78.0	70.0	52.0	973.02	72.0	-32.0	-19.0	-1188.0
1634987539.604761	0.0	1.0	-1.0	0.0	0.0	-4.0	77.0	79.0	80.0	70.0	52.0	973.0	72.0	-31.0	-34.0	-956.0
1634987539.759234	0.0	1.0	-1.0	0.0	0.0	-3.0	76.0	79.0	82.0	80.0	52.0	973.04	73.0	-23.0	-40.0	-921.0
1634987539.860439	-1.0	2.0	-1.0	0.0	0.0	-2.0	76.0	79.0	83.0	80.0	52.0	973.01	73.0	-23.0	-41.0	-915.0
1634987539.960487	-1.0	2.0	-1.0	0.0	0.0	-2.0	76.0	79.0	83.0	80.0	52.0	973.07	73.0	-18.0	-46.0	-923.0
1634987540.07357	-1.0	2.0	-1.0	0.0	0.0	-1.0	76.0	79.0	84.0	80.0	52.0	973.12	73.0	-15.0	-35.0	-947.0
1634987540.126005	-1.0	2.0	-1.0	0.0	0.0	-1.0	76.0	79.0	84.0	80.0	52.0	973.16	73.0	-17.0	-40.0	-1070.0
1634987540.228074	-1.0	2.0	-2.0	0.0	0.0	-2.0	76.0	79.0	84.0	80.0	52.0	973.14	73.0	8.0	-48.0	-1321.0
1634987540.326612	0.0	1.0	-3.0	0.0	0.0	-3.0	76.0	79.0	85.0	90.0	52.0	973.1	73.0	-9.0	-35.0	-938.0
1634987540.431951	0.0	1.0	-3.0	0.0	0.0	-2.0	76.0	79.0	87.0	90.0	52.0	973.19	73.0	-27.0	-15.0	-921.0
1634987540.523586	0.0	1.0	-4.0	0.0	0.0	-1.0	76.0	79.0	85.0	90.0	52.0	973.13	73.0	-29.0	-13.0	-942.0
1634987540.636125	0.0	1.0	-5.0	0.0	0.0	-1.0	76.0	79.0	86.0	90.0	52.0	973.18	73.0	-22.0	-42.0	-942.0
1634987540.727721	-1.0	0.0	-6.0	0.0	0.0	0.0	77.0	80.0	85.0	90.0	52.0	973.19	74.0	-7.0	-20.0	-951.0
1634987540.839889	-1.0	0.0	-7.0	0.0	0.0	0.0	77.0	80.0	84.0	90.0	52.0	973.1	74.0	-30.0	-13.0	-938.0
1634987540.935712	0.0	1.0	-7.0	0.0	0.0	-2.0	77.0	80.0	85.0	90.0	52.0	973.2	74.0	-11.0	-16.0	-1060.0
1634987541.037216	0.0	1.0	-7.0	0.0	0.0	-4.0	77.0	80.0	88.0	100.0	52.0	973.15	74.0	8.0	-19.0	-1162.0
1634987541.150896	1.0	0.0	-7.0	0.0	0.0	-5.0	77.0	80.0	91.0	100.0	52.0	973.22	74.0	-30.0	-27.0	-1199.0
1634987541.246349	0.0	1.0	-7.0	0.0	0.0	-4.0	77.0	80.0	95.0	100.0	52.0	973.24	74.0	-17.0	-49.0	-1021.0
1634987541.352593	0.0	2.0	-7.0	0.0	0.0	-3.0	77.0	80.0	96.0	110.0	52.0	973.25	74.0	-39.0	-50.0	-905.0
1634987541.439216	-1.0	2.0	-7.0	0.0	0.0	-2.0	77.0	80.0	97.0	110.0	52.0	973.21	74.0	-38.0	-32.0	-951.0
1634987541.555101	-1.0	2.0	-7.0	0.0	0.0	-1.0	77.0	80.0	98.0	110.0	52.0	973.17	74.0	-12.0	-57.0	-887.0
1634987541.644111	-1.0	3.0	-7.0	0.0	0.0	-1.0	77.0	80.0	97.0	110.0	52.0	973.2	74.0	-19.0	-59.0	-913.0
1634987541.75816	-1.0	3.0	-7.0	0.0	0.0	0.0	77.0	79.0	97.0	110.0	52.0	973.23	75.0	-41.0	-36.0	-964.0
1634987541.84885	-1.0	2.0	-7.0	0.0	0.0	0.0	77.0	79.0	96.0	110.0	52.0	973.14	75.0	-55.0	-40.0	-1014.0
1634987541.959619	-1.0	2.0	-7.0	0.0	0.0	0.0	77.0	79.0	95.0	110.0	52.0	973.13	75.0	-32.0	-35.0	-991.0
1634987542.056542	-2.0	1.0	-7.0	0.0	0.0	0.0	77.0	79.0	94.0	110.0	52.0	973.1	75.0	-24.0	-45.0	-993.0
1634987542.161393	-5.0	2.0	-7.0	0.0	0.0	0.0	77.0	79.0	92.0	110.0	52.0	973.11	75.0	-51.0	-34.0	-978.0
1634987542.259986	-5.0	0.0	-7.0	0.0	0.0	0.0	77.0	79.0	92.0	110.0	52.0	973.1	75.0	-44.0	-43.0	-1002.0
1634987542.369423	-5.0	0.0	-7.0	1.0	0.0	0.0	77.0	79.0	91.0	110.0	52.0	973.04	75.0	-64.0	-33.0	-981.0
1634987542.45981	-5.0	0.0	-7.0	1.0	-1.0	0.0	77.0	79.0	89.0	110.0	52.0	973.01	75.0	-39.0	-58.0	-1003.0
1634987542.565223	-5.0	0.0	-7.0	1.0	-1.0	0.0	77.0	79.0	90.0	110.0	52.0	973.16	75.0	-51.0	-38.0	-978.0
1634987542.664598	-5.0	0.0	-7.0	2.0	-1.0	0.0	77.0	79.0	89.0	100.0	52.0	973.17	75.0	-57.0	-58.0	-975.0
1634987542.7806	-5.0	0.0	-7.0	2.0	-2.0	0.0	76.0	79.0	89.0	100.0	52.0	973.08	76.0	-60.0	-128.0	-998.0
1634987542.878222	-5.0	0.0	-7.0	2.0	-2.0	0.0	76.0	79.0	88.0	100.0	52.0	972.99	76.0	-61.0	-51.0	-1019.0
1634987542.984842	-5.0	1.0	-7.0	3.0	-3.0	0.0	76.0	79.0	88.0	100.0	52.0	972.91	76.0	-40.0	-47.0	-1009.0
1634987543.07292	-5.0	2.0	-7.0	3.0	-3.0	0.0	76.0	79.0	89.0	100.0	52.0	972.93	76.0	-46.0	-18.0	-1005.0
1634987543.185401	-5.0	2.0	-7.0	4.0	-2.0	0.0	76.0	79.0	88.0	100.0	52.0	972.86	76.0	-61.0	-28.0	-1015.0
1634987543.290439	-4.0	2.0	-7.0	4.0	-2.0	0.0	76.0	79.0	90.0	100.0	52.0	972.86	76.0	-49.0	-29.0	-1014.0
1634987543.390305	-4.0	3.0	-7.0	4.0	-2.0	0.0	76.0	79.0	91.0	100.0	52.0	972.9	76.0	-41.0	-29.0	-996.0
1634987543.488644	-4.0	3.0	-7.0	5.0	-2.0	0.0	76.0	79.0	92.0	100.0	52.0	972.91	76.0	-69.0	-42.0	-993.0
1634987543.596259	-3.0	4.0	-7.0	5.0	-1.0	0.0	76.0	79.0	92.0	100.0	52.0	972.92	76.0	-34.0	-30.0	-988.0
1634987543.698861	-1.0	4.0	-7.0	5.0	-1.0	0.0	76.0	79.0	94.0	100.0	52.0	972.76	76.0	-49.0	-29.0	-981.0
1634987543.78556	0.0	2.0	-7.0	5.0	0.0	0.0	75.0	80.0	95.0	100.0	52.0	972.9	77.0	-46.0	-19.0	-1020.0
1634987543.902899	0.0	2.0	-7.0	4.0	0.0	0.0	75.0	80.0	96.0	110.0	52.0	972.9	77.0	-57.0	-7.0	-983.0
1634987544.001159	0.0	1.0	-7.0	4.0	0.0	0.0	75.0	80.0	95.0	110.0	52.0	972.9	77.0	-32.0	-19.0	-986.0
1634987544.096412	0.0	1.0	-7.0	4.0	0.0	0.0	75.0	80.0	97.0	110.0	52.0	973.03	77.0	-43.0	-6.0	-981.0
1634987544.197592	0.0	1.0	-7.0	4.0	0.0	0.0	75.0	80.0	98.0	110.0	52.0	973.0	77.0	-33.0	-16.0	-1013.0
1634987544.302796	1.0	1.0	-7.0	3.0	0.0	0.0	75.0	80.0	98.0	110.0	52.0	972.95	77.0	-44.0	-20.0	-1064.0
1634987544.349817	-2.0	1.0	-7.0	3.0	0.0	0.0	75.0	80.0	99.0	110.0	52.0	972.99	77.0	-10.0	-12.0	-937.0
1634987544.463935	-5.0	1.0	-7.0	4.0	0.0	0.0	75.0	80.0	99.0	110.0	52.0	972.95	77.0	0.0	-21.0	-966.0
1634987544.550159	-1.0	1.0	-7.0	4.0	0.0	0.0	75.0	80.0	100.0	110.0	52.0	973.0	77.0	-23.0	-11.0	-996.0
1634987544.661299	0.0	1.0	-7.0	5.0	0.0	0.0	75.0	80.0	100.0	110.0	52.0	972.87	77.0	-23.0	-8.0	-984.0
1634987544.759943	2.0	0.0	-7.0	4.0	0.0	0.0	76.0	80.0	100.0	110.0	52.0	972.91	78.0	-34.0	-29.0	-996.0
1634987544.863301	1.0	0.0	-7.0	3.0	0.0	0.0	76.0	80.0	101.0	110.0	52.0	972.88	78.0	-6.0	-37.0	-1001.0
1634987544.974001	0.0	1.0	-6.0	2.0	0.0	0.0	76.0	80.0	100.0	110.0	52.0	972.89	78.0	-34.0	-4.0	-1040.0
1634987545.075842	0.0	1.0	-7.0	2.0	0.0	0.0	76.0	80.0	99.0	110.0	52.0	972.98	78.0	-36.0	-7.0	-956.0
1634987545.176246	0.0	1.0	-7.0	2.0	0.0	0.0	76.0	80.0	99.0	110.0	52.0	972.99	78.0	-33.0	-27.0	-982.0
1634987545.276579	-1.0	1.0	-7.0	2.0	0.0	0.0	76.0	80.0	97.0	110.0	52.0	972.92	78.0	-24.0	-20.0	-1024.0
1634987545.373971	-6.0	0.0	-7.0	2.0	0.0	0.0	76.0	80.0	97.0	110.0	52.0	972.9	78.0	-24.0	-26.0	-976.0
1634987545.478895	-6.0	0.0	-7.0	3.0	0.0	0.0	76.0	80.0	95.0	110.0	52.0	972.84	78.0	-32.0	-44.0	-972.0
1634987545.585329	-5.0	0.0	-7.0	4.0	0.0	0.0	76.0	80.0	95.0	110.0	52.0	972.86	78.0	-38.0	-21.0	-1027.0
1634987545.68623	-5.0	2.0	-7.0	5.0	0.0	0.0	76.0	80.0	95.0	110.0	52.0	972.67	78.0	-46.0	-42.0	-965.0
1634987545.776844	-1.0	1.0	-7.0	5.0	0.0	0.0	76.0	79.0	92.0	110.0	52.0	972.65	79.0	-69.0	-22.0	-1005.0
1634987545.887917	0.0	2.0	-7.0	4.0	0.0	0.0	76.0	79.0	93.0	110.0	52.0	972.56	79.0	-76.0	-16.0	-1020.0
1634987545.992191	0.0	1.0	-7.0	4.0	0.0	0.0	76.0	79.0	92.0	110.0	52.0	972.7	79.0	-35.0	-14.0	-997.0
1634987546.087806	-4.0	0.0	-7.0	4.0	0.0	0.0	76.0	79.0	92.0	110.0	52.0	972.73	79.0	-61.0	14.0	-1014.0
1634987546.187773	-5.0	0.0	-7.0	4.0	0.0	0.0	76.0	79.0	93.0	110.0	52.0	972.63	79.0	-47.0	-13.0	-985.0
1634987546.287232	-5.0	0.0	-7.0	5.0	0.0	0.0	76.0	79.0	92.0	100.0	52.0	972.62	79.0	-64.0	1.0	-1012.0
1634987546.401059	-5.0	0.0	-7.0	5.0	0.0	0.0	76.0	79.0	92.0	110.0	52.0	972.57	79.0	-80.0	8.0	-1066.0
1634987546.559095	-5.0	0.0	-7.0	6.0	0.0	0.0	76.0	79.0	93.0	110.0	52.0	972.73	79.0	-66.0	0.0	-1025.0
1634987546.703053	-5.0	0.0	-7.0	6.0	0.0	0.0	76.0	79.0	92.0	110.0	52.0	972.52	79.0	-70.0	-6.0	-966.0
1634987546.703053	-5.0	0.0	-7.0	6.0	0.0	0.0	76.0	79.0	92.0	110.0	52.0	972.58	80.0	-64.0	1.0	-973.0
1634987546.854573	-5.0	0.0	-7.0	7.0	0.0	0.0	75.0	78.0	92.0	110.0	52.0	972.66	80.0	-54.0	0.0	-998.0
1634987546.988865	-5.0	0.0	-7.0	7.0	0.0	0.0	75.0	78.0	91.0	110.0	52.0	972.64	80.0	-51.0	-11.0	-975.0
1634987547.004478	-5.0	0.0	-7.0	7.0	0.0	0.0	75.0	78.0	90.0	110.0	52.0	972.46	80.0	-74.0	25.0	-976.0
1634987547.106847	-5.0	0.0	-6.0	8.0	0.0	0.0	75.0	78.0	89.0	100.0	52.0	972.54	80.0	-71.0	26.0	-1014.0
1634987547.315831	-5.0	0.0	-6.0	8.0	0.0	0.0	75.0	78.0	88.0	100.0	52.0	972.49	80.0	-42.0	5.0	-1077.0
1634987547.315831	-5.0	0.0	-7.0	9.0	0.0	0.0	75.0	78.0	86.0	100.0	52.0	972.46	80.0	-53.0	21.0	-1086.0
1634987547.453737	-5.0	0.0	-7.0	9.0	0.0	0.0	75.0	78.0	84.0	100.0	52.0	972.33	80.0	-75.0	30.0	-988.0
1634987547.619116	-5.0	-1.0	-7.0	9.0	0.0	0.0	75.0	78.0	81.0	100.0	52.0	972.32	80.0	-54.0	3.0	-969.0
1634987547.619116	-5.0	-1.0	-7.0	10.0	0.0	0.0	75.0	78.0	81.0	100.0	52.0	972.35	80.0	-64.0	20.0	-973.0
1634987547.763625	-5.0	-1.0	-7.0	10.0	0.0	0.0	75.0	78.0	78.0	100.0	52.0	972.33	81.0	-45.0	-2.0	-969.0
1634987547.929336	-5.0	-1.0	-7.0	10.0	0.0	0.0	75.0	79.0	76.0	100.0	52.0	972.31	81.0	-56.0	19.0	-1018.0
1634987547.929336	-3.0	-3.0	-7.0	11.0	0.0	0.0	75.0	79.0	73.0	100.0	52.0	972.23	81.0	-71.0	8.0	-1016.0
1634987548.063738	0.0	-2.0	-7.0	10.0	0.0	0.0	75.0	79.0	71.0	100.0	52.0	972.31	81.0	-59.0	16.0	-1006.0
1634987548.124966	2.0	-2.0	-7.0	10.0	0.0	0.0	75.0	79.0	68.0	100.0	52.0	972.14	81.0	-36.0	20.0	-1018.0
1634987548.18738	3.0	-2.0	-7.0	9.0	0.0	0.0	75.0	79.0	65.0	100.0	52.0	972.4	81.0	-54.0	14.0	-991.0
1634987548.287592	3.0	-1.0	-7.0	8.0	0.0	0.0	75.0	79.0	63.0	100.0	52.0	972.4	81.0	-44.0	13.0	-976.0
1634987548.39171	3.0	-1.0	-7.0	7.0	0.0	0.0	75.0	79.0	61.0	100.0	52.0	972.33	81.0	-42.0	3.0	-1045.0
1634987548.49366	3.0	-1.0	-7.0	6.0	0.0	0.0	75.0	79.0	58.0	100.0	52.0	972.35	81.0	-39.0	21.0	-997.0
1634987548.593592	2.0	-1.0	-7.0	5.0	0.0	0.0	75.0	79.0	57.0	100.0	52.0	972.28	81.0	-33.0	4.0	-1006.0
1634987548.697567	2.0	0.0	-7.0	5.0	0.0	0.0	75.0	79.0	54.0	100.0	52.0	972.34	82.0	-19.0	2.0	-1018.0
1634987548.845439	2.0	0.0	-7.0	4.0	0.0	0.0	75.0	78.0	51.0	100.0	52.0	972.14	82.0	-29.0	-31.0	-984.0
1634987548.94237	1.0	0.0	-7.0	4.0	0.0	0.0	75.0	78.0	49.0	100.0	52.0	972.19	82.0	-47.0	21.0	-1040.0
1634987549.03899	1.0	0.0	-7.0	3.0	0.0	0.0	75.0	78.0	47.0	100.0	52.0	972.29	82.0	-40.0	6.0	-1000.0
1634987549.093501	0.0	-1.0	-7.0	3.0	0.0	0.0	75.0	78.0	45.0	100.0	52.0	972.29	82.0	-32.0	17.0	-1032.0
1634987549.207572	0.0	-1.0	-7.0	3.0	0.0	0.0	75.0	78.0	43.0	100.0	52.0	972.19	82.0	-48.0	19.0	-1112.0
1634987549.306523	0.0	-1.0	-7.0	3.0	0.0	-1.0	75.0	78.0	41.0	100.0	52.0	972.25	82.0	-33.0	25.0	-988.0
1634987549.411532	0.0	-1.0	-7.0	2.0	0.0	0.0	75.0	78.0	38.0	100.0	52.0	972.26	82.0	-31.0	37.0	-1006.0
1634987549.509894	0.0	-1.0	-7.0	2.0	0.0	0.0	75.0	78.0	36.0	100.0	52.0	972.15	82.0	3.0	15.0	-949.0
1634987549.608597	0.0	-1.0	-7.0	2.0	0.0	0.0	75.0	78.0	32.0	100.0	52.0	972.07	82.0	-29.0	34.0	-1054.0
1634987549.703855	0.0	-2.0	-7.0	2.0	0.0	0.0	75.0	78.0	29.0	100.0	52.0	971.98	83.0	-17.0	21.0	-1047.0
1634987549.816573	0.0	-1.0	-7.0	2.0	0.0	0.0	75.0	78.0	25.0	90.0	52.0	972.03	83.0	-32.0	16.0	-1072.0
1634987549.911878	0.0	-1.0	-7.0	2.0	0.0	-1.0	75.0	78.0	23.0	90.0	52.0	972.01	83.0	-17.0	26.0	-1185.0
1634987550.011662	0.0	-1.0	-7.0	1.0	0.0	-3.0	75.0	78.0	24.0	90.0	52.0	971.98	83.0	-19.0	21.0	-1192.0
1634987550.12102	1.0	-1.0	-7.0	1.0	0.0	-5.0	75.0	78.0	25.0	90.0	51.0	972.0	83.0	-25.0	24.0	-1166.0
1634987550.222066	2.0	0.0	-7.0	1.0	0.0	-6.0	75.0	78.0	30.0	100.0	51.0	972.06	83.0	-30.0	18.0	-1118.0
1634987550.322484	2.0	0.0	-7.0	0.0	0.0	-8.0	75.0	78.0	34.0	110.0	51.0	972.16	83.0	3.0	-1.0	-1152.0
1634987550.420707	1.0	0.0	-7.0	0.0	0.0	-8.0	75.0	78.0	40.0	110.0	51.0	972.11	83.0	-3.0	4.0	-1061.0
1634987550.532208	0.0	0.0	-7.0	0.0	0.0	-8.0	75.0	78.0	46.0	120.0	51.0	972.2	83.0	-1.0	15.0	-861.0
1634987550.636482	0.0	0.0	-7.0	0.0	0.0	-7.0	75.0	78.0	50.0	120.0	51.0	972.29	83.0	6.0	-14.0	-795.0
1634987550.724372	1.0	0.0	-7.0	0.0	0.0	-5.0	75.0	78.0	53.0	130.0	51.0	972.33	84.0	1.0	-11.0	-828.0
1634987550.835313	1.0	0.0	-7.0	0.0	0.0	-3.0	74.0	78.0	55.0	130.0	51.0	972.28	84.0	1.0	1.0	-863.0
1634987550.9428	1.0	1.0	-7.0	0.0	0.0	-1.0	74.0	78.0	55.0	130.0	51.0	972.31	84.0	16.0	-14.0	-877.0
1634987551.043091	1.0	0.0	-7.0	0.0	0.0	0.0	74.0	78.0	54.0	130.0	51.0	972.34	84.0	17.0	1.0	-946.0
1634987551.139726	2.0	0.0	-7.0	0.0	0.0	0.0	74.0	78.0	54.0	120.0	51.0	972.34	84.0	20.0	-2.0	-1136.0
1634987551.243954	2.0	0.0	-7.0	0.0	0.0	-2.0	74.0	78.0	55.0	120.0	51.0	972.37	84.0	20.0	-49.0	-1199.0
1634987551.339534	1.0	0.0	-7.0	0.0	0.0	-4.0	74.0	78.0	57.0	130.0	51.0	972.39	84.0	20.0	30.0	-1142.0
1634987551.454144	1.0	0.0	-7.0	0.0	0.0	-5.0	74.0	78.0	60.0	130.0	51.0	972.36	84.0	35.0	-13.0	-1216.0
1634987551.542484	2.0	0.0	-7.0	0.0	0.0	-6.0	74.0	78.0	65.0	130.0	51.0	972.32	84.0	28.0	-13.0	-1089.0
1634987551.655363	2.0	0.0	-7.0	0.0	0.0	-6.0	74.0	78.0	70.0	140.0	51.0	972.38	84.0	24.0	15.0	-889.0
1634987551.757971	3.0	0.0	-7.0	0.0	0.0	-5.0	74.0	78.0	74.0	140.0	51.0	972.51	85.0	15.0	16.0	-876.0
1634987551.852659	2.0	-1.0	-7.0	0.0	0.0	-3.0	75.0	78.0	77.0	140.0	51.0	972.54	85.0	15.0	14.0	-911.0
1634987551.949731	2.0	-1.0	-7.0	0.0	0.0	-2.0	75.0	78.0	80.0	150.0	51.0	972.6	85.0	2.0	10.0	-896.0
1634987552.062576	1.0	-1.0	-7.0	0.0	0.0	-1.0	75.0	78.0	81.0	150.0	50.0	972.53	85.0	7.0	25.0	-999.0
1634987552.15932	1.0	-1.0	-7.0	0.0	0.0	-2.0	75.0	78.0	82.0	150.0	50.0	972.61	85.0	17.0	30.0	-1097.0
1634987552.258308	1.0	-1.0	-7.0	0.0	0.0	-4.0	75.0	78.0	87.0	150.0	50.0	972.66	85.0	27.0	4.0	-1330.0
1634987552.369151	1.0	-1.0	-7.0	0.0	0.0	-5.0	75.0	78.0	92.0	160.0	50.0	972.69	85.0	29.0	14.0	-1154.0
1634987552.462375	0.0	-1.0	-7.0	0.0	0.0	-7.0	75.0	78.0	99.0	160.0	50.0	972.74	85.0	-2.0	-5.0	-1152.0
1634987552.574604	0.0	-1.0	-7.0	0.0	0.0	-8.0	75.0	78.0	106.0	170.0	50.0	972.79	85.0	-38.0	29.0	-1114.0
1634987552.673675	0.0	0.0	-7.0	0.0	0.0	-8.0	75.0	78.0	113.0	180.0	50.0	972.85	85.0	-4.0	27.0	-1094.0
1634987552.773116	0.0	0.0	-7.0	0.0	0.0	-9.0	75.0	78.0	123.0	190.0	50.0	972.89	86.0	-3.0	25.0	-1059.0
1634987552.872627	0.0	0.0	-7.0	0.0	0.0	-9.0	76.0	78.0	134.0	200.0	50.0	973.07	86.0	20.0	8.0	-1053.0
1634987552.872627	0.0	0.0	-7.0	0.0	0.0	-9.0	76.0	78.0	134.0	200.0	50.0	973.07	86.0	20.0	8.0	-1053.0
1634987552.969473	0.0	0.0	-7.0	0.0	0.0	-9.0	76.0	78.0	143.0	200.0	50.0	973.16	86.0	8.0	15.0	-865.0
1634987553.085323	1.0	-1.0	-7.0	0.0	0.0	-8.0	76.0	78.0	157.0	210.0	50.0	973.24	86.0	8.0	7.0	-811.0
1634987553.172346	0.0	-1.0	-7.0	0.0	0.0	-6.0	76.0	78.0	160.0	220.0	50.0	973.26	86.0	8.0	23.0	-808.0
1634987553.284844	0.0	-1.0	-7.0	0.0	0.0	-4.0	76.0	78.0	170.0	230.0	50.0	973.36	86.0	9.0	22.0	-871.0
1634987553.376867	0.0	-1.0	-7.0	0.0	0.0	-3.0	76.0	78.0	172.0	230.0	50.0	973.36	86.0	-6.0	19.0	-876.0
1634987553.442417	0.0	-1.0	-7.0	0.0	0.0	-2.0	76.0	78.0	173.0	240.0	50.0	973.43	86.0	3.0	20.0	-890.0
1634987553.544594	0.0	-1.0	-7.0	0.0	0.0	-1.0	76.0	78.0	179.0	240.0	50.0	973.42	86.0	8.0	19.0	-931.0
1634987553.646207	0.0	-1.0	-7.0	0.0	0.0	0.0	76.0	78.0	181.0	240.0	50.0	973.44	86.0	0.0	25.0	-951.0
1634987553.74833	0.0	-1.0	-7.0	0.0	0.0	0.0	76.0	78.0	186.0	240.0	50.0	973.49	87.0	10.0	27.0	-966.0
1634987553.845137	0.0	-1.0	-7.0	0.0	0.0	0.0	74.0	78.0	187.0	240.0	50.0	973.45	87.0	12.0	18.0	-936.0
1634987553.944521	0.0	-1.0	-7.0	0.0	0.0	0.0	74.0	78.0	188.0	250.0	50.0	973.52	87.0	9.0	19.0	-1023.0
1634987554.044068	0.0	-1.0	-7.0	0.0	0.0	0.0	74.0	78.0	193.0	250.0	49.0	973.43	87.0	0.0	35.0	-1020.0
1634987554.14304	-6.0	-1.0	-7.0	0.0	0.0	0.0	74.0	78.0	194.0	250.0	49.0	973.5	87.0	20.0	6.0	-953.0
1634987554.243101	-8.0	0.0	-7.0	1.0	0.0	0.0	74.0	78.0	197.0	250.0	49.0	973.59	87.0	4.0	4.0	-963.0
1634987554.355487	-8.0	0.0	-7.0	3.0	0.0	0.0	74.0	78.0	199.0	250.0	49.0	973.59	87.0	-23.0	27.0	-1036.0
1634987554.45259	-8.0	0.0	-7.0	5.0	0.0	0.0	74.0	78.0	206.0	250.0	49.0	973.61	87.0	-54.0	32.0	-993.0
1634987554.564993	-8.0	0.0	-7.0	6.0	0.0	0.0	74.0	78.0	201.0	260.0	49.0	973.56	87.0	-35.0	9.0	-974.0
1634987554.665817	-8.0	0.0	-7.0	7.0	0.0	0.0	74.0	78.0	206.0	260.0	49.0	973.59	87.0	-28.0	7.0	-979.0
1634987554.761939	-8.0	0.0	-7.0	7.0	0.0	0.0	74.0	78.0	208.0	260.0	49.0	973.57	88.0	-35.0	0.0	-953.0
1634987554.873157	-8.0	0.0	-7.0	8.0	-1.0	0.0	74.0	77.0	207.0	260.0	49.0	973.7	88.0	-33.0	4.0	-949.0
1634987554.974881	-8.0	0.0	-7.0	9.0	-1.0	0.0	74.0	77.0	209.0	260.0	49.0	973.59	88.0	-67.0	-45.0	-981.0
1634987555.073782	-8.0	0.0	-7.0	10.0	-1.0	0.0	74.0	77.0	213.0	260.0	49.0	973.48	88.0	-59.0	11.0	-979.0
1634987555.164848	-8.0	0.0	-7.0	11.0	-1.0	0.0	74.0	77.0	211.0	260.0	49.0	973.43	88.0	-54.0	18.0	-940.0
1634987555.278546	-8.0	0.0	-7.0	11.0	-1.0	1.0	74.0	77.0	213.0	260.0	49.0	973.41	88.0	-63.0	14.0	-947.0
1634987555.378201	-5.0	0.0	-7.0	12.0	-1.0	1.0	74.0	77.0	210.0	270.0	49.0	973.33	88.0	-71.0	16.0	-1030.0
1634987555.474425	0.0	0.0	-7.0	12.0	-1.0	1.0	74.0	77.0	208.0	270.0	49.0	973.38	88.0	-93.0	32.0	-966.0
1634987555.585067	1.0	-1.0	-7.0	11.0	-1.0	1.0	74.0	77.0	211.0	270.0	49.0	973.45	88.0	-71.0	38.0	-928.0
1634987555.681146	1.0	-1.0	-7.0	9.0	0.0	1.0	74.0	77.0	206.0	270.0	49.0	973.41	88.0	-87.0	54.0	-968.0
1634987555.780784	0.0	-1.0	-7.0	8.0	0.0	1.0	74.0	77.0	208.0	270.0	49.0	973.43	89.0	-104.0	40.0	-962.0
1634987555.876304	0.0	-1.0	-7.0	7.0	-1.0	2.0	74.0	78.0	209.0	270.0	49.0	973.37	89.0	-67.0	18.0	-1006.0
1634987555.988882	0.0	-1.0	-7.0	7.0	-1.0	1.0	74.0	78.0	206.0	270.0	49.0	973.43	89.0	-67.0	23.0	-965.0
1634987556.09162	1.0	0.0	-7.0	7.0	0.0	1.0	74.0	78.0	208.0	270.0	49.0	973.44	89.0	-73.0	38.0	-983.0
1634987556.188502	0.0	-1.0	-7.0	6.0	0.0	1.0	74.0	78.0	203.0	260.0	49.0	973.43	89.0	-54.0	30.0	-984.0
1634987556.292007	-7.0	-1.0	-7.0	7.0	0.0	2.0	74.0	78.0	205.0	260.0	49.0	973.35	89.0	-29.0	23.0	-973.0
1634987556.401135	-9.0	-1.0	-7.0	8.0	0.0	2.0	74.0	78.0	202.0	260.0	49.0	973.37	89.0	-49.0	29.0	-993.0
1634987556.501069	-8.0	-1.0	-7.0	10.0	0.0	2.0	74.0	78.0	203.0	260.0	49.0	973.29	89.0	-43.0	41.0	-1048.0
1634987556.599175	-7.0	-3.0	-7.0	11.0	0.0	1.0	74.0	78.0	201.0	260.0	49.0	973.52	89.0	-39.0	21.0	-1021.0
1634987556.701691	0.0	-2.0	-7.0	11.0	0.0	1.0	74.0	78.0	210.0	260.0	49.0	973.51	89.0	-70.0	32.0	-1024.0
1634987556.800455	2.0	-2.0	-7.0	10.0	0.0	1.0	74.0	78.0	199.0	260.0	49.0	973.56	90.0	-94.0	52.0	-1003.0
1634987556.897968	1.0	-2.0	-7.0	7.0	-1.0	1.0	74.0	77.0	197.0	260.0	49.0	973.49	90.0	-97.0	39.0	-1037.0
1634987556.997872	0.0	-1.0	-7.0	6.0	0.0	1.0	74.0	77.0	196.0	260.0	49.0	973.42	90.0	-66.0	38.0	-1063.0
1634987557.108825	0.0	-1.0	-7.0	6.0	0.0	1.0	74.0	77.0	199.0	250.0	49.0	973.42	90.0	-82.0	45.0	-983.0
1634987557.218097	0.0	-1.0	-7.0	5.0	0.0	1.0	74.0	77.0	196.0	250.0	49.0	973.39	90.0	-79.0	51.0	-959.0
1634987557.308045	0.0	-2.0	-7.0	5.0	0.0	1.0	74.0	77.0	196.0	250.0	49.0	973.43	90.0	-107.0	32.0	-1031.0
1634987557.420351	0.0	-2.0	-7.0	4.0	0.0	1.0	74.0	77.0	189.0	250.0	49.0	973.42	90.0	-49.0	28.0	-999.0
1634987557.516479	0.0	-2.0	-7.0	4.0	0.0	0.0	74.0	77.0	195.0	250.0	49.0	973.4	90.0	-92.0	34.0	-1122.0
1634987557.626492	0.0	-2.0	-7.0	3.0	0.0	0.0	74.0	77.0	194.0	250.0	49.0	973.29	90.0	-82.0	-1.0	-1011.0
1634987557.661668	-1.0	-1.0	-7.0	3.0	0.0	0.0	74.0	77.0	187.0	250.0	49.0	973.17	91.0	-87.0	4.0	-1010.0
1634987557.765507	-3.0	-1.0	-7.0	2.0	0.0	0.0	74.0	77.0	187.0	240.0	49.0	973.18	91.0	-90.0	11.0	-1018.0
1634987557.881032	-9.0	0.0	-7.0	3.0	0.0	0.0	74.0	77.0	193.0	240.0	49.0	973.25	91.0	-82.0	-10.0	-1008.0
1634987557.97602	-9.0	0.0	-7.0	4.0	0.0	0.0	74.0	77.0	195.0	240.0	49.0	973.24	91.0	-76.0	10.0	-1015.0
1634987558.078769	-8.0	0.0	-7.0	6.0	0.0	0.0	74.0	77.0	196.0	240.0	48.0	973.19	91.0	-66.0	9.0	-972.0
1634987558.22167	-7.0	0.0	-7.0	6.0	0.0	0.0	74.0	77.0	193.0	240.0	48.0	973.01	91.0	-78.0	20.0	-980.0
1634987558.377138	-3.0	-1.0	-7.0	7.0	0.0	0.0	74.0	77.0	193.0	240.0	48.0	973.17	91.0	-47.0	7.0	-987.0
1634987558.378214	-1.0	-1.0	-7.0	6.0	0.0	0.0	74.0	77.0	199.0	240.0	48.0	973.27	91.0	-81.0	0.0	-1074.0
1634987558.515045	0.0	-1.0	-7.0	6.0	0.0	0.0	74.0	77.0	200.0	240.0	48.0	973.14	91.0	-44.0	-2.0	-1023.0
1634987558.67252	0.0	-1.0	-7.0	5.0	0.0	0.0	74.0	77.0	192.0	240.0	48.0	973.27	91.0	-21.0	6.0	-975.0
1634987558.690784	-1.0	-1.0	-7.0	5.0	0.0	0.0	74.0	77.0	189.0	240.0	48.0	973.47	92.0	-39.0	40.0	-994.0
1634987558.793018	-8.0	-1.0	-7.0	5.0	0.0	0.0	74.0	77.0	191.0	240.0	48.0	973.42	92.0	-43.0	58.0	-1006.0
1634987558.99233	-8.0	-1.0	-7.0	7.0	0.0	0.0	73.0	77.0	201.0	240.0	48.0	973.31	92.0	-55.0	50.0	-1002.0
1634987558.993404	-6.0	-2.0	-7.0	8.0	0.0	0.0	73.0	77.0	193.0	240.0	48.0	973.21	92.0	-30.0	56.0	-973.0
1634987559.125242	0.0	-1.0	-7.0	8.0	0.0	0.0	73.0	77.0	197.0	240.0	48.0	973.32	92.0	-57.0	29.0	-994.0
1634987559.299353	1.0	-2.0	-7.0	8.0	0.0	0.0	73.0	77.0	203.0	240.0	48.0	973.21	92.0	-48.0	31.0	-1023.0
1634987559.308012	1.0	-2.0	-8.0	6.0	0.0	0.0	73.0	77.0	194.0	240.0	48.0	973.3	92.0	-50.0	29.0	-1040.0
1634987559.400391	1.0	-1.0	-8.0	5.0	-1.0	0.0	73.0	77.0	200.0	240.0	48.0	973.34	92.0	-17.0	32.0	-1000.0
1634987559.497315	0.0	-1.0	-8.0	5.0	-1.0	0.0	73.0	77.0	190.0	240.0	48.0	973.33	92.0	-60.0	16.0	-968.0
1634987559.60592	0.0	0.0	-7.0	4.0	-1.0	0.0	73.0	77.0	193.0	240.0	48.0	973.38	92.0	-38.0	34.0	-996.0
1634987559.703556	-3.0	0.0	-7.0	4.0	-1.0	0.0	73.0	77.0	205.0	240.0	48.0	973.45	93.0	-37.0	-9.0	-1038.0
1634987559.819019	-9.0	0.0	-7.0	5.0	-1.0	0.0	73.0	77.0	213.0	250.0	48.0	973.41	93.0	-33.0	22.0	-1010.0
1634987559.910822	-9.0	0.0	-7.0	5.0	-1.0	0.0	73.0	77.0	213.0	250.0	48.0	973.41	93.0	-33.0	22.0	-1010.0
1634987559.921771	-8.0	0.0	-7.0	7.0	0.0	0.0	74.0	77.0	209.0	250.0	48.0	973.49	93.0	-34.0	3.0	-1013.0
1634987560.020183	-2.0	0.0	-7.0	9.0	0.0	0.0	74.0	77.0	210.0	250.0	48.0	973.35	93.0	-45.0	32.0	-989.0
1634987560.125906	1.0	-1.0	-7.0	8.0	0.0	0.0	74.0	77.0	208.0	250.0	48.0	973.42	93.0	-39.0	21.0	-955.0
1634987560.227989	3.0	-2.0	-7.0	7.0	0.0	0.0	74.0	77.0	216.0	250.0	48.0	973.51	93.0	-46.0	25.0	-967.0
1634987560.327218	2.0	-1.0	-7.0	6.0	0.0	0.0	74.0	77.0	212.0	250.0	48.0	973.61	93.0	-35.0	26.0	-980.0
1634987560.419255	1.0	-1.0	-7.0	5.0	0.0	0.0	74.0	77.0	212.0	260.0	48.0	973.57	93.0	-35.0	37.0	-994.0
1634987560.526748	1.0	0.0	-7.0	5.0	0.0	0.0	74.0	77.0	215.0	260.0	48.0	973.58	93.0	-11.0	19.0	-986.0
1634987560.624557	1.0	0.0	-7.0	5.0	0.0	0.0	74.0	77.0	214.0	260.0	48.0	973.58	93.0	-21.0	30.0	-937.0
1634987560.734573	2.0	0.0	-7.0	5.0	0.0	0.0	74.0	77.0	209.0	260.0	48.0	973.52	94.0	-2.0	14.0	-994.0
1634987560.834164	2.0	-1.0	-7.0	4.0	0.0	1.0	74.0	77.0	215.0	260.0	48.0	973.6	94.0	-9.0	25.0	-970.0
1634987560.927817	2.0	-1.0	-7.0	4.0	0.0	1.0	73.0	78.0	207.0	260.0	48.0	973.54	94.0	0.0	16.0	-980.0
1634987561.033997	2.0	-1.0	-7.0	4.0	0.0	1.0	73.0	78.0	210.0	250.0	47.0	973.59	94.0	25.0	7.0	-972.0
1634987561.140902	2.0	-1.0	-7.0	3.0	0.0	1.0	73.0	78.0	212.0	250.0	47.0	973.54	94.0	13.0	33.0	-988.0
1634987561.236434	2.0	-2.0	-7.0	3.0	0.0	1.0	73.0	78.0	211.0	250.0	47.0	973.5	94.0	17.0	26.0	-999.0
1634987561.34279	2.0	-2.0	-7.0	3.0	0.0	0.0	73.0	78.0	211.0	250.0	47.0	973.57	94.0	32.0	17.0	-982.0
1634987561.443955	2.0	-2.0	-7.0	3.0	0.0	0.0	73.0	78.0	218.0	250.0	47.0	973.54	94.0	-4.0	77.0	-989.0
1634987561.542443	3.0	-2.0	-7.0	2.0	0.0	0.0	73.0	78.0	205.0	250.0	47.0	973.47	94.0	37.0	38.0	-1020.0
1634987561.643983	3.0	-2.0	-7.0	2.0	0.0	0.0	73.0	78.0	203.0	250.0	47.0	973.46	94.0	3.0	48.0	-973.0
1634987561.756889	3.0	-2.0	-7.0	2.0	0.0	0.0	73.0	78.0	205.0	250.0	47.0	973.47	95.0	29.0	26.0	-1027.0
1634987561.859897	2.0	-1.0	-7.0	2.0	0.0	0.0	73.0	78.0	198.0	250.0	47.0	973.46	95.0	32.0	23.0	-991.0
1634987561.949076	2.0	-1.0	-7.0	1.0	0.0	0.0	74.0	76.0	199.0	250.0	47.0	973.45	95.0	27.0	26.0	-996.0
1634987562.059979	4.0	-2.0	-7.0	1.0	0.0	0.0	74.0	76.0	194.0	250.0	47.0	973.44	95.0	17.0	38.0	-1047.0
1634987562.155426	3.0	-1.0	-7.0	0.0	0.0	0.0	74.0	76.0	193.0	250.0	47.0	973.46	95.0	23.0	44.0	-996.0
1634987562.256366	3.0	-2.0	-7.0	0.0	0.0	0.0	74.0	76.0	200.0	250.0	47.0	973.39	95.0	17.0	30.0	-986.0
1634987562.369778	9.0	-2.0	-7.0	0.0	0.0	0.0	74.0	76.0	195.0	250.0	47.0	973.48	95.0	-12.0	33.0	-1060.0
1634987562.418231	8.0	-1.0	-7.0	-2.0	0.0	0.0	74.0	76.0	198.0	250.0	47.0	973.45	95.0	27.0	41.0	-1016.0
1634987562.522776	8.0	0.0	-7.0	-3.0	1.0	0.0	74.0	76.0	207.0	240.0	47.0	973.4	95.0	56.0	40.0	-998.0
1634987562.610082	8.0	-1.0	-7.0	-4.0	1.0	0.0	74.0	76.0	197.0	250.0	47.0	973.5	95.0	51.0	29.0	-1004.0
1634987562.716471	8.0	-1.0	-7.0	-5.0	1.0	0.0	74.0	76.0	200.0	250.0	47.0	973.46	96.0	38.0	55.0	-1014.0
1634987562.828217	8.0	-1.0	-7.0	-6.0	2.0	0.0	74.0	76.0	199.0	250.0	47.0	973.43	96.0	58.0	54.0	-1003.0
1634987562.925693	8.0	-1.0	-7.0	-7.0	2.0	0.0	73.0	76.0	203.0	250.0	47.0	973.41	96.0	65.0	44.0	-986.0
1634987563.021008	8.0	-2.0	-7.0	-7.0	2.0	0.0	73.0	76.0	200.0	250.0	47.0	973.44	96.0	75.0	38.0	-975.0
1634987563.125904	7.0	-2.0	-7.0	-8.0	2.0	0.0	73.0	76.0	208.0	250.0	47.0	973.59	96.0	73.0	58.0	-973.0
1634987563.22931	7.0	-3.0	-7.0	-8.0	2.0	0.0	73.0	76.0	203.0	250.0	47.0	973.57	96.0	105.0	23.0	-990.0
1634987563.333462	7.0	-3.0	-7.0	-9.0	1.0	0.0	73.0	76.0	201.0	250.0	47.0	973.58	96.0	137.0	18.0	-986.0
1634987563.428708	6.0	-4.0	-7.0	-9.0	1.0	0.0	73.0	76.0	191.0	250.0	47.0	973.58	96.0	140.0	-10.0	-981.0
1634987563.528177	6.0	-4.0	-7.0	-9.0	1.0	0.0	73.0	76.0	200.0	250.0	47.0	973.59	96.0	130.0	14.0	-1012.0
1634987563.630086	3.0	-3.0	-7.0	-8.0	0.0	0.0	73.0	76.0	193.0	250.0	47.0	973.62	96.0	139.0	57.0	-988.0
1634987563.744402	7.0	-2.0	-7.0	-8.0	0.0	0.0	73.0	76.0	200.0	250.0	47.0	973.54	97.0	108.0	60.0	-976.0
1634987563.848839	8.0	-1.0	-7.0	-8.0	0.0	0.0	73.0	76.0	197.0	250.0	47.0	973.49	97.0	146.0	20.0	-971.0
1634987563.949454	8.0	-1.0	-7.0	-8.0	0.0	0.0	73.0	76.0	193.0	240.0	47.0	973.56	97.0	141.0	21.0	-1013.0
1634987564.052696	8.0	0.0	-7.0	-9.0	1.0	0.0	73.0	76.0	198.0	240.0	47.0	973.49	97.0	139.0	17.0	-997.0
1634987564.154438	8.0	-1.0	-7.0	-9.0	1.0	0.0	73.0	76.0	202.0	240.0	47.0	973.47	97.0	113.0	62.0	-996.0
1634987564.256766	8.0	-1.0	-7.0	-9.0	1.0	0.0	73.0	76.0	190.0	240.0	47.0	973.36	97.0	111.0	39.0	-1033.0
1634987564.347539	8.0	-1.0	-7.0	-10.0	1.0	0.0	73.0	76.0	201.0	240.0	47.0	973.28	97.0	113.0	23.0	-971.0
1634987564.451213	8.0	-1.0	-7.0	-10.0	1.0	0.0	73.0	76.0	199.0	240.0	47.0	973.28	97.0	129.0	10.0	-1034.0
1634987564.555334	8.0	-1.0	-7.0	-10.0	1.0	0.0	73.0	76.0	195.0	240.0	47.0	973.14	97.0	134.0	16.0	-993.0
1634987564.664485	8.0	-1.0	-7.0	-10.0	1.0	0.0	73.0	76.0	192.0	240.0	47.0	973.13	97.0	137.0	15.0	-1009.0
1634987564.766556	8.0	0.0	-7.0	-11.0	0.0	0.0	73.0	76.0	194.0	240.0	47.0	972.83	98.0	142.0	-7.0	-984.0
1634987564.867337	8.0	-1.0	-7.0	-11.0	0.0	0.0	73.0	76.0	185.0	240.0	47.0	973.14	98.0	148.0	-11.0	-1006.0
1634987564.956323	8.0	0.0	-7.0	-10.0	0.0	0.0	74.0	76.0	192.0	240.0	47.0	973.17	98.0	162.0	-21.0	-993.0
1634987565.060172	8.0	0.0	-7.0	-10.0	0.0	0.0	74.0	76.0	195.0	240.0	47.0	972.92	98.0	170.0	-4.0	-990.0
1634987565.16348	7.0	0.0	-7.0	-10.0	0.0	0.0	74.0	76.0	198.0	240.0	47.0	972.95	98.0	174.0	-31.0	-992.0
1634987565.268473	7.0	0.0	-7.0	-10.0	0.0	0.0	74.0	76.0	198.0	240.0	47.0	973.03	98.0	184.0	-44.0	-1019.0
1634987565.371173	9.0	0.0	-7.0	-10.0	0.0	0.0	74.0	76.0	193.0	240.0	47.0	973.27	98.0	167.0	-15.0	-981.0
1634987565.471696	9.0	0.0	-7.0	-10.0	0.0	0.0	74.0	76.0	199.0	240.0	47.0	973.22	98.0	179.0	3.0	-977.0
1634987565.573885	9.0	0.0	-7.0	-10.0	0.0	0.0	74.0	76.0	206.0	240.0	47.0	973.2	98.0	160.0	26.0	-967.0
1634987565.678063	9.0	0.0	-7.0	-10.0	0.0	0.0	74.0	76.0	215.0	250.0	47.0	973.28	98.0	140.0	31.0	-975.0
1634987565.78218	9.0	0.0	-7.0	-11.0	0.0	0.0	74.0	76.0	209.0	250.0	47.0	973.21	99.0	163.0	18.0	-1015.0
1634987565.889731	9.0	0.0	-7.0	-11.0	0.0	0.0	74.0	76.0	206.0	250.0	47.0	973.16	99.0	172.0	28.0	-991.0
1634987565.99175	8.0	0.0	-7.0	-11.0	0.0	0.0	73.0	77.0	214.0	250.0	47.0	973.37	99.0	162.0	7.0	-955.0
1634987566.089568	9.0	0.0	-7.0	-11.0	0.0	0.0	73.0	77.0	214.0	250.0	46.0	973.2	99.0	152.0	0.0	-972.0
1634987566.181469	8.0	0.0	-7.0	-11.0	0.0	0.0	73.0	77.0	212.0	250.0	46.0	973.21	99.0	171.0	33.0	-961.0
1634987566.283936	8.0	0.0	-7.0	-11.0	0.0	0.0	73.0	77.0	211.0	250.0	46.0	973.12	99.0	158.0	23.0	-998.0
1634987566.337568	8.0	0.0	-7.0	-11.0	0.0	0.0	73.0	77.0	211.0	250.0	46.0	973.28	99.0	158.0	46.0	-980.0
1634987566.488522	8.0	0.0	-7.0	-11.0	1.0	0.0	73.0	77.0	217.0	250.0	46.0	973.32	99.0	153.0	43.0	-938.0
1634987566.591092	8.0	0.0	-7.0	-11.0	1.0	0.0	73.0	77.0	215.0	250.0	46.0	973.36	99.0	172.0	35.0	-1055.0
1634987566.691581	9.0	0.0	-7.0	-11.0	1.0	0.0	73.0	77.0	211.0	260.0	46.0	973.4	99.0	164.0	13.0	-1002.0
1634987566.742762	9.0	0.0	-7.0	-11.0	1.0	0.0	73.0	77.0	212.0	260.0	46.0	973.41	100.0	143.0	47.0	-975.0
1634987566.84434	9.0	-1.0	-7.0	-11.0	1.0	0.0	73.0	77.0	210.0	260.0	46.0	973.31	100.0	160.0	1.0	-938.0
1634987566.948455	9.0	-1.0	-7.0	-11.0	1.0	0.0	73.0	77.0	210.0	260.0	46.0	973.31	100.0	160.0	1.0	-938.0
1634987566.961417	9.0	0.0	-7.0	-11.0	1.0	0.0	74.0	75.0	214.0	260.0	46.0	973.24	100.0	157.0	34.0	-975.0
1634987567.053216	8.0	0.0	-7.0	-11.0	1.0	0.0	74.0	75.0	213.0	260.0	46.0	973.24	100.0	182.0	-2.0	-1027.0
1634987567.15209	8.0	-1.0	-7.0	-11.0	1.0	0.0	74.0	75.0	213.0	250.0	46.0	973.23	100.0	167.0	5.0	-954.0
1634987567.262454	8.0	0.0	-7.0	-11.0	1.0	0.0	74.0	75.0	213.0	250.0	46.0	973.33	100.0	160.0	29.0	-980.0
1634987567.366906	9.0	0.0	-7.0	-11.0	1.0	0.0	74.0	75.0	209.0	250.0	46.0	973.12	100.0	155.0	15.0	-1031.0
1634987567.465837	8.0	-1.0	-7.0	-11.0	1.0	0.0	74.0	75.0	210.0	250.0	46.0	973.16	100.0	149.0	42.0	-959.0
1634987567.56823	8.0	-1.0	-7.0	-11.0	1.0	0.0	74.0	75.0	205.0	250.0	46.0	973.19	100.0	150.0	3.0	-999.0
1634987567.668881	8.0	0.0	-7.0	-11.0	1.0	0.0	74.0	75.0	205.0	250.0	46.0	973.12	100.0	169.0	-25.0	-971.0
1634987567.774639	8.0	0.0	-7.0	-11.0	1.0	0.0	74.0	75.0	203.0	250.0	46.0	973.2	101.0	151.0	2.0	-987.0
1634987567.878792	9.0	0.0	-7.0	-11.0	1.0	0.0	74.0	75.0	202.0	250.0	46.0	973.05	101.0	154.0	36.0	-981.0
1634987567.977627	9.0	0.0	-7.0	-11.0	1.0	0.0	73.0	77.0	200.0	250.0	46.0	973.14	101.0	160.0	10.0	-1006.0
1634987568.083647	8.0	-1.0	-7.0	-11.0	1.0	0.0	73.0	77.0	202.0	250.0	46.0	973.03	101.0	175.0	16.0	-965.0
1634987568.170732	9.0	0.0	-7.0	-11.0	1.0	0.0	73.0	77.0	205.0	250.0	46.0	973.0	101.0	134.0	4.0	-1009.0
1634987568.274492	9.0	-1.0	-7.0	-11.0	1.0	0.0	73.0	77.0	203.0	250.0	46.0	973.19	101.0	146.0	-10.0	-1007.0
1634987568.389022	9.0	0.0	-7.0	-12.0	1.0	0.0	73.0	77.0	200.0	250.0	46.0	973.11	101.0	127.0	20.0	-1020.0
1634987568.486006	8.0	0.0	-7.0	-12.0	1.0	0.0	73.0	77.0	199.0	250.0	46.0	973.02	101.0	137.0	6.0	-1023.0
1634987568.58879	8.0	0.0	-7.0	-13.0	1.0	0.0	73.0	77.0	202.0	250.0	46.0	973.12	101.0	138.0	-1.0	-1040.0
1634987568.697538	8.0	0.0	-7.0	-13.0	1.0	0.0	73.0	77.0	204.0	250.0	46.0	973.09	101.0	115.0	-7.0	-1009.0
1634987568.790108	9.0	0.0	-7.0	-13.0	1.0	0.0	73.0	77.0	205.0	250.0	46.0	972.94	102.0	146.0	-26.0	-1008.0
1634987568.894242	8.0	0.0	-7.0	-13.0	0.0	0.0	73.0	77.0	207.0	250.0	46.0	973.12	102.0	125.0	13.0	-974.0
1634987568.993094	9.0	0.0	-7.0	-14.0	1.0	0.0	74.0	76.0	205.0	250.0	46.0	973.09	102.0	144.0	17.0	-1029.0
1634987569.092179	9.0	0.0	-7.0	-14.0	1.0	0.0	74.0	76.0	211.0	250.0	46.0	973.11	102.0	130.0	-1.0	-975.0
1634987569.194523	8.0	0.0	-7.0	-14.0	1.0	0.0	74.0	76.0	209.0	250.0	46.0	973.18	102.0	112.0	11.0	-948.0
1634987569.300165	8.0	0.0	-7.0	-14.0	1.0	0.0	74.0	76.0	207.0	250.0	46.0	973.0	102.0	136.0	-1.0	-1035.0
1634987569.466948	9.0	0.0	-7.0	-15.0	0.0	0.0	74.0	76.0	205.0	250.0	46.0	973.05	102.0	156.0	-25.0	-969.0
1634987569.607395	9.0	0.0	-7.0	-15.0	0.0	0.0	74.0	76.0	205.0	250.0	46.0	973.16	102.0	144.0	-16.0	-960.0
1634987569.607395	9.0	0.0	-7.0	-15.0	0.0	0.0	74.0	76.0	206.0	250.0	46.0	973.11	102.0	137.0	-6.0	-974.0
1634987569.754582	8.0	0.0	-7.0	-15.0	0.0	0.0	74.0	76.0	205.0	250.0	46.0	973.05	103.0	152.0	-14.0	-996.0
1634987569.905936	8.0	0.0	-7.0	-16.0	0.0	0.0	74.0	76.0	208.0	250.0	46.0	973.12	103.0	142.0	1.0	-995.0
1634987569.905936	8.0	0.0	-7.0	-16.0	0.0	0.0	74.0	76.0	205.0	250.0	46.0	973.08	103.0	135.0	-6.0	-1032.0
1634987570.008496	8.0	0.0	-7.0	-16.0	0.0	0.0	73.0	77.0	202.0	250.0	46.0	973.11	103.0	149.0	21.0	-1023.0
1634987570.142608	8.0	0.0	-7.0	-16.0	0.0	0.0	73.0	77.0	205.0	250.0	45.0	973.07	103.0	163.0	8.0	-1005.0
1634987570.225072	8.0	0.0	-7.0	-16.0	0.0	0.0	73.0	77.0	206.0	250.0	45.0	973.0	103.0	178.0	-99.0	-1018.0
1634987570.346185	8.0	0.0	-7.0	-16.0	0.0	0.0	73.0	77.0	207.0	250.0	45.0	973.03	103.0	150.0	3.0	-995.0
1634987570.496679	8.0	0.0	-7.0	-16.0	0.0	0.0	73.0	77.0	209.0	250.0	45.0	973.02	103.0	151.0	10.0	-986.0
1634987570.496679	8.0	0.0	-7.0	-16.0	0.0	0.0	73.0	77.0	208.0	250.0	45.0	973.22	103.0	190.0	-21.0	-977.0
1634987570.658141	2.0	1.0	-7.0	-16.0	0.0	0.0	73.0	77.0	202.0	250.0	45.0	973.03	103.0	175.0	-3.0	-980.0
1634987570.676475	0.0	0.0	-7.0	-15.0	0.0	0.0	73.0	77.0	199.0	250.0	45.0	973.13	104.0	154.0	12.0	-1023.0
1634987570.809334	-1.0	0.0	-7.0	-13.0	0.0	0.0	73.0	77.0	199.0	250.0	45.0	973.09	104.0	120.0	20.0	-959.0
1634987570.973147	-8.0	0.0	-7.0	-11.0	0.0	0.0	73.0	77.0	201.0	250.0	45.0	973.11	104.0	110.0	13.0	-1020.0
1634987571.04161	-8.0	0.0	-7.0	-8.0	0.0	0.0	74.0	77.0	203.0	250.0	45.0	973.34	104.0	138.0	-36.0	-986.0
1634987571.134658	-7.0	0.0	-7.0	-6.0	0.0	0.0	74.0	77.0	200.0	250.0	45.0	973.4	104.0	119.0	-38.0	-1030.0
1634987571.238803	-7.0	0.0	-7.0	-3.0	0.0	0.0	74.0	77.0	202.0	250.0	45.0	973.46	104.0	53.0	9.0	-1015.0
1634987571.34737	-7.0	0.0	-7.0	-1.0	0.0	0.0	74.0	77.0	204.0	250.0	45.0	973.52	104.0	103.0	-21.0	-1033.0
1634987571.398142	-8.0	0.0	-7.0	0.0	0.0	0.0	74.0	77.0	202.0	250.0	45.0	973.54	104.0	61.0	-1.0	-1042.0
1634987571.493872	-8.0	0.0	-7.0	2.0	-1.0	0.0	74.0	77.0	201.0	250.0	45.0	973.53	104.0	51.0	-1.0	-1003.0
1634987571.602018	-7.0	0.0	-7.0	4.0	-1.0	0.0	74.0	77.0	199.0	250.0	45.0	973.53	104.0	52.0	-10.0	-1127.0
1634987571.692379	-8.0	0.0	-6.0	4.0	-2.0	0.0	74.0	77.0	204.0	250.0	45.0	973.53	105.0	33.0	-10.0	-1028.0
1634987571.797495	-8.0	1.0	-7.0	5.0	-2.0	0.0	74.0	77.0	206.0	250.0	45.0	973.72	105.0	2.0	43.0	-1006.0
1634987571.905316	-8.0	0.0	-7.0	5.0	-2.0	0.0	74.0	77.0	200.0	250.0	45.0	973.66	105.0	22.0	-25.0	-1018.0
1634987572.00779	-7.0	0.0	-7.0	6.0	-2.0	0.0	75.0	76.0	201.0	250.0	45.0	973.42	105.0	-7.0	15.0	-941.0
1634987572.110297	-7.0	0.0	-7.0	7.0	-2.0	0.0	75.0	76.0	201.0	250.0	45.0	973.63	105.0	-23.0	8.0	-984.0
1634987572.214419	-8.0	0.0	-7.0	8.0	-2.0	0.0	75.0	76.0	196.0	250.0	45.0	973.51	105.0	-17.0	7.0	-962.0
1634987572.315911	-8.0	0.0	-7.0	9.0	-2.0	0.0	75.0	76.0	193.0	250.0	45.0	973.39	105.0	-14.0	7.0	-999.0
1634987572.405137	-8.0	0.0	-7.0	9.0	-2.0	0.0	75.0	76.0	190.0	240.0	45.0	973.43	105.0	-43.0	10.0	-1069.0
1634987572.511297	-8.0	0.0	-7.0	10.0	-2.0	0.0	75.0	76.0	186.0	240.0	45.0	973.44	105.0	-29.0	-14.0	-1039.0
1634987572.622022	-8.0	0.0	-7.0	11.0	-3.0	0.0	75.0	76.0	187.0	240.0	45.0	973.33	105.0	-40.0	-2.0	-1082.0
1634987572.710558	-8.0	0.0	-7.0	12.0	-2.0	0.0	75.0	76.0	182.0	240.0	45.0	973.26	106.0	-57.0	25.0	-1019.0
1634987572.816701	-7.0	0.0	-7.0	12.0	-2.0	0.0	75.0	76.0	180.0	240.0	45.0	973.22	106.0	-72.0	12.0	-1037.0
1634987572.918821	-7.0	0.0	-7.0	13.0	-2.0	0.0	75.0	76.0	177.0	230.0	45.0	973.21	106.0	-77.0	20.0	-1015.0
1634987573.017888	-7.0	0.0	-7.0	13.0	-2.0	0.0	74.0	76.0	179.0	230.0	45.0	973.43	106.0	-74.0	6.0	-1086.0
1634987573.127139	-7.0	0.0	-7.0	14.0	-2.0	0.0	74.0	76.0	175.0	230.0	45.0	973.32	106.0	-94.0	5.0	-1025.0
1634987573.231267	-8.0	0.0	-8.0	14.0	-2.0	0.0	74.0	76.0	176.0	230.0	45.0	973.31	106.0	-88.0	21.0	-988.0
1634987573.335397	-7.0	0.0	-8.0	14.0	-2.0	0.0	74.0	76.0	176.0	230.0	45.0	973.17	106.0	-89.0	-44.0	-1123.0
1634987573.42758	-8.0	0.0	-8.0	15.0	-3.0	0.0	74.0	76.0	174.0	230.0	45.0	973.07	106.0	-34.0	-36.0	-1101.0
1634987573.525029	-8.0	0.0	-8.0	15.0	-3.0	-1.0	74.0	76.0	175.0	230.0	45.0	973.11	106.0	-79.0	-14.0	-1090.0
1634987573.643111	-8.0	0.0	-8.0	16.0	-4.0	-1.0	74.0	76.0	177.0	230.0	45.0	973.09	106.0	-77.0	-9.0	-1043.0
1634987573.738079	-8.0	0.0	-8.0	17.0	-4.0	-1.0	74.0	76.0	175.0	230.0	45.0	973.13	107.0	-43.0	-46.0	-986.0
1634987573.840477	-8.0	0.0	-8.0	17.0	-4.0	-1.0	74.0	76.0	175.0	230.0	45.0	973.11	107.0	-60.0	-27.0	-996.0
