timestamp	pitch	roll	yaw	vgx	vgy	vgz	templ	temph	tof	h	bat	baro	time	agx	agy	agz
1634988227.244198
1634988227.246531	2.0	1.0	-178.0	0.0	0.0	0.0	83.0	86.0	10.0	0.0	4.0	972.6	66.0	35.0	-21.0	-1001.0
1634988227.348821	2.0	1.0	-178.0	0.0	0.0	0.0	83.0	86.0	10.0	0.0	4.0	972.6	66.0	37.0	-19.0	-1001.0
1634988227.443808	2.0	1.0	-178.0	0.0	0.0	0.0	83.0	86.0	10.0	0.0	4.0	972.52	66.0	35.0	-20.0	-997.0
1634988227.551958	2.0	1.0	-178.0	0.0	0.0	0.0	83.0	86.0	10.0	0.0	4.0	972.56	66.0	36.0	-19.0	-999.0
1634988227.654649	2.0	1.0	-178.0	0.0	0.0	0.0	83.0	86.0	10.0	0.0	4.0	972.51	66.0	35.0	-19.0	-998.0
1634988227.741506	2.0	1.0	-178.0	0.0	0.0	0.0	83.0	86.0	10.0	0.0	4.0	972.56	66.0	38.0	-17.0	-996.0
1634988227.858584	2.0	1.0	-178.0	0.0	0.0	0.0	82.0	85.0	10.0	0.0	4.0	972.62	66.0	36.0	-19.0	-1000.0
1634988227.957049	2.0	1.0	-178.0	0.0	0.0	0.0	82.0	85.0	10.0	0.0	4.0	972.55	66.0	36.0	-20.0	-995.0
1634988228.052428	2.0	1.0	-178.0	0.0	0.0	0.0	82.0	85.0	10.0	0.0	4.0	972.54	66.0	36.0	-19.0	-1001.0
1634988228.151229	2.0	1.0	-178.0	0.0	0.0	0.0	82.0	85.0	10.0	0.0	4.0	972.57	66.0	36.0	-19.0	-1000.0
1634988228.262405	2.0	1.0	-178.0	0.0	0.0	0.0	82.0	85.0	10.0	0.0	4.0	972.59	66.0	35.0	-19.0	-997.0
1634988228.367399	2.0	1.0	-178.0	0.0	0.0	0.0	82.0	85.0	10.0	0.0	4.0	972.59	66.0	36.0	-19.0	-997.0
1634988228.469945	2.0	1.0	-178.0	0.0	0.0	0.0	82.0	85.0	10.0	0.0	4.0	972.61	66.0	36.0	-19.0	-1000.0
1634988228.570765	2.0	1.0	-178.0	0.0	0.0	0.0	82.0	85.0	10.0	0.0	4.0	972.59	66.0	37.0	-19.0	-1000.0
1634988228.674525	2.0	1.0	-178.0	0.0	0.0	0.0	82.0	85.0	10.0	0.0	4.0	972.63	66.0	35.0	-19.0	-1000.0
1634988228.776789	2.0	1.0	-178.0	0.0	0.0	0.0	82.0	85.0	10.0	0.0	4.0	972.62	66.0	37.0	-18.0	-997.0
1634988228.868192	2.0	1.0	-178.0	0.0	0.0	0.0	83.0	86.0	10.0	0.0	4.0	972.63	66.0	36.0	-18.0	-1001.0
1634988228.981091	2.0	1.0	-178.0	0.0	0.0	0.0	83.0	86.0	10.0	0.0	4.0	972.58	66.0	36.0	-19.0	-996.0
1634988229.070464	2.0	1.0	-178.0	0.0	0.0	0.0	83.0	86.0	10.0	0.0	4.0	972.53	66.0	36.0	-19.0	-998.0
1634988229.172501	2.0	1.0	-178.0	0.0	0.0	0.0	83.0	86.0	10.0	0.0	4.0	972.61	66.0	36.0	-21.0	-999.0
1634988229.274772	2.0	1.0	-178.0	0.0	0.0	0.0	83.0	86.0	10.0	0.0	4.0	972.6	66.0	37.0	-21.0	-1000.0
1634988229.380306	2.0	1.0	-178.0	0.0	0.0	0.0	83.0	86.0	10.0	0.0	4.0	972.57	66.0	36.0	-19.0	-1004.0
1634988229.480043	2.0	1.0	-178.0	0.0	0.0	0.0	83.0	86.0	10.0	0.0	4.0	972.58	66.0	37.0	-20.0	-998.0
1634988229.591245	2.0	1.0	-178.0	0.0	0.0	0.0	83.0	86.0	10.0	0.0	4.0	972.58	66.0	38.0	-18.0	-1001.0
1634988229.679889	2.0	1.0	-178.0	0.0	0.0	0.0	83.0	86.0	10.0	0.0	4.0	972.61	66.0	36.0	-20.0	-997.0
1634988229.796159	2.0	1.0	-178.0	0.0	0.0	0.0	83.0	86.0	10.0	0.0	4.0	972.59	66.0	35.0	-21.0	-1001.0
1634988229.893679	2.0	1.0	-178.0	0.0	0.0	0.0	83.0	86.0	10.0	0.0	4.0	972.52	66.0	36.0	-19.0	-999.0
1634988229.995843	2.0	1.0	-178.0	0.0	0.0	0.0	83.0	86.0	10.0	0.0	4.0	972.58	66.0	37.0	-19.0	-997.0
1634988230.091414	2.0	1.0	-178.0	0.0	0.0	0.0	83.0	86.0	10.0	0.0	4.0	972.59	66.0	36.0	-20.0	-1001.0
1634988230.200764	2.0	1.0	-178.0	0.0	0.0	0.0	83.0	86.0	10.0	0.0	4.0	972.54	66.0	36.0	-19.0	-998.0
1634988230.306447	2.0	1.0	-178.0	0.0	0.0	0.0	83.0	86.0	10.0	0.0	4.0	972.65	66.0	35.0	-19.0	-995.0
1634988230.403295	2.0	1.0	-178.0	0.0	0.0	0.0	83.0	86.0	10.0	0.0	4.0	972.6	66.0	36.0	-20.0	-998.0
1634988230.498486	2.0	1.0	-178.0	0.0	0.0	0.0	83.0	86.0	10.0	0.0	4.0	972.62	66.0	36.0	-18.0	-1000.0
1634988230.554802	2.0	1.0	-178.0	0.0	0.0	0.0	83.0	86.0	10.0	0.0	4.0	972.58	66.0	36.0	-18.0	-996.0
1634988230.648715	2.0	1.0	-178.0	0.0	0.0	0.0	83.0	86.0	10.0	0.0	4.0	972.61	66.0	36.0	-20.0	-997.0
1634988230.761151	2.0	1.0	-178.0	0.0	0.0	0.0	83.0	86.0	10.0	0.0	4.0	972.55	66.0	37.0	-19.0	-1001.0
1634988230.863569	2.0	1.0	-178.0	0.0	0.0	0.0	83.0	86.0	10.0	0.0	4.0	972.56	66.0	37.0	-18.0	-1000.0
1634988230.960606	2.0	1.0	-178.0	0.0	0.0	0.0	83.0	86.0	10.0	0.0	4.0	972.61	66.0	37.0	-20.0	-1000.0
1634988231.056032	2.0	1.0	-178.0	0.0	0.0	0.0	83.0	86.0	10.0	0.0	4.0	972.58	66.0	37.0	-19.0	-999.0
1634988231.173298	2.0	1.0	-178.0	0.0	0.0	0.0	83.0	86.0	10.0	0.0	4.0	972.59	66.0	37.0	-18.0	-1001.0
1634988231.271121	2.0	1.0	-178.0	0.0	0.0	0.0	83.0	86.0	10.0	0.0	4.0	972.64	66.0	37.0	-19.0	-999.0
1634988231.377583	2.0	1.0	-178.0	0.0	0.0	0.0	83.0	86.0	10.0	0.0	4.0	972.61	66.0	39.0	-20.0	-997.0
1634988231.470328	2.0	1.0	-178.0	0.0	0.0	0.0	83.0	86.0	10.0	0.0	4.0	972.61	66.0	37.0	-20.0	-1000.0
1634988231.569654	2.0	1.0	-178.0	0.0	0.0	0.0	83.0	86.0	10.0	0.0	4.0	972.57	66.0	37.0	-19.0	-996.0
1634988231.680489	2.0	1.0	-178.0	0.0	0.0	0.0	83.0	86.0	10.0	0.0	4.0	972.51	66.0	36.0	-19.0	-998.0
1634988231.785661	2.0	1.0	-178.0	0.0	0.0	0.0	83.0	86.0	10.0	0.0	4.0	972.58	66.0	36.0	-18.0	-1000.0
1634988231.883961	2.0	1.0	-178.0	0.0	0.0	0.0	83.0	87.0	10.0	0.0	4.0	972.61	66.0	37.0	-18.0	-997.0
1634988231.979486	2.0	1.0	-178.0	0.0	0.0	0.0	83.0	87.0	10.0	0.0	4.0	972.58	66.0	36.0	-18.0	-997.0
1634988232.080543	2.0	1.0	-178.0	0.0	0.0	0.0	83.0	87.0	10.0	0.0	4.0	972.6	66.0	36.0	-21.0	-999.0
1634988232.193369	2.0	1.0	-178.0	0.0	0.0	0.0	83.0	87.0	10.0	0.0	4.0	972.6	66.0	36.0	-19.0	-999.0
1634988232.288367	2.0	1.0	-178.0	0.0	0.0	0.0	83.0	87.0	10.0	0.0	4.0	972.58	66.0	36.0	-18.0	-997.0
1634988232.389211	2.0	1.0	-178.0	0.0	0.0	0.0	83.0	87.0	10.0	0.0	4.0	972.56	66.0	37.0	-20.0	-1000.0
1634988232.484446	2.0	1.0	-178.0	0.0	0.0	0.0	83.0	87.0	10.0	0.0	4.0	972.59	66.0	35.0	-18.0	-1000.0
1634988232.598509	2.0	1.0	-178.0	0.0	0.0	0.0	83.0	87.0	10.0	0.0	4.0	972.57	66.0	35.0	-20.0	-997.0
1634988232.688567	2.0	1.0	-178.0	0.0	0.0	0.0	83.0	87.0	10.0	0.0	4.0	972.59	66.0	37.0	-19.0	-997.0
1634988232.795914	2.0	1.0	-178.0	0.0	0.0	0.0	83.0	87.0	10.0	0.0	4.0	972.57	66.0	38.0	-20.0	-998.0
1634988232.906645	2.0	1.0	-178.0	0.0	0.0	0.0	84.0	86.0	10.0	0.0	4.0	972.56	66.0	36.0	-20.0	-1000.0
1634988233.00913	2.0	1.0	-178.0	0.0	0.0	0.0	84.0	86.0	10.0	0.0	4.0	972.53	66.0	36.0	-19.0	-997.0
1634988233.106397	2.0	1.0	-178.0	0.0	0.0	0.0	84.0	86.0	10.0	0.0	4.0	972.56	66.0	35.0	-19.0	-1000.0
1634988233.209246	2.0	1.0	-178.0	0.0	0.0	0.0	84.0	86.0	10.0	0.0	4.0	972.58	66.0	37.0	-19.0	-998.0
1634988233.30297	2.0	1.0	-178.0	0.0	0.0	0.0	84.0	86.0	10.0	0.0	4.0	972.58	66.0	37.0	-20.0	-1000.0
1634988233.413856	2.0	1.0	-178.0	0.0	0.0	0.0	84.0	86.0	10.0	0.0	4.0	972.6	66.0	35.0	-20.0	-1002.0
1634988233.514047	2.0	1.0	-178.0	0.0	0.0	0.0	84.0	86.0	10.0	0.0	4.0	972.58	66.0	37.0	-19.0	-999.0
1634988233.609473	2.0	1.0	-178.0	0.0	0.0	0.0	84.0	86.0	10.0	0.0	4.0	972.54	66.0	35.0	-19.0	-997.0
1634988233.71882	2.0	1.0	-178.0	0.0	0.0	0.0	84.0	86.0	10.0	0.0	4.0	972.58	66.0	36.0	-20.0	-999.0
1634988233.811615	2.0	1.0	-178.0	0.0	0.0	0.0	84.0	86.0	10.0	0.0	4.0	972.59	66.0	36.0	-18.0	-998.0
1634988233.924443	2.0	1.0	-178.0	0.0	0.0	0.0	84.0	86.0	10.0	0.0	4.0	972.62	66.0	36.0	-20.0	-997.0
1634988234.023728	2.0	1.0	-178.0	0.0	0.0	0.0	84.0	86.0	10.0	0.0	4.0	972.62	66.0	35.0	-18.0	-999.0
1634988234.117239	2.0	1.0	-178.0	0.0	0.0	0.0	84.0	86.0	10.0	0.0	4.0	972.55	66.0	36.0	-20.0	-997.0
1634988234.181599	2.0	1.0	-178.0	0.0	0.0	0.0	84.0	86.0	10.0	0.0	4.0	972.59	66.0	36.0	-20.0	-999.0
1634988234.275335	2.0	1.0	-178.0	0.0	0.0	0.0	84.0	86.0	10.0	0.0	4.0	972.58	66.0	35.0	-18.0	-998.0
1634988234.38695	2.0	1.0	-178.0	0.0	0.0	0.0	84.0	86.0	10.0	0.0	4.0	972.6	66.0	36.0	-20.0	-999.0
1634988234.489185	2.0	1.0	-178.0	0.0	0.0	0.0	84.0	86.0	10.0	0.0	4.0	972.62	66.0	36.0	-18.0	-999.0
1634988234.586572	2.0	1.0	-178.0	0.0	0.0	0.0	84.0	86.0	10.0	0.0	4.0	972.54	66.0	36.0	-19.0	-996.0
1634988234.683909	2.0	1.0	-178.0	0.0	0.0	0.0	84.0	86.0	10.0	0.0	4.0	972.64	66.0	37.0	-20.0	-997.0
1634988234.795082	2.0	1.0	-178.0	0.0	0.0	0.0	84.0	86.0	10.0	0.0	4.0	972.55	66.0	35.0	-18.0	-998.0
1634988234.895987	2.0	1.0	-178.0	0.0	0.0	0.0	83.0	86.0	10.0	0.0	4.0	972.6	66.0	36.0	-20.0	-999.0
1634988234.983956	2.0	1.0	-178.0	0.0	0.0	0.0	83.0	86.0	10.0	0.0	4.0	972.56	66.0	37.0	-19.0	-998.0
1634988235.09537	2.0	1.0	-178.0	0.0	0.0	0.0	83.0	86.0	10.0	0.0	4.0	972.58	66.0	35.0	-17.0	-995.0
1634988235.189088	2.0	1.0	-178.0	0.0	0.0	0.0	83.0	86.0	10.0	0.0	4.0	972.57	66.0	37.0	-19.0	-999.0
1634988235.297168	2.0	1.0	-178.0	0.0	0.0	0.0	83.0	86.0	10.0	0.0	4.0	972.6	66.0	37.0	-18.0	-998.0
1634988235.395801	2.0	1.0	-178.0	0.0	0.0	0.0	83.0	86.0	10.0	0.0	4.0	972.55	66.0	35.0	-19.0	-999.0
1634988235.507063	2.0	1.0	-178.0	0.0	0.0	0.0	83.0	86.0	10.0	0.0	4.0	972.63	66.0	38.0	-17.0	-997.0
1634988235.610708	2.0	1.0	-178.0	0.0	0.0	0.0	83.0	86.0	10.0	0.0	4.0	972.55	66.0	36.0	-20.0	-1000.0
1634988235.706387	2.0	1.0	-178.0	0.0	0.0	0.0	83.0	86.0	10.0	0.0	4.0	972.57	66.0	36.0	-19.0	-999.0
1634988235.80012	2.0	1.0	-178.0	0.0	0.0	0.0	83.0	86.0	10.0	0.0	4.0	972.55	66.0	35.0	-18.0	-1001.0
1634988235.901899	2.0	1.0	-178.0	0.0	0.0	0.0	83.0	86.0	10.0	0.0	4.0	972.58	66.0	39.0	-19.0	-1000.0
1634988236.014425	2.0	1.0	-178.0	0.0	0.0	0.0	83.0	86.0	10.0	0.0	4.0	972.61	66.0	36.0	-21.0	-997.0
1634988236.109861	2.0	1.0	-178.0	0.0	0.0	0.0	83.0	86.0	10.0	0.0	4.0	972.58	66.0	36.0	-20.0	-1002.0
1634988236.216986	2.0	1.0	-178.0	0.0	0.0	0.0	83.0	86.0	10.0	0.0	4.0	972.62	66.0	35.0	-19.0	-997.0
1634988236.31242	2.0	1.0	-178.0	0.0	0.0	0.0	83.0	86.0	10.0	0.0	4.0	972.54	66.0	37.0	-18.0	-999.0
1634988236.425034	2.0	1.0	-178.0	0.0	0.0	0.0	83.0	86.0	10.0	0.0	4.0	972.55	66.0	37.0	-21.0	-1000.0
1634988236.525358	2.0	1.0	-178.0	0.0	0.0	0.0	83.0	86.0	10.0	0.0	4.0	972.6	66.0	36.0	-20.0	-996.0
1634988236.630838	2.0	1.0	-178.0	0.0	0.0	0.0	83.0	86.0	10.0	0.0	4.0	972.6	66.0	37.0	-20.0	-998.0
1634988236.729863	2.0	1.0	-178.0	0.0	0.0	0.0	83.0	86.0	10.0	0.0	4.0	972.69	66.0	36.0	-19.0	-999.0
1634988236.934815	2.0	1.0	-178.0	0.0	0.0	0.0	83.0	86.0	10.0	0.0	4.0	972.65	66.0	35.0	-20.0	-1001.0
1634988236.934815	2.0	1.0	-178.0	0.0	0.0	0.0	84.0	87.0	10.0	0.0	4.0	972.62	66.0	37.0	-19.0	-998.0
1634988237.078572	2.0	1.0	-178.0	0.0	0.0	0.0	84.0	87.0	10.0	0.0	4.0	972.56	66.0	36.0	-20.0	-998.0
1634988237.249509	2.0	1.0	-178.0	0.0	0.0	0.0	84.0	87.0	10.0	0.0	4.0	972.6	66.0	35.0	-19.0	-999.0
1634988237.260203	2.0	1.0	-178.0	0.0	0.0	0.0	84.0	87.0	10.0	0.0	4.0	972.64	66.0	36.0	-20.0	-997.0
1634988237.390689	2.0	1.0	-178.0	0.0	0.0	0.0	84.0	87.0	10.0	0.0	4.0	972.63	66.0	36.0	-19.0	-996.0
1634988237.530714	2.0	1.0	-178.0	0.0	0.0	0.0	84.0	87.0	10.0	0.0	4.0	972.63	66.0	38.0	-20.0	-995.0
1634988237.545803	2.0	1.0	-178.0	0.0	0.0	0.0	84.0	87.0	10.0	0.0	4.0	972.55	66.0	34.0	-19.0	-1001.0
1634988237.690117	2.0	1.0	-178.0	0.0	0.0	0.0	84.0	87.0	10.0	0.0	4.0	972.56	66.0	37.0	-19.0	-999.0
1634988237.854891	2.0	1.0	-178.0	0.0	0.0	0.0	84.0	87.0	10.0	0.0	4.0	972.56	66.0	36.0	-19.0	-997.0
1634988237.854891	2.0	1.0	-178.0	0.0	0.0	0.0	84.0	87.0	10.0	0.0	4.0	972.6	66.0	37.0	-20.0	-999.0
1634988237.998488	2.0	1.0	-178.0	0.0	0.0	0.0	84.0	87.0	10.0	0.0	4.0	972.63	66.0	35.0	-19.0	-999.0
1634988237.998488	2.0	1.0	-178.0	0.0	0.0	0.0	84.0	87.0	10.0	0.0	4.0	972.58	66.0	36.0	-21.0	-997.0
1634988238.163444	2.0	1.0	-178.0	0.0	0.0	0.0	84.0	87.0	10.0	0.0	4.0	972.59	66.0	37.0	-18.0	-1000.0
1634988238.308389	2.0	1.0	-178.0	0.0	0.0	0.0	84.0	87.0	10.0	0.0	4.0	972.61	66.0	35.0	-18.0	-1000.0
1634988238.308389	2.0	1.0	-178.0	0.0	0.0	0.0	84.0	87.0	10.0	0.0	4.0	972.56	66.0	36.0	-20.0	-997.0
1634988238.471939	2.0	1.0	-178.0	0.0	0.0	0.0	84.0	87.0	10.0	0.0	4.0	972.53	66.0	36.0	-19.0	-1001.0
1634988238.626689	2.0	1.0	-178.0	0.0	0.0	0.0	84.0	87.0	10.0	0.0	4.0	972.57	66.0	37.0	-20.0	-998.0
1634988238.626689	2.0	1.0	-178.0	0.0	0.0	0.0	84.0	87.0	10.0	0.0	4.0	972.59	66.0	38.0	-19.0	-998.0
1634988238.712992	2.0	1.0	-178.0	0.0	0.0	0.0	84.0	87.0	10.0	0.0	4.0	972.56	66.0	38.0	-19.0	-1000.0
1634988238.812723	2.0	1.0	-178.0	0.0	0.0	0.0	84.0	87.0	10.0	0.0	4.0	972.66	66.0	36.0	-19.0	-996.0
1634988238.925689	2.0	1.0	-178.0	0.0	0.0	0.0	83.0	87.0	10.0	0.0	4.0	972.59	66.0	37.0	-18.0	-999.0
1634988239.026351	2.0	1.0	-178.0	0.0	0.0	0.0	83.0	87.0	10.0	0.0	4.0	972.58	66.0	37.0	-18.0	-999.0
1634988239.122112	2.0	1.0	-178.0	0.0	0.0	0.0	83.0	87.0	10.0	0.0	4.0	972.62	66.0	36.0	-19.0	-998.0
1634988239.231466	2.0	1.0	-178.0	0.0	0.0	0.0	83.0	87.0	10.0	0.0	4.0	972.61	66.0	35.0	-20.0	-1000.0
1634988239.323045	2.0	1.0	-178.0	0.0	0.0	0.0	83.0	87.0	10.0	0.0	4.0	972.6	66.0	37.0	-18.0	-1000.0
1634988239.426405	2.0	1.0	-178.0	0.0	0.0	0.0	83.0	87.0	10.0	0.0	4.0	972.55	66.0	36.0	-20.0	-998.0
1634988239.525393	2.0	1.0	-178.0	0.0	0.0	0.0	83.0	87.0	10.0	0.0	4.0	972.6	66.0	37.0	-20.0	-997.0
1634988239.630384	2.0	1.0	-178.0	0.0	0.0	0.0	83.0	87.0	10.0	0.0	4.0	972.61	66.0	36.0	-19.0	-999.0
1634988239.739739	2.0	1.0	-178.0	0.0	0.0	0.0	83.0	87.0	10.0	0.0	4.0	972.68	66.0	35.0	-19.0	-999.0
1634988239.832718	2.0	1.0	-178.0	0.0	0.0	0.0	83.0	87.0	10.0	0.0	4.0	972.61	66.0	36.0	-19.0	-1001.0
1634988239.93404	2.0	1.0	-178.0	0.0	0.0	0.0	84.0	87.0	10.0	0.0	4.0	972.61	66.0	37.0	-19.0	-998.0
1634988240.041909	2.0	1.0	-178.0	0.0	0.0	0.0	84.0	87.0	10.0	0.0	4.0	972.64	66.0	36.0	-18.0	-997.0
1634988240.149827	2.0	1.0	-178.0	0.0	0.0	0.0	84.0	87.0	10.0	0.0	4.0	972.61	66.0	36.0	-19.0	-999.0
1634988240.252099	2.0	1.0	-178.0	0.0	0.0	0.0	84.0	87.0	10.0	0.0	4.0	972.65	66.0	36.0	-18.0	-998.0
1634988240.353469	2.0	1.0	-178.0	0.0	0.0	0.0	84.0	87.0	10.0	0.0	4.0	972.56	66.0	36.0	-18.0	-999.0
1634988240.451512	2.0	1.0	-178.0	0.0	0.0	0.0	84.0	87.0	10.0	0.0	4.0	972.65	66.0	36.0	-19.0	-998.0
1634988240.550973	2.0	1.0	-178.0	0.0	0.0	0.0	84.0	87.0	10.0	0.0	4.0	972.62	66.0	37.0	-18.0	-998.0
1634988240.659395	2.0	1.0	-178.0	0.0	0.0	0.0	84.0	87.0	10.0	0.0	4.0	972.64	66.0	36.0	-19.0	-997.0
1634988240.761876	2.0	1.0	-178.0	0.0	0.0	0.0	84.0	87.0	10.0	0.0	4.0	972.56	66.0	36.0	-21.0	-996.0
1634988240.863956	2.0	1.0	-178.0	0.0	0.0	0.0	84.0	87.0	10.0	0.0	4.0	972.62	66.0	36.0	-19.0	-997.0
1634988240.965383	2.0	1.0	-178.0	0.0	0.0	0.0	84.0	88.0	10.0	0.0	4.0	972.57	66.0	37.0	-18.0	-999.0
1634988241.052125	2.0	1.0	-178.0	0.0	0.0	0.0	84.0	88.0	10.0	0.0	4.0	972.7	66.0	37.0	-20.0	-1001.0
1634988241.168965	2.0	1.0	-178.0	0.0	0.0	0.0	84.0	88.0	10.0	0.0	4.0	972.61	66.0	37.0	-19.0	-996.0
1634988241.271775	2.0	1.0	-178.0	0.0	0.0	0.0	84.0	88.0	10.0	0.0	4.0	972.63	66.0	35.0	-20.0	-1000.0
1634988241.363855	2.0	1.0	-178.0	0.0	0.0	0.0	84.0	88.0	10.0	0.0	4.0	972.64	66.0	37.0	-19.0	-1000.0
1634988241.466551	2.0	1.0	-178.0	0.0	0.0	0.0	84.0	88.0	10.0	0.0	4.0	972.66	66.0	37.0	-19.0	-998.0
1634988241.575895	2.0	1.0	-178.0	0.0	0.0	0.0	84.0	88.0	10.0	0.0	4.0	972.59	66.0	35.0	-21.0	-995.0
1634988241.622762	2.0	1.0	-178.0	0.0	0.0	0.0	84.0	88.0	10.0	0.0	4.0	972.64	66.0	36.0	-19.0	-998.0
1634988241.727375	2.0	1.0	-178.0	0.0	0.0	0.0	84.0	88.0	10.0	0.0	4.0	972.61	66.0	37.0	-19.0	-999.0
1634988241.833323	2.0	1.0	-178.0	0.0	0.0	0.0	84.0	88.0	10.0	0.0	4.0	972.67	66.0	37.0	-19.0	-998.0
1634988241.930114	2.0	1.0	-178.0	0.0	0.0	0.0	85.0	87.0	10.0	0.0	4.0	972.61	66.0	35.0	-20.0	-996.0
1634988242.036393	2.0	1.0	-178.0	0.0	0.0	0.0	85.0	87.0	10.0	0.0	4.0	972.59	66.0	36.0	-18.0	-1000.0
1634988242.125033	2.0	1.0	-178.0	0.0	0.0	0.0	85.0	87.0	10.0	0.0	4.0	972.63	66.0	38.0	-20.0	-998.0
1634988242.234566	2.0	1.0	-178.0	0.0	0.0	0.0	85.0	87.0	10.0	0.0	4.0	972.62	66.0	36.0	-20.0	-997.0
1634988242.334106	2.0	1.0	-178.0	0.0	0.0	0.0	85.0	87.0	10.0	0.0	4.0	972.57	66.0	35.0	-19.0	-998.0
1634988242.429396	2.0	1.0	-178.0	0.0	0.0	0.0	85.0	87.0	10.0	0.0	4.0	972.68	66.0	36.0	-19.0	-998.0
1634988242.543429	2.0	1.0	-178.0	0.0	0.0	0.0	85.0	87.0	10.0	0.0	4.0	972.64	66.0	36.0	-19.0	-998.0
1634988242.643245	2.0	1.0	-178.0	0.0	0.0	0.0	85.0	87.0	10.0	0.0	4.0	972.63	66.0	36.0	-19.0	-997.0
1634988242.73716	2.0	1.0	-178.0	0.0	0.0	0.0	85.0	87.0	10.0	0.0	4.0	972.62	66.0	38.0	-20.0	-1001.0
1634988242.849656	2.0	1.0	-178.0	0.0	0.0	0.0	85.0	87.0	10.0	0.0	4.0	972.62	66.0	36.0	-18.0	-1000.0
1634988242.953944	2.0	1.0	-178.0	0.0	0.0	0.0	85.0	87.0	10.0	0.0	4.0	972.57	66.0	37.0	-20.0	-1002.0
1634988243.051136	2.0	1.0	-178.0	0.0	0.0	0.0	85.0	87.0	10.0	0.0	4.0	972.61	66.0	38.0	-19.0	-1002.0
1634988243.144859	2.0	1.0	-178.0	0.0	0.0	0.0	85.0	87.0	10.0	0.0	4.0	972.59	66.0	35.0	-19.0	-998.0
1634988243.250699	2.0	1.0	-178.0	0.0	0.0	0.0	85.0	87.0	10.0	0.0	4.0	972.62	66.0	36.0	-18.0	-1000.0
1634988243.348084	2.0	1.0	-178.0	0.0	0.0	0.0	85.0	87.0	10.0	0.0	4.0	972.6	66.0	35.0	-18.0	-995.0
1634988243.465033	2.0	1.0	-178.0	0.0	0.0	0.0	85.0	87.0	10.0	0.0	4.0	972.65	66.0	36.0	-18.0	-996.0
1634988243.566682	2.0	1.0	-178.0	0.0	0.0	0.0	85.0	87.0	10.0	0.0	4.0	972.65	66.0	35.0	-20.0	-998.0
1634988243.66588	2.0	1.0	-178.0	0.0	0.0	0.0	85.0	87.0	10.0	0.0	4.0	972.62	66.0	38.0	-19.0	-999.0
1634988243.764699	2.0	1.0	-178.0	0.0	0.0	0.0	85.0	87.0	10.0	0.0	4.0	972.67	66.0	38.0	-17.0	-1000.0
1634988243.871242	2.0	1.0	-178.0	0.0	0.0	0.0	85.0	87.0	10.0	0.0	4.0	972.66	66.0	35.0	-18.0	-995.0
1634988243.968767	2.0	1.0	-178.0	0.0	0.0	0.0	84.0	87.0	10.0	0.0	4.0	972.64	66.0	36.0	-18.0	-996.0
1634988244.065913	2.0	1.0	-178.0	0.0	0.0	0.0	84.0	87.0	10.0	0.0	4.0	972.71	66.0	35.0	-19.0	-997.0
1634988244.178696	2.0	1.0	-178.0	0.0	0.0	0.0	84.0	87.0	10.0	0.0	4.0	972.64	66.0	36.0	-20.0	-999.0
1634988244.275364	2.0	1.0	-178.0	0.0	0.0	0.0	84.0	87.0	10.0	0.0	4.0	972.62	66.0	37.0	-21.0	-997.0
1634988244.369105	2.0	1.0	-178.0	0.0	0.0	0.0	84.0	87.0	10.0	0.0	4.0	972.58	66.0	38.0	-20.0	-999.0
1634988244.474959	2.0	1.0	-178.0	0.0	0.0	0.0	84.0	87.0	10.0	0.0	4.0	972.64	66.0	36.0	-19.0	-999.0
1634988244.574082	2.0	1.0	-178.0	0.0	0.0	0.0	84.0	87.0	10.0	0.0	4.0	972.69	66.0	36.0	-20.0	-1001.0
1634988244.684927	2.0	1.0	-178.0	0.0	0.0	0.0	84.0	87.0	10.0	0.0	4.0	972.64	66.0	38.0	-21.0	-1000.0
1634988244.79064	2.0	1.0	-178.0	0.0	0.0	0.0	84.0	87.0	10.0	0.0	4.0	972.62	66.0	35.0	-21.0	-999.0
1634988244.892686	2.0	1.0	-178.0	0.0	0.0	0.0	84.0	87.0	10.0	0.0	4.0	972.62	66.0	37.0	-20.0	-997.0
1634988244.990988	2.0	1.0	-178.0	0.0	0.0	0.0	85.0	88.0	10.0	0.0	4.0	972.6	66.0	37.0	-18.0	-1001.0
1634988245.094425	2.0	1.0	-178.0	0.0	0.0	0.0	85.0	88.0	10.0	0.0	4.0	972.65	66.0	36.0	-18.0	-1002.0
1634988245.143084	2.0	1.0	-178.0	0.0	0.0	0.0	85.0	88.0	10.0	0.0	4.0	972.66	66.0	36.0	-20.0	-998.0
1634988245.238528	2.0	1.0	-178.0	0.0	0.0	0.0	85.0	88.0	10.0	0.0	4.0	972.64	66.0	37.0	-18.0	-1001.0
1634988245.341869	2.0	1.0	-178.0	0.0	0.0	0.0	85.0	88.0	10.0	0.0	4.0	972.66	66.0	36.0	-18.0	-998.0
1634988245.453726	2.0	1.0	-178.0	0.0	0.0	0.0	85.0	88.0	10.0	0.0	4.0	972.62	66.0	37.0	-20.0	-995.0
1634988245.55054	2.0	1.0	-178.0	0.0	0.0	0.0	85.0	88.0	10.0	0.0	4.0	972.61	66.0	36.0	-21.0	-998.0
1634988245.655019	2.0	1.0	-178.0	0.0	0.0	0.0	85.0	88.0	10.0	0.0	4.0	972.65	66.0	39.0	-21.0	-996.0
1634988245.75049	2.0	1.0	-178.0	0.0	0.0	0.0	85.0	88.0	10.0	0.0	4.0	972.65	66.0	36.0	-18.0	-998.0
1634988245.862354	2.0	1.0	-178.0	0.0	0.0	0.0	85.0	88.0	10.0	0.0	4.0	972.64	66.0	36.0	-19.0	-998.0
1634988245.958988	2.0	1.0	-178.0	0.0	0.0	0.0	84.0	88.0	10.0	0.0	4.0	972.65	66.0	37.0	-20.0	-995.0
1634988246.054347	2.0	1.0	-178.0	0.0	0.0	0.0	84.0	88.0	10.0	0.0	4.0	972.7	66.0	36.0	-19.0	-998.0
1634988246.159481	2.0	1.0	-178.0	0.0	0.0	0.0	84.0	88.0	10.0	0.0	4.0	972.67	66.0	35.0	-20.0	-998.0
1634988246.256782	2.0	1.0	-178.0	0.0	0.0	0.0	84.0	88.0	10.0	0.0	4.0	972.73	66.0	35.0	-20.0	-999.0
1634988246.366133	2.0	1.0	-178.0	0.0	0.0	0.0	84.0	88.0	10.0	0.0	4.0	972.64	66.0	36.0	-18.0	-998.0
1634988246.470715	2.0	1.0	-178.0	0.0	0.0	0.0	84.0	88.0	10.0	0.0	4.0	972.62	66.0	37.0	-18.0	-999.0
1634988246.566172	2.0	1.0	-178.0	0.0	0.0	0.0	84.0	88.0	10.0	0.0	4.0	972.59	66.0	36.0	-20.0	-999.0
1634988246.677176	2.0	1.0	-178.0	0.0	0.0	0.0	84.0	88.0	10.0	0.0	4.0	972.64	66.0	37.0	-20.0	-997.0
1634988246.779394	2.0	1.0	-178.0	0.0	0.0	0.0	84.0	88.0	10.0	0.0	4.0	972.6	66.0	37.0	-19.0	-1002.0
1634988246.87619	2.0	1.0	-178.0	0.0	0.0	0.0	84.0	88.0	10.0	0.0	4.0	972.64	66.0	35.0	-19.0	-999.0
1634988246.971666	2.0	1.0	-178.0	0.0	0.0	0.0	85.0	88.0	10.0	0.0	4.0	972.66	66.0	37.0	-19.0	-1001.0
1634988247.076844	2.0	1.0	-178.0	0.0	0.0	0.0	85.0	88.0	10.0	0.0	4.0	972.63	66.0	37.0	-19.0	-998.0
1634988247.173996	2.0	1.0	-178.0	0.0	0.0	0.0	85.0	88.0	10.0	0.0	4.0	972.62	66.0	37.0	-20.0	-999.0
1634988247.288779	2.0	1.0	-178.0	0.0	0.0	0.0	85.0	88.0	10.0	0.0	4.0	972.59	66.0	36.0	-18.0	-995.0
1634988247.381348	2.0	1.0	-178.0	0.0	0.0	0.0	85.0	88.0	10.0	0.0	4.0	972.67	66.0	36.0	-20.0	-1000.0
1634988247.479569	2.0	1.0	-178.0	0.0	0.0	0.0	85.0	88.0	10.0	0.0	4.0	972.6	66.0	36.0	-19.0	-997.0
1634988247.591989	2.0	1.0	-178.0	0.0	0.0	0.0	85.0	88.0	10.0	0.0	4.0	972.65	66.0	36.0	-20.0	-997.0
1634988247.695503	2.0	1.0	-178.0	0.0	0.0	0.0	85.0	88.0	10.0	0.0	4.0	972.62	66.0	37.0	-19.0	-997.0
1634988247.794501	2.0	1.0	-178.0	0.0	0.0	0.0	85.0	88.0	10.0	0.0	4.0	972.67	66.0	37.0	-19.0	-997.0
1634988247.890071	2.0	1.0	-178.0	0.0	0.0	0.0	85.0	88.0	10.0	0.0	4.0	972.63	66.0	36.0	-20.0	-998.0
1634988247.993793	2.0	1.0	-178.0	0.0	0.0	0.0	85.0	87.0	10.0	0.0	4.0	972.66	66.0	38.0	-19.0	-996.0
1634988248.105132	2.0	1.0	-178.0	0.0	0.0	0.0	85.0	87.0	10.0	0.0	4.0	972.62	66.0	36.0	-19.0	-996.0
1634988248.200502	2.0	1.0	-178.0	0.0	0.0	0.0	85.0	87.0	10.0	0.0	4.0	972.64	66.0	35.0	-18.0	-1000.0
1634988248.301221	2.0	1.0	-178.0	0.0	0.0	0.0	85.0	87.0	10.0	0.0	4.0	972.66	66.0	37.0	-19.0	-997.0
1634988248.396769	2.0	1.0	-178.0	0.0	0.0	0.0	85.0	87.0	10.0	0.0	4.0	972.6	66.0	35.0	-20.0	-999.0
1634988248.509567	2.0	1.0	-178.0	0.0	0.0	0.0	85.0	87.0	10.0	0.0	4.0	972.6	66.0	37.0	-18.0	-1000.0
1634988248.600291	2.0	1.0	-178.0	0.0	0.0	0.0	85.0	87.0	10.0	0.0	4.0	972.63	66.0	37.0	-20.0	-999.0
1634988248.788387	2.0	1.0	-178.0	0.0	0.0	0.0	85.0	87.0	10.0	0.0	4.0	972.63	66.0	38.0	-19.0	-997.0
1634988248.788387	2.0	1.0	-178.0	0.0	0.0	0.0	85.0	87.0	10.0	0.0	4.0	972.6	66.0	36.0	-19.0	-998.0
1634988248.927541	2.0	1.0	-178.0	0.0	0.0	0.0	85.0	87.0	10.0	0.0	4.0	972.6	66.0	35.0	-18.0	-997.0
1634988249.02368	2.0	1.0	-178.0	0.0	0.0	0.0	85.0	88.0	10.0	0.0	4.0	972.68	66.0	36.0	-20.0	-996.0
1634988249.071988	2.0	1.0	-178.0	0.0	0.0	0.0	85.0	88.0	10.0	0.0	4.0	972.65	66.0	35.0	-19.0	-998.0
1634988249.228642	2.0	1.0	-178.0	0.0	0.0	0.0	85.0	88.0	10.0	0.0	4.0	972.64	66.0	36.0	-20.0	-998.0
1634988249.372877	2.0	1.0	-178.0	0.0	0.0	0.0	85.0	88.0	10.0	0.0	4.0	972.65	66.0	35.0	-21.0	-1000.0
1634988249.380471	2.0	1.0	-178.0	0.0	0.0	0.0	85.0	88.0	10.0	0.0	4.0	972.65	66.0	36.0	-20.0	-998.0
1634988249.528071	2.0	1.0	-178.0	0.0	0.0	0.0	85.0	88.0	10.0	0.0	4.0	972.62	66.0	37.0	-19.0	-999.0
1634988249.667042	2.0	1.0	-178.0	0.0	0.0	0.0	85.0	88.0	10.0	0.0	4.0	972.65	66.0	34.0	-20.0	-999.0
1634988249.682658	2.0	1.0	-178.0	0.0	0.0	0.0	85.0	88.0	10.0	0.0	4.0	972.65	66.0	34.0	-19.0	-1000.0
1634988249.83373	2.0	1.0	-178.0	0.0	0.0	0.0	85.0	88.0	10.0	0.0	4.0	972.65	66.0	36.0	-20.0	-999.0
1634988249.967683	2.0	1.0	-178.0	0.0	0.0	0.0	85.0	88.0	10.0	0.0	4.0	972.66	66.0	35.0	-19.0	-995.0
1634988249.984832	2.0	1.0	-178.0	0.0	0.0	0.0	85.0	88.0	10.0	0.0	4.0	972.66	66.0	35.0	-19.0	-997.0
1634988250.130487	2.0	1.0	-178.0	0.0	0.0	0.0	85.0	88.0	10.0	0.0	4.0	972.63	66.0	35.0	-18.0	-998.0
1634988250.278315	2.0	1.0	-178.0	0.0	0.0	0.0	85.0	88.0	10.0	0.0	4.0	972.62	66.0	36.0	-19.0	-997.0
1634988250.287133	2.0	1.0	-178.0	0.0	0.0	0.0	85.0	88.0	10.0	0.0	4.0	972.66	66.0	36.0	-20.0	-1002.0
1634988250.287133	2.0	1.0	-178.0	0.0	0.0	0.0	85.0	88.0	10.0	0.0	4.0	972.66	66.0	36.0	-20.0	-1002.0
1634988250.444413	2.0	1.0	-178.0	0.0	0.0	0.0	85.0	88.0	10.0	0.0	4.0	972.63	66.0	35.0	-20.0	-1000.0
1634988250.585701	2.0	1.0	-178.0	0.0	0.0	0.0	85.0	88.0	10.0	0.0	4.0	972.66	66.0	35.0	-19.0	-997.0
1634988250.595748	2.0	1.0	-178.0	0.0	0.0	0.0	85.0	88.0	10.0	0.0	4.0	972.64	66.0	36.0	-19.0	-999.0
1634988250.771043	2.0	1.0	-178.0	0.0	0.0	0.0	85.0	88.0	10.0	0.0	4.0	972.66	66.0	35.0	-19.0	-998.0
1634988250.908455	2.0	1.0	-178.0	0.0	0.0	0.0	85.0	88.0	10.0	0.0	4.0	972.6	66.0	35.0	-19.0	-997.0
1634988250.908455	2.0	1.0	-178.0	0.0	0.0	0.0	85.0	88.0	10.0	0.0	4.0	972.62	66.0	36.0	-19.0	-1001.0
1634988251.071908	2.0	1.0	-178.0	0.0	0.0	0.0	85.0	87.0	10.0	0.0	4.0	972.6	66.0	37.0	-20.0	-996.0
1634988251.218845	2.0	1.0	-178.0	0.0	0.0	0.0	85.0	87.0	10.0	0.0	4.0	972.61	66.0	37.0	-20.0	-1001.0
1634988251.218845	2.0	1.0	-178.0	0.0	0.0	0.0	85.0	87.0	10.0	0.0	4.0	972.66	66.0	39.0	-19.0	-998.0
1634988251.366222	2.0	1.0	-178.0	0.0	0.0	0.0	85.0	87.0	10.0	0.0	4.0	972.67	66.0	36.0	-21.0	-998.0
1634988251.512622	2.0	1.0	-178.0	0.0	0.0	0.0	85.0	87.0	10.0	0.0	4.0	972.69	66.0	35.0	-20.0	-1001.0
1634988251.512622	2.0	1.0	-178.0	0.0	0.0	0.0	85.0	87.0	10.0	0.0	4.0	972.61	66.0	36.0	-18.0	-1000.0
1634988251.6921	2.0	1.0	-178.0	0.0	0.0	0.0	85.0	87.0	10.0	0.0	4.0	972.69	66.0	38.0	-19.0	-1001.0
1634988251.832689	2.0	1.0	-178.0	0.0	0.0	0.0	85.0	87.0	10.0	0.0	4.0	972.67	66.0	35.0	-19.0	-998.0
1634988251.832689	2.0	1.0	-178.0	0.0	0.0	0.0	85.0	87.0	10.0	0.0	4.0	972.6	66.0	37.0	-20.0	-1000.0
1634988251.995821	2.0	1.0	-178.0	0.0	0.0	0.0	85.0	87.0	10.0	0.0	4.0	972.68	66.0	35.0	-19.0	-1000.0
1634988252.138377	2.0	1.0	-178.0	0.0	0.0	0.0	85.0	88.0	10.0	0.0	4.0	972.6	66.0	36.0	-19.0	-996.0
1634988252.138377	2.0	1.0	-178.0	0.0	0.0	0.0	85.0	88.0	10.0	0.0	4.0	972.62	66.0	37.0	-18.0	-998.0
1634988252.185241	2.0	1.0	-178.0	0.0	0.0	0.0	85.0	88.0	10.0	0.0	4.0	972.64	66.0	37.0	-18.0	-1001.0
1634988252.297966	2.0	1.0	-178.0	0.0	0.0	0.0	85.0	88.0	10.0	0.0	4.0	972.66	66.0	37.0	-20.0	-999.0
1634988252.450325	2.0	1.0	-178.0	0.0	0.0	0.0	85.0	88.0	10.0	0.0	4.0	972.61	66.0	36.0	-21.0	-998.0
1634988252.492236	2.0	1.0	-178.0	0.0	0.0	0.0	85.0	88.0	10.0	0.0	4.0	972.62	66.0	37.0	-20.0	-997.0
1634988252.579312	2.0	1.0	-178.0	0.0	0.0	0.0	85.0	88.0	10.0	0.0	4.0	972.59	66.0	37.0	-19.0	-999.0
1634988252.693613	2.0	1.0	-178.0	0.0	0.0	0.0	85.0	88.0	10.0	0.0	4.0	972.59	66.0	36.0	-18.0	-998.0
1634988252.787526	2.0	1.0	-178.0	0.0	0.0	0.0	85.0	88.0	10.0	0.0	4.0	972.57	66.0	36.0	-19.0	-1001.0
1634988252.88831	2.0	1.0	-178.0	0.0	0.0	0.0	85.0	88.0	10.0	0.0	4.0	972.64	66.0	38.0	-20.0	-1000.0
1634988253.002176	2.0	1.0	-178.0	0.0	0.0	0.0	85.0	88.0	10.0	0.0	4.0	972.6	66.0	36.0	-20.0	-996.0
1634988253.098614	2.0	1.0	-178.0	0.0	0.0	0.0	85.0	88.0	10.0	0.0	4.0	972.59	66.0	36.0	-21.0	-999.0
1634988253.19511	2.0	1.0	-178.0	0.0	0.0	0.0	85.0	88.0	10.0	0.0	4.0	972.59	66.0	35.0	-20.0	-998.0
1634988253.304642	2.0	1.0	-178.0	0.0	0.0	0.0	85.0	88.0	10.0	0.0	4.0	972.64	66.0	37.0	-19.0	-998.0
1634988253.400117	2.0	1.0	-178.0	0.0	0.0	0.0	85.0	88.0	10.0	0.0	4.0	972.63	66.0	37.0	-21.0	-1001.0
1634988253.497588	2.0	1.0	-178.0	0.0	0.0	0.0	85.0	88.0	10.0	0.0	4.0	972.63	66.0	37.0	-20.0	-999.0
1634988253.610556	2.0	1.0	-178.0	0.0	0.0	0.0	85.0	88.0	10.0	0.0	4.0	972.66	66.0	35.0	-19.0	-996.0
1634988253.705719	2.0	1.0	-178.0	0.0	0.0	0.0	85.0	88.0	10.0	0.0	4.0	972.56	66.0	36.0	-19.0	-998.0
1634988253.806509	2.0	1.0	-178.0	0.0	0.0	0.0	85.0	88.0	10.0	0.0	4.0	972.61	66.0	37.0	-19.0	-998.0
1634988253.917658	2.0	1.0	-178.0	0.0	0.0	0.0	85.0	88.0	10.0	0.0	4.0	972.6	66.0	36.0	-20.0	-999.0
1634988254.022343	2.0	1.0	-178.0	0.0	0.0	0.0	86.0	88.0	10.0	0.0	4.0	972.65	66.0	37.0	-21.0	-1000.0
1634988254.125433	2.0	1.0	-178.0	0.0	0.0	0.0	86.0	88.0	10.0	0.0	4.0	972.63	66.0	36.0	-20.0	-1000.0
1634988254.222932	2.0	1.0	-178.0	0.0	0.0	0.0	86.0	88.0	10.0	0.0	4.0	972.57	66.0	37.0	-19.0	-1000.0
1634988254.316661	2.0	1.0	-178.0	0.0	0.0	0.0	86.0	88.0	10.0	0.0	4.0	972.6	66.0	36.0	-19.0	-999.0
1634988254.426708	2.0	1.0	-178.0	0.0	0.0	0.0	86.0	88.0	10.0	0.0	4.0	972.59	66.0	37.0	-20.0	-999.0
1634988254.532383	2.0	1.0	-178.0	0.0	0.0	0.0	86.0	88.0	10.0	0.0	4.0	972.57	66.0	36.0	-19.0	-999.0
1634988254.627953	2.0	1.0	-178.0	0.0	0.0	0.0	86.0	88.0	10.0	0.0	4.0	972.64	66.0	38.0	-19.0	-997.0
1634988254.726289	2.0	1.0	-178.0	0.0	0.0	0.0	86.0	88.0	10.0	0.0	4.0	972.62	66.0	37.0	-20.0	-998.0
1634988254.823604	2.0	1.0	-178.0	0.0	0.0	0.0	86.0	88.0	10.0	0.0	4.0	972.59	66.0	37.0	-19.0	-998.0
1634988254.935942	2.0	1.0	-178.0	0.0	0.0	0.0	86.0	88.0	10.0	0.0	4.0	972.59	66.0	37.0	-21.0	-1001.0
1634988255.028592	2.0	1.0	-178.0	0.0	0.0	0.0	85.0	88.0	10.0	0.0	4.0	972.59	66.0	35.0	-19.0	-999.0
1634988255.139433	2.0	1.0	-178.0	0.0	0.0	0.0	85.0	88.0	10.0	0.0	4.0	972.65	66.0	36.0	-19.0	-999.0
1634988255.23489	2.0	1.0	-178.0	0.0	0.0	0.0	85.0	88.0	10.0	0.0	4.0	972.67	66.0	36.0	-19.0	-997.0
1634988255.338945	2.0	1.0	-178.0	0.0	0.0	0.0	85.0	88.0	10.0	0.0	4.0	972.65	66.0	37.0	-19.0	-998.0
1634988255.4403	2.0	1.0	-178.0	0.0	0.0	0.0	85.0	88.0	10.0	0.0	4.0	972.58	66.0	36.0	-20.0	-999.0
1634988255.553244	2.0	1.0	-178.0	0.0	0.0	0.0	85.0	88.0	10.0	0.0	4.0	972.56	66.0	38.0	-19.0	-1000.0
1634988255.642687	2.0	1.0	-178.0	0.0	0.0	0.0	85.0	88.0	10.0	0.0	4.0	972.62	66.0	37.0	-20.0	-999.0
1634988255.706073	2.0	1.0	-178.0	0.0	0.0	0.0	85.0	88.0	10.0	0.0	4.0	972.61	66.0	36.0	-20.0	-996.0
1634988255.802986	2.0	1.0	-178.0	0.0	0.0	0.0	85.0	88.0	10.0	0.0	4.0	972.6	66.0	35.0	-16.0	-999.0
1634988255.903907	2.0	1.0	-178.0	0.0	0.0	0.0	85.0	88.0	10.0	0.0	4.0	972.63	66.0	37.0	-17.0	-999.0
1634988256.047851	2.0	1.0	-178.0	0.0	0.0	0.0	85.0	88.0	10.0	0.0	4.0	972.61	66.0	34.0	-22.0	-999.0
1634988256.151996	2.0	1.0	-178.0	0.0	0.0	0.0	85.0	88.0	10.0	0.0	4.0	972.64	66.0	35.0	-19.0	-1004.0
1634988256.202087	2.0	1.0	-178.0	0.0	0.0	0.0	85.0	88.0	10.0	0.0	4.0	972.57	66.0	36.0	-18.0	-1001.0
1634988256.311431	2.0	1.0	-178.0	0.0	0.0	0.0	85.0	88.0	10.0	0.0	4.0	972.57	66.0	35.0	-21.0	-998.0
1634988256.420235	2.0	1.0	-178.0	0.0	0.0	0.0	85.0	88.0	10.0	0.0	4.0	972.63	66.0	37.0	-18.0	-998.0
1634988256.519298	2.0	1.0	-178.0	0.0	0.0	0.0	85.0	88.0	10.0	0.0	4.0	972.61	66.0	36.0	-20.0	-1001.0
1634988256.613025	2.0	1.0	-178.0	0.0	0.0	0.0	85.0	88.0	10.0	0.0	4.0	972.61	66.0	37.0	-18.0	-998.0
1634988256.711577	2.0	1.0	-178.0	0.0	0.0	0.0	85.0	88.0	10.0	0.0	4.0	972.63	66.0	37.0	-17.0	-998.0
1634988256.828089	2.0	1.0	-178.0	0.0	0.0	0.0	85.0	88.0	10.0	0.0	4.0	972.64	66.0	36.0	-18.0	-998.0
1634988256.926339	2.0	1.0	-178.0	0.0	0.0	0.0	85.0	88.0	10.0	0.0	4.0	972.63	66.0	37.0	-19.0	-997.0
1634988257.021184	2.0	1.0	-178.0	0.0	0.0	0.0	85.0	88.0	10.0	0.0	4.0	972.54	66.0	36.0	-19.0	-997.0
1634988257.130879	2.0	1.0	-178.0	0.0	0.0	0.0	85.0	88.0	10.0	0.0	4.0	972.54	66.0	38.0	-19.0	-999.0
1634988257.22461	2.0	1.0	-178.0	0.0	0.0	0.0	85.0	88.0	10.0	0.0	4.0	972.55	66.0	36.0	-21.0	-999.0
1634988257.330737	2.0	1.0	-178.0	0.0	0.0	0.0	85.0	88.0	10.0	0.0	4.0	972.55	66.0	36.0	-21.0	-999.0
1634988257.337876	2.0	1.0	-178.0	0.0	0.0	0.0	85.0	88.0	10.0	0.0	4.0	972.61	66.0	37.0	-19.0	-1001.0
1634988257.440219	2.0	1.0	-178.0	0.0	0.0	0.0	85.0	88.0	10.0	0.0	4.0	972.56	66.0	37.0	-17.0	-998.0
1634988257.54165	2.0	1.0	-178.0	0.0	0.0	0.0	85.0	88.0	10.0	0.0	4.0	972.61	66.0	35.0	-19.0	-998.0
1634988257.642494	2.0	1.0	-178.0	0.0	0.0	0.0	85.0	88.0	10.0	0.0	4.0	972.62	66.0	36.0	-19.0	-997.0
1634988257.737996	2.0	1.0	-178.0	0.0	0.0	0.0	85.0	88.0	10.0	0.0	4.0	972.65	66.0	35.0	-20.0	-997.0
1634988257.849052	2.0	1.0	-178.0	0.0	0.0	0.0	85.0	88.0	10.0	0.0	4.0	972.69	66.0	37.0	-19.0	-997.0
1634988257.945861	2.0	1.0	-178.0	0.0	0.0	0.0	85.0	88.0	10.0	0.0	4.0	972.65	66.0	37.0	-19.0	-999.0
1634988258.041225	2.0	1.0	-178.0	0.0	0.0	0.0	85.0	88.0	10.0	0.0	4.0	972.64	66.0	36.0	-19.0	-1001.0
1634988258.149443	2.0	1.0	-178.0	0.0	0.0	0.0	85.0	88.0	10.0	0.0	4.0	972.65	66.0	36.0	-20.0	-998.0
1634988258.243175	2.0	1.0	-178.0	0.0	0.0	0.0	85.0	88.0	10.0	0.0	4.0	972.62	66.0	37.0	-19.0	-998.0
1634988258.355626	2.0	1.0	-178.0	0.0	0.0	0.0	85.0	88.0	10.0	0.0	4.0	972.6	66.0	37.0	-21.0	-997.0
1634988258.460383	2.0	1.0	-178.0	0.0	0.0	0.0	85.0	88.0	10.0	0.0	4.0	972.63	66.0	36.0	-20.0	-998.0
1634988258.55626	2.0	1.0	-178.0	0.0	0.0	0.0	85.0	88.0	10.0	0.0	4.0	972.63	66.0	36.0	-19.0	-997.0
1634988258.651981	2.0	1.0	-178.0	0.0	0.0	0.0	85.0	88.0	10.0	0.0	4.0	972.62	66.0	36.0	-20.0	-999.0
1634988258.766943	2.0	1.0	-178.0	0.0	0.0	0.0	85.0	88.0	10.0	0.0	4.0	972.58	66.0	37.0	-19.0	-1000.0
1634988258.86563	2.0	1.0	-178.0	0.0	0.0	0.0	85.0	88.0	10.0	0.0	4.0	972.63	66.0	36.0	-19.0	-1000.0
1634988258.961082	2.0	1.0	-178.0	0.0	0.0	0.0	85.0	88.0	10.0	0.0	4.0	972.63	66.0	36.0	-19.0	-999.0
1634988259.063512	2.0	1.0	-178.0	0.0	0.0	0.0	86.0	88.0	10.0	0.0	4.0	972.62	66.0	36.0	-20.0	-999.0
1634988259.175001	2.0	1.0	-178.0	0.0	0.0	0.0	86.0	88.0	10.0	0.0	4.0	972.63	66.0	36.0	-19.0	-999.0
1634988259.269974	2.0	1.0	-178.0	0.0	0.0	0.0	86.0	88.0	10.0	0.0	4.0	972.6	66.0	37.0	-18.0	-1001.0
1634988259.372407	2.0	1.0	-178.0	0.0	0.0	0.0	86.0	88.0	10.0	0.0	4.0	972.59	66.0	38.0	-20.0	-997.0
1634988259.43066	2.0	1.0	-178.0	0.0	0.0	0.0	86.0	88.0	10.0	0.0	4.0	972.63	66.0	37.0	-18.0	-1000.0
1634988259.520555	2.0	1.0	-178.0	0.0	0.0	0.0	86.0	88.0	10.0	0.0	4.0	972.59	66.0	37.0	-21.0	-1000.0
1634988259.623154	2.0	1.0	-178.0	0.0	0.0	0.0	86.0	88.0	10.0	0.0	4.0	972.59	66.0	36.0	-21.0	-998.0
1634988259.721899	2.0	1.0	-178.0	0.0	0.0	0.0	86.0	88.0	10.0	0.0	4.0	972.64	66.0	35.0	-20.0	-999.0
1634988259.837908	2.0	1.0	-178.0	0.0	0.0	0.0	86.0	88.0	10.0	0.0	4.0	972.63	66.0	38.0	-20.0	-999.0
1634988259.931381	2.0	1.0	-178.0	0.0	0.0	0.0	86.0	88.0	10.0	0.0	4.0	972.6	66.0	38.0	-19.0	-997.0
1634988260.03365	2.0	1.0	-178.0	0.0	0.0	0.0	86.0	89.0	10.0	0.0	4.0	972.59	66.0	36.0	-18.0	-995.0
1634988260.129355	2.0	1.0	-178.0	0.0	0.0	0.0	86.0	89.0	10.0	0.0	4.0	972.64	66.0	36.0	-20.0	-1001.0
1634988260.231523	2.0	1.0	-178.0	0.0	0.0	0.0	86.0	89.0	10.0	0.0	4.0	972.66	66.0	36.0	-20.0	-1000.0
1634988260.342649	2.0	1.0	-178.0	0.0	0.0	0.0	86.0	89.0	10.0	0.0	4.0	972.63	66.0	37.0	-19.0	-999.0
1634988260.45091	2.0	1.0	-178.0	0.0	0.0	0.0	86.0	89.0	10.0	0.0	4.0	972.6	66.0	36.0	-18.0	-998.0
1634988260.540398	2.0	1.0	-178.0	0.0	0.0	0.0	86.0	89.0	10.0	0.0	4.0	972.59	66.0	37.0	-19.0	-1000.0
1634988260.643457	2.0	1.0	-178.0	0.0	0.0	0.0	86.0	89.0	10.0	0.0	4.0	972.6	66.0	38.0	-18.0	-998.0
1634988260.755022	2.0	1.0	-178.0	0.0	0.0	0.0	86.0	89.0	10.0	0.0	4.0	972.58	66.0	35.0	-17.0	-1000.0
1634988260.849679	2.0	1.0	-178.0	0.0	0.0	0.0	86.0	89.0	10.0	0.0	4.0	972.61	66.0	34.0	-19.0	-998.0
1634988260.948168	2.0	1.0	-178.0	0.0	0.0	0.0	86.0	89.0	10.0	0.0	4.0	972.62	66.0	36.0	-19.0	-998.0
1634988261.049073	2.0	1.0	-178.0	0.0	0.0	0.0	86.0	89.0	10.0	0.0	4.0	972.57	66.0	36.0	-20.0	-999.0
1634988261.149658	2.0	1.0	-178.0	0.0	0.0	0.0	86.0	89.0	10.0	0.0	4.0	972.66	66.0	36.0	-18.0	-1001.0
1634988261.25207	2.0	1.0	-178.0	0.0	0.0	0.0	86.0	89.0	10.0	0.0	4.0	972.56	66.0	36.0	-19.0	-1000.0
1634988261.364746	2.0	1.0	-178.0	0.0	0.0	0.0	86.0	89.0	10.0	0.0	4.0	972.68	66.0	36.0	-18.0	-1001.0
1634988261.472139	2.0	1.0	-178.0	0.0	0.0	0.0	86.0	89.0	10.0	0.0	4.0	972.63	66.0	35.0	-19.0	-1000.0
1634988261.568962	2.0	1.0	-178.0	0.0	0.0	0.0	86.0	89.0	10.0	0.0	4.0	972.63	66.0	37.0	-19.0	-998.0
1634988261.662693	2.0	1.0	-178.0	0.0	0.0	0.0	86.0	89.0	10.0	0.0	4.0	972.55	66.0	36.0	-19.0	-999.0
1634988261.769972	2.0	1.0	-178.0	0.0	0.0	0.0	86.0	89.0	10.0	0.0	4.0	972.57	66.0	34.0	-19.0	-1001.0
1634988261.863702	2.0	1.0	-178.0	0.0	0.0	0.0	86.0	89.0	10.0	0.0	4.0	972.6	66.0	36.0	-18.0	-1000.0
1634988261.974431	2.0	1.0	-178.0	0.0	0.0	0.0	86.0	89.0	10.0	0.0	4.0	972.63	66.0	37.0	-18.0	-999.0
1634988262.069149	2.0	1.0	-178.0	0.0	0.0	0.0	86.0	89.0	10.0	0.0	4.0	972.6	66.0	37.0	-19.0	-999.0
1634988262.181076	2.0	1.0	-178.0	0.0	0.0	0.0	86.0	89.0	10.0	0.0	4.0	972.62	66.0	38.0	-18.0	-999.0
1634988262.283738	2.0	1.0	-178.0	0.0	0.0	0.0	86.0	89.0	10.0	0.0	4.0	972.61	66.0	36.0	-21.0	-997.0
1634988262.379893	2.0	1.0	-178.0	0.0	0.0	0.0	86.0	89.0	10.0	0.0	4.0	972.59	66.0	37.0	-20.0	-996.0
1634988262.483371	2.0	1.0	-178.0	0.0	0.0	0.0	86.0	89.0	10.0	0.0	4.0	972.63	66.0	37.0	-20.0	-1000.0
1634988262.584817	2.0	1.0	-178.0	0.0	0.0	0.0	86.0	89.0	10.0	0.0	4.0	972.64	66.0	36.0	-19.0	-996.0
1634988262.682651	2.0	1.0	-178.0	0.0	0.0	0.0	86.0	89.0	10.0	0.0	4.0	972.63	66.0	37.0	-19.0	-999.0
1634988262.74533	2.0	1.0	-178.0	0.0	0.0	0.0	86.0	89.0	10.0	0.0	4.0	972.62	66.0	35.0	-20.0	-999.0
1634988262.845297	2.0	1.0	-178.0	0.0	0.0	0.0	86.0	89.0	10.0	0.0	4.0	972.64	66.0	35.0	-21.0	-999.0
1634988262.943133	2.0	1.0	-178.0	0.0	0.0	0.0	86.0	89.0	10.0	0.0	4.0	972.6	66.0	35.0	-18.0	-1001.0
1634988263.100253	2.0	1.0	-178.0	0.0	0.0	0.0	86.0	89.0	10.0	0.0	4.0	972.59	66.0	37.0	-18.0	-999.0
1634988263.196717	2.0	1.0	-178.0	0.0	0.0	0.0	86.0	89.0	10.0	0.0	4.0	972.61	66.0	36.0	-19.0	-997.0
1634988263.246056	2.0	1.0	-178.0	0.0	0.0	0.0	86.0	89.0	10.0	0.0	4.0	972.62	66.0	38.0	-17.0	-999.0
1634988263.35283	2.0	1.0	-178.0	0.0	0.0	0.0	86.0	89.0	10.0	0.0	4.0	972.64	66.0	36.0	-19.0	-1000.0
1634988263.459963	2.0	1.0	-178.0	0.0	0.0	0.0	86.0	89.0	10.0	0.0	4.0	972.68	66.0	36.0	-20.0	-998.0
1634988263.561667	2.0	1.0	-178.0	0.0	0.0	0.0	86.0	89.0	10.0	0.0	4.0	972.6	66.0	34.0	-18.0	-999.0
1634988263.648134	2.0	1.0	-178.0	0.0	0.0	0.0	86.0	89.0	10.0	0.0	4.0	972.66	66.0	36.0	-19.0	-1000.0
1634988263.758911	2.0	1.0	-178.0	0.0	0.0	0.0	86.0	89.0	10.0	0.0	4.0	972.62	66.0	36.0	-19.0	-998.0
1634988263.868272	2.0	1.0	-178.0	0.0	0.0	0.0	86.0	89.0	10.0	0.0	4.0	972.65	66.0	37.0	-20.0	-998.0
1634988263.957045	2.0	1.0	-178.0	0.0	0.0	0.0	86.0	89.0	10.0	0.0	4.0	972.6	66.0	36.0	-19.0	-999.0
1634988264.071605	2.0	1.0	-178.0	0.0	0.0	0.0	86.0	90.0	10.0	0.0	4.0	972.69	66.0	35.0	-18.0	-1003.0
1634988264.162046	2.0	1.0	-178.0	0.0	0.0	0.0	86.0	90.0	10.0	0.0	4.0	972.63	66.0	37.0	-21.0	-998.0
1634988264.273385	2.0	1.0	-178.0	0.0	0.0	0.0	86.0	90.0	10.0	0.0	4.0	972.67	66.0	37.0	-18.0	-997.0
1634988264.32291	2.0	1.0	-178.0	0.0	0.0	0.0	86.0	90.0	10.0	0.0	4.0	972.67	66.0	37.0	-18.0	-997.0
1634988264.371652	2.0	1.0	-178.0	0.0	0.0	0.0	86.0	90.0	10.0	0.0	4.0	972.63	66.0	37.0	-18.0	-998.0
1634988264.480689	2.0	1.0	-178.0	0.0	0.0	0.0	86.0	90.0	10.0	0.0	4.0	972.64	66.0	37.0	-18.0	-997.0
1634988264.582659	2.0	1.0	-178.0	0.0	0.0	0.0	86.0	90.0	10.0	0.0	3.0	972.66	66.0	35.0	-20.0	-996.0
1634988264.677641	2.0	1.0	-178.0	0.0	0.0	0.0	86.0	90.0	10.0	0.0	3.0	972.65	66.0	36.0	-19.0	-999.0
1634988264.778873	2.0	1.0	-178.0	0.0	0.0	0.0	86.0	90.0	10.0	0.0	3.0	972.64	66.0	37.0	-20.0	-1000.0
1634988264.874297	2.0	1.0	-178.0	0.0	0.0	0.0	86.0	90.0	10.0	0.0	3.0	972.62	66.0	37.0	-18.0	-999.0
1634988264.985155	2.0	1.0	-178.0	0.0	0.0	0.0	86.0	90.0	10.0	0.0	3.0	972.66	66.0	36.0	-18.0	-998.0
1634988265.087754	2.0	1.0	-178.0	0.0	0.0	0.0	86.0	89.0	10.0	0.0	3.0	972.62	66.0	36.0	-21.0	-1002.0
1634988265.184598	2.0	1.0	-178.0	0.0	0.0	0.0	86.0	89.0	10.0	0.0	3.0	972.68	66.0	36.0	-20.0	-1000.0
1634988265.281575	2.0	1.0	-178.0	0.0	0.0	0.0	86.0	89.0	10.0	0.0	3.0	972.67	66.0	36.0	-19.0	-997.0
1634988265.384139	2.0	1.0	-178.0	0.0	0.0	0.0	86.0	89.0	10.0	0.0	3.0	972.56	66.0	36.0	-20.0	-995.0
1634988265.498845	2.0	1.0	-178.0	0.0	0.0	0.0	86.0	89.0	10.0	0.0	3.0	972.61	66.0	36.0	-20.0	-998.0
1634988265.59936	2.0	1.0	-178.0	0.0	0.0	0.0	86.0	89.0	10.0	0.0	3.0	972.6	66.0	36.0	-19.0	-1000.0
1634988265.696767	2.0	1.0	-178.0	0.0	0.0	0.0	86.0	89.0	10.0	0.0	3.0	972.58	66.0	36.0	-18.0	-995.0
1634988265.792341	2.0	1.0	-178.0	0.0	0.0	0.0	86.0	89.0	10.0	0.0	3.0	972.64	66.0	35.0	-20.0	-999.0
1634988265.908586	2.0	1.0	-178.0	0.0	0.0	0.0	86.0	89.0	10.0	0.0	3.0	972.62	66.0	35.0	-18.0	-998.0
1634988266.010669	2.0	1.0	-178.0	0.0	0.0	0.0	86.0	89.0	10.0	0.0	3.0	972.63	66.0	38.0	-19.0	-997.0
1634988266.107657	2.0	1.0	-178.0	0.0	0.0	0.0	86.0	89.0	10.0	0.0	3.0	972.64	66.0	37.0	-19.0	-999.0
1634988266.201384	2.0	1.0	-178.0	0.0	0.0	0.0	86.0	89.0	10.0	0.0	3.0	972.62	66.0	36.0	-17.0	-996.0
1634988266.30601	2.0	1.0	-178.0	0.0	0.0	0.0	86.0	89.0	10.0	0.0	3.0	972.66	66.0	36.0	-19.0	-998.0
1634988266.417783	2.0	1.0	-178.0	0.0	0.0	0.0	86.0	89.0	10.0	0.0	3.0	972.65	66.0	36.0	-20.0	-1001.0
1634988266.520735	2.0	1.0	-178.0	0.0	0.0	0.0	86.0	89.0	10.0	0.0	3.0	972.65	66.0	34.0	-17.0	-998.0
1634988266.618681	2.0	1.0	-178.0	0.0	0.0	0.0	86.0	89.0	10.0	0.0	3.0	972.62	66.0	37.0	-19.0	-998.0
1634988266.667426	2.0	1.0	-178.0	0.0	0.0	0.0	86.0	89.0	10.0	0.0	3.0	972.57	66.0	36.0	-18.0	-997.0
1634988266.761153	2.0	1.0	-178.0	0.0	0.0	0.0	86.0	89.0	10.0	0.0	3.0	972.61	66.0	37.0	-18.0	-998.0
1634988266.86294	2.0	1.0	-178.0	0.0	0.0	0.0	86.0	89.0	10.0	0.0	3.0	972.62	66.0	37.0	-19.0	-998.0
1634988266.975815	2.0	1.0	-178.0	0.0	0.0	0.0	86.0	89.0	10.0	0.0	3.0	972.62	66.0	37.0	-19.0	-999.0
1634988267.072656	2.0	1.0	-178.0	0.0	0.0	0.0	86.0	89.0	10.0	0.0	3.0	972.63	66.0	36.0	-20.0	-1001.0
1634988267.175545	2.0	1.0	-178.0	0.0	0.0	0.0	86.0	89.0	10.0	0.0	3.0	972.68	66.0	36.0	-18.0	-999.0
1634988267.270906	2.0	1.0	-178.0	0.0	0.0	0.0	86.0	89.0	10.0	0.0	3.0	972.65	66.0	37.0	-19.0	-1000.0
1634988267.381884	2.0	1.0	-178.0	0.0	0.0	0.0	86.0	89.0	10.0	0.0	3.0	972.61	66.0	35.0	-18.0	-998.0
1634988267.489818	2.0	1.0	-178.0	0.0	0.0	0.0	86.0	89.0	10.0	0.0	3.0	972.65	66.0	36.0	-19.0	-999.0
1634988267.586653	2.0	1.0	-178.0	0.0	0.0	0.0	86.0	89.0	10.0	0.0	3.0	972.63	66.0	36.0	-20.0	-999.0
1634988267.681757	2.0	1.0	-178.0	0.0	0.0	0.0	86.0	89.0	10.0	0.0	3.0	972.68	66.0	37.0	-19.0	-1000.0
1634988267.78473	2.0	1.0	-178.0	0.0	0.0	0.0	86.0	89.0	10.0	0.0	3.0	972.63	66.0	37.0	-21.0	-998.0
1634988267.897419	2.0	1.0	-178.0	0.0	0.0	0.0	86.0	89.0	10.0	0.0	3.0	972.61	66.0	36.0	-19.0	-1001.0
1634988267.995952	2.0	1.0	-178.0	0.0	0.0	0.0	86.0	89.0	10.0	0.0	3.0	972.67	66.0	36.0	-20.0	-999.0
1634988268.101278	2.0	1.0	-178.0	0.0	0.0	0.0	86.0	89.0	10.0	0.0	3.0	972.61	66.0	36.0	-20.0	-998.0
1634988268.197987	2.0	1.0	-178.0	0.0	0.0	0.0	86.0	89.0	10.0	0.0	3.0	972.65	66.0	37.0	-19.0	-997.0
1634988268.291713	2.0	1.0	-178.0	0.0	0.0	0.0	86.0	89.0	10.0	0.0	3.0	972.62	66.0	36.0	-18.0	-1001.0
1634988268.395664	2.0	1.0	-178.0	0.0	0.0	0.0	86.0	89.0	10.0	0.0	3.0	972.66	66.0	35.0	-18.0	-999.0
1634988268.509327	2.0	1.0	-178.0	0.0	0.0	0.0	86.0	89.0	10.0	0.0	3.0	972.59	66.0	37.0	-19.0	-997.0
1634988268.605884	2.0	1.0	-178.0	0.0	0.0	0.0	86.0	89.0	10.0	0.0	3.0	972.62	66.0	36.0	-19.0	-1000.0
1634988268.711807	2.0	1.0	-178.0	0.0	0.0	0.0	86.0	89.0	10.0	0.0	3.0	972.58	66.0	36.0	-19.0	-998.0
1634988268.807402	2.0	1.0	-178.0	0.0	0.0	0.0	86.0	89.0	10.0	0.0	3.0	972.59	66.0	37.0	-20.0	-999.0
1634988268.917322	2.0	1.0	-178.0	0.0	0.0	0.0	86.0	89.0	10.0	0.0	3.0	972.63	66.0	37.0	-19.0	-999.0
1634988269.008234	2.0	1.0	-178.0	0.0	0.0	0.0	86.0	89.0	10.0	0.0	3.0	972.57	66.0	36.0	-19.0	-1000.0
1634988269.107587	2.0	1.0	-178.0	0.0	0.0	0.0	86.0	89.0	10.0	0.0	3.0	972.6	66.0	36.0	-20.0	-996.0
1634988269.218749	2.0	1.0	-178.0	0.0	0.0	0.0	86.0	89.0	10.0	0.0	3.0	972.58	66.0	37.0	-20.0	-1000.0
1634988269.310862	2.0	1.0	-178.0	0.0	0.0	0.0	86.0	89.0	10.0	0.0	3.0	972.62	66.0	36.0	-19.0	-998.0
1634988269.412268	2.0	1.0	-178.0	0.0	0.0	0.0	86.0	89.0	10.0	0.0	3.0	972.59	66.0	38.0	-22.0	-997.0
1634988269.517956	2.0	1.0	-178.0	0.0	0.0	0.0	86.0	89.0	10.0	0.0	3.0	972.63	66.0	37.0	-21.0	-999.0
1634988269.620752	2.0	1.0	-178.0	0.0	0.0	0.0	86.0	89.0	10.0	0.0	3.0	972.56	66.0	37.0	-19.0	-999.0
1634988269.722256	2.0	1.0	-178.0	0.0	0.0	0.0	86.0	89.0	10.0	0.0	3.0	972.56	66.0	35.0	-21.0	-998.0
1634988269.77067	2.0	1.0	-178.0	0.0	0.0	0.0	86.0	89.0	10.0	0.0	3.0	972.56	66.0	36.0	-20.0	-1001.0
1634988269.875888	2.0	1.0	-178.0	0.0	0.0	0.0	86.0	89.0	10.0	0.0	3.0	972.61	66.0	37.0	-21.0	-997.0
1634988269.988611	2.0	1.0	-178.0	0.0	0.0	0.0	86.0	89.0	10.0	0.0	3.0	972.61	66.0	37.0	-19.0	-997.0
1634988270.083724	2.0	1.0	-178.0	0.0	0.0	0.0	86.0	88.0	10.0	0.0	3.0	972.61	66.0	37.0	-19.0	-1000.0
1634988270.183006	2.0	1.0	-178.0	0.0	0.0	0.0	86.0	88.0	10.0	0.0	3.0	972.56	66.0	37.0	-17.0	-999.0
1634988270.294513	2.0	1.0	-178.0	0.0	0.0	0.0	86.0	88.0	10.0	0.0	3.0	972.56	66.0	35.0	-19.0	-1000.0
1634988270.389495	2.0	1.0	-178.0	0.0	0.0	0.0	86.0	88.0	10.0	0.0	3.0	972.64	66.0	37.0	-18.0	-1000.0
1634988270.498647	2.0	1.0	-178.0	0.0	0.0	0.0	86.0	88.0	10.0	0.0	3.0	972.64	66.0	37.0	-19.0	-996.0
1634988270.597119	2.0	1.0	-178.0	0.0	0.0	0.0	86.0	88.0	10.0	0.0	3.0	972.65	66.0	37.0	-19.0	-998.0
1634988270.69244	2.0	1.0	-178.0	0.0	0.0	0.0	86.0	88.0	10.0	0.0	3.0	972.53	66.0	36.0	-20.0	-1000.0
1634988270.79477	2.0	1.0	-178.0	0.0	0.0	0.0	86.0	88.0	10.0	0.0	3.0	972.54	66.0	37.0	-18.0	-998.0
1634988270.905911	2.0	1.0	-178.0	0.0	0.0	0.0	86.0	88.0	10.0	0.0	3.0	972.56	66.0	37.0	-21.0	-997.0
1634988271.003502	2.0	1.0	-178.0	0.0	0.0	0.0	86.0	88.0	10.0	0.0	3.0	972.55	66.0	36.0	-19.0	-997.0
1634988271.106343	2.0	1.0	-178.0	0.0	0.0	0.0	86.0	89.0	10.0	0.0	3.0	972.57	66.0	37.0	-20.0	-998.0
1634988271.200276	2.0	1.0	-178.0	0.0	0.0	0.0	86.0	89.0	10.0	0.0	3.0	972.61	66.0	35.0	-18.0	-998.0
1634988271.309624	2.0	1.0	-178.0	0.0	0.0	0.0	86.0	89.0	10.0	0.0	3.0	972.62	66.0	34.0	-19.0	-1000.0
