timestamp	pitch	roll	yaw	vgx	vgy	vgz	templ	temph	tof	h	bat	baro	time	agx	agy	agz
1634976677.278094
1634976677.327346	0.0	0.0	42.0	0.0	0.0	0.0	73.0	77.0	10.0	0.0	22.0	950.73	0.0	-14.0	-18.0	-1000.0
1634976677.42296	0.0	0.0	42.0	0.0	0.0	0.0	73.0	75.0	10.0	0.0	22.0	950.74	0.0	-15.0	-20.0	-1001.0
1634976677.537082	0.0	0.0	42.0	0.0	0.0	0.0	73.0	75.0	10.0	0.0	22.0	950.74	0.0	-14.0	-20.0	-1002.0
1634976677.624741	0.0	1.0	42.0	0.0	0.0	0.0	73.0	75.0	10.0	0.0	22.0	950.74	0.0	-17.0	-20.0	-999.0
1634976677.741248	0.0	1.0	42.0	0.0	0.0	0.0	73.0	75.0	10.0	0.0	22.0	950.74	0.0	-3.0	-23.0	-993.0
1634976677.844408	0.0	0.0	42.0	0.0	0.0	0.0	73.0	75.0	10.0	0.0	22.0	950.74	0.0	-13.0	-18.0	-1001.0
1634976677.942836	0.0	0.0	43.0	0.0	0.0	0.0	73.0	75.0	10.0	0.0	22.0	950.74	0.0	4.0	-10.0	-984.0
1634976678.034588	-1.0	0.0	43.0	0.0	0.0	0.0	73.0	75.0	10.0	0.0	22.0	950.74	0.0	-6.0	-7.0	-975.0
1634976678.149132	-1.0	0.0	43.0	0.0	0.0	-1.0	73.0	75.0	10.0	0.0	22.0	950.74	0.0	-17.0	16.0	-981.0
1634976678.236346	1.0	0.0	43.0	0.0	0.0	-4.0	73.0	75.0	10.0	0.0	22.0	950.74	0.0	0.0	-4.0	-1092.0
1634976678.349366	3.0	0.0	43.0	0.0	0.0	-6.0	73.0	75.0	10.0	10.0	22.0	950.74	0.0	7.0	1.0	-1162.0
1634976678.455794	1.0	0.0	43.0	0.0	0.0	-7.0	74.0	77.0	17.0	10.0	22.0	951.03	1.0	-49.0	20.0	-1055.0
1634976678.55762	0.0	0.0	43.0	0.0	0.0	-8.0	74.0	77.0	25.0	20.0	22.0	951.09	1.0	-2.0	-7.0	-1047.0
1634976678.658952	0.0	0.0	43.0	0.0	0.0	-8.0	74.0	77.0	34.0	30.0	22.0	951.25	1.0	-4.0	-2.0	-991.0
1634976678.760171	-1.0	0.0	43.0	0.0	0.0	-8.0	74.0	77.0	40.0	30.0	22.0	951.29	1.0	-17.0	1.0	-948.0
1634976678.857375	0.0	0.0	43.0	0.0	0.0	-7.0	74.0	77.0	47.0	40.0	22.0	951.44	1.0	-43.0	-4.0	-906.0
1634976678.949922	-1.0	0.0	43.0	0.0	0.0	-6.0	74.0	77.0	54.0	50.0	22.0	951.5	1.0	-2.0	-1.0	-875.0
1634976679.016555	-1.0	0.0	43.0	0.0	0.0	-5.0	74.0	77.0	61.0	50.0	22.0	951.5	1.0	-42.0	5.0	-872.0
1634976679.114495	-1.0	0.0	43.0	0.0	0.0	-3.0	74.0	77.0	66.0	60.0	22.0	951.57	1.0	-39.0	22.0	-869.0
1634976679.220545	0.0	0.0	43.0	0.0	0.0	-2.0	74.0	77.0	68.0	60.0	22.0	951.66	1.0	-18.0	8.0	-895.0
1634976679.321597	0.0	0.0	43.0	0.0	0.0	-1.0	74.0	77.0	71.0	60.0	22.0	951.72	1.0	-1.0	4.0	-907.0
1634976679.475289	0.0	0.0	43.0	0.0	0.0	0.0	74.0	77.0	74.0	60.0	22.0	951.67	2.0	-16.0	3.0	-931.0
1634976679.525588	0.0	0.0	43.0	0.0	0.0	0.0	74.0	77.0	74.0	60.0	22.0	951.67	2.0	13.0	-18.0	-951.0
1634976679.62912	0.0	0.0	43.0	0.0	0.0	0.0	74.0	77.0	75.0	60.0	22.0	951.69	2.0	-10.0	-2.0	-975.0
1634976679.730114	0.0	0.0	43.0	0.0	0.0	0.0	74.0	77.0	76.0	60.0	22.0	951.65	2.0	14.0	-12.0	-1017.0
1634976679.817214	0.0	0.0	43.0	0.0	0.0	0.0	74.0	77.0	76.0	60.0	22.0	951.7	2.0	-30.0	8.0	-1029.0
1634976679.934169	0.0	0.0	43.0	0.0	0.0	0.0	74.0	77.0	76.0	60.0	22.0	951.72	2.0	-17.0	-13.0	-1019.0
1634976680.03629	-1.0	0.0	43.0	0.0	0.0	0.0	74.0	77.0	77.0	70.0	22.0	951.73	2.0	-34.0	3.0	-1008.0
1634976680.129449	-1.0	0.0	43.0	0.0	0.0	0.0	74.0	77.0	78.0	70.0	22.0	951.6	2.0	-4.0	-16.0	-989.0
1634976680.326868	-1.0	0.0	43.0	0.0	0.0	0.0	74.0	77.0	78.0	70.0	22.0	951.52	2.0	-8.0	-5.0	-999.0
1634976680.326868	-1.0	0.0	43.0	0.0	0.0	0.0	74.0	77.0	78.0	70.0	22.0	951.66	2.0	-9.0	-3.0	-1025.0
1634976680.440727	-1.0	0.0	43.0	0.0	0.0	0.0	74.0	77.0	78.0	70.0	22.0	951.72	3.0	-1.0	11.0	-1013.0
1634976680.536625	0.0	0.0	43.0	0.0	0.0	-1.0	74.0	77.0	78.0	70.0	22.0	951.69	3.0	1.0	-10.0	-979.0
1634976680.64609	-1.0	0.0	43.0	0.0	0.0	0.0	74.0	77.0	78.0	70.0	22.0	951.7	3.0	-9.0	-4.0	-952.0
1634976680.74435	-1.0	0.0	43.0	0.0	0.0	0.0	74.0	77.0	77.0	70.0	22.0	951.69	3.0	-8.0	-13.0	-989.0
1634976680.84072	-1.0	0.0	43.0	0.0	0.0	0.0	74.0	77.0	75.0	70.0	22.0	951.64	3.0	-21.0	7.0	-976.0
1634976680.951329	-1.0	0.0	43.0	0.0	0.0	0.0	74.0	77.0	73.0	70.0	22.0	951.7	3.0	-22.0	0.0	-975.0
1634976681.056723	-1.0	0.0	43.0	0.0	0.0	1.0	74.0	77.0	71.0	60.0	22.0	951.65	3.0	-14.0	-2.0	-991.0
1634976681.146991	-1.0	0.0	43.0	0.0	0.0	1.0	74.0	77.0	69.0	60.0	22.0	951.63	3.0	-20.0	-2.0	-1024.0
1634976681.25061	-1.0	0.0	43.0	0.0	0.0	1.0	74.0	77.0	67.0	60.0	22.0	951.59	3.0	-12.0	-9.0	-1026.0
1634976681.361803	-1.0	0.0	43.0	0.0	0.0	0.0	74.0	77.0	64.0	60.0	22.0	951.57	3.0	-6.0	-14.0	-1034.0
1634976681.457152	-1.0	0.0	43.0	0.0	0.0	0.0	73.0	77.0	64.0	60.0	22.0	951.54	4.0	-14.0	-3.0	-1057.0
1634976681.561865	-1.0	0.0	43.0	0.0	0.0	0.0	73.0	77.0	63.0	60.0	22.0	951.56	4.0	-14.0	-26.0	-1103.0
1634976681.66274	-1.0	0.0	43.0	0.0	0.0	0.0	73.0	77.0	63.0	60.0	22.0	951.53	4.0	-63.0	10.0	-1044.0
1634976681.759046	-1.0	0.0	43.0	0.0	0.0	0.0	73.0	77.0	63.0	60.0	22.0	951.54	4.0	-12.0	-18.0	-1014.0
1634976681.814577	-1.0	0.0	43.0	0.0	0.0	0.0	73.0	77.0	63.0	60.0	22.0	951.54	4.0	-12.0	-18.0	-1014.0
1634976681.861535	-1.0	0.0	43.0	0.0	0.0	0.0	73.0	77.0	64.0	60.0	22.0	951.6	4.0	-12.0	-22.0	-1001.0
1634976681.970892	0.0	0.0	43.0	0.0	0.0	0.0	73.0	77.0	64.0	60.0	22.0	951.67	4.0	0.0	-26.0	-1015.0
1634976682.076391	0.0	0.0	43.0	0.0	0.0	0.0	73.0	77.0	65.0	60.0	22.0	951.65	4.0	-26.0	-10.0	-984.0
1634976682.165483	0.0	1.0	42.0	0.0	0.0	0.0	73.0	77.0	66.0	60.0	22.0	951.59	4.0	-20.0	-16.0	-988.0
1634976682.276297	0.0	1.0	42.0	0.0	0.0	0.0	73.0	77.0	67.0	60.0	22.0	951.64	4.0	5.0	-31.0	-997.0
1634976682.382155	0.0	1.0	42.0	0.0	0.0	0.0	73.0	77.0	67.0	60.0	22.0	951.76	4.0	6.0	-25.0	-986.0
1634976682.482403	0.0	0.0	42.0	0.0	0.0	0.0	73.0	77.0	68.0	60.0	21.0	951.72	5.0	30.0	-48.0	-1007.0
1634976682.576135	0.0	1.0	43.0	0.0	0.0	0.0	73.0	77.0	70.0	60.0	21.0	951.65	5.0	-4.0	-15.0	-992.0
1634976682.688836	0.0	1.0	43.0	0.0	0.0	0.0	73.0	77.0	71.0	60.0	21.0	951.72	5.0	-18.0	-20.0	-995.0
1634976682.785981	0.0	1.0	43.0	0.0	0.0	0.0	73.0	77.0	72.0	60.0	21.0	951.76	5.0	-9.0	-29.0	-1005.0
1634976682.881223	0.0	1.0	43.0	0.0	0.0	0.0	73.0	77.0	74.0	60.0	21.0	951.67	5.0	-2.0	-30.0	-1013.0
1634976682.939177	0.0	1.0	43.0	0.0	0.0	-1.0	73.0	77.0	76.0	70.0	21.0	951.81	5.0	4.0	-43.0	-988.0
1634976683.042356	0.0	2.0	43.0	0.0	0.0	-1.0	73.0	77.0	77.0	70.0	21.0	951.66	5.0	-5.0	-50.0	-984.0
1634976683.140322	0.0	2.0	43.0	0.0	0.0	0.0	73.0	77.0	79.0	70.0	21.0	951.8	5.0	-26.0	-29.0	-979.0
1634976683.247085	0.0	2.0	43.0	0.0	0.0	0.0	73.0	77.0	80.0	70.0	21.0	951.79	5.0	4.0	-43.0	-999.0
1634976683.340822	-1.0	2.0	43.0	0.0	0.0	0.0	73.0	77.0	81.0	70.0	21.0	951.81	5.0	-10.0	-48.0	-983.0
1634976683.453116	0.0	2.0	43.0	0.0	0.0	0.0	73.0	76.0	82.0	70.0	21.0	951.81	6.0	-27.0	-21.0	-969.0
1634976683.54171	0.0	2.0	43.0	0.0	0.0	0.0	73.0	76.0	83.0	70.0	21.0	951.79	6.0	-9.0	-37.0	-991.0
1634976683.653975	0.0	1.0	43.0	0.0	0.0	0.0	73.0	76.0	84.0	70.0	21.0	951.82	6.0	-24.0	-26.0	-985.0
1634976683.759321	0.0	1.0	43.0	0.0	0.0	0.0	73.0	76.0	84.0	70.0	21.0	951.8	6.0	-26.0	-14.0	-982.0
1634976683.85113	0.0	1.0	43.0	0.0	0.0	0.0	73.0	76.0	84.0	70.0	21.0	951.78	6.0	0.0	-47.0	-951.0
1634976683.964089	0.0	1.0	43.0	0.0	0.0	0.0	73.0	76.0	85.0	70.0	21.0	951.76	6.0	-31.0	-40.0	-1090.0
1634976684.063996	0.0	1.0	43.0	0.0	0.0	0.0	73.0	76.0	84.0	70.0	21.0	951.72	6.0	-21.0	-36.0	-1020.0
1634976684.161378	0.0	2.0	43.0	0.0	0.0	0.0	73.0	76.0	83.0	70.0	21.0	951.78	6.0	-30.0	-13.0	-997.0
1634976684.263917	0.0	1.0	43.0	0.0	0.0	0.0	73.0	76.0	82.0	70.0	21.0	951.69	6.0	-29.0	-17.0	-972.0
1634976684.367682	0.0	1.0	43.0	0.0	0.0	0.0	73.0	76.0	81.0	70.0	21.0	951.77	6.0	4.0	-52.0	-1002.0
1634976684.464933	0.0	1.0	43.0	0.0	0.0	0.0	72.0	75.0	78.0	70.0	20.0	951.83	7.0	-22.0	-18.0	-1096.0
1634976684.574946	0.0	1.0	43.0	0.0	0.0	0.0	72.0	75.0	75.0	70.0	20.0	951.66	7.0	6.0	-43.0	-1041.0
1634976684.677057	0.0	2.0	43.0	0.0	0.0	0.0	72.0	75.0	72.0	70.0	20.0	951.67	7.0	-12.0	-23.0	-962.0
1634976684.779538	0.0	1.0	43.0	0.0	0.0	0.0	72.0	75.0	68.0	70.0	20.0	951.65	7.0	4.0	-37.0	-962.0
1634976684.876188	0.0	1.0	43.0	0.0	0.0	0.0	72.0	75.0	64.0	70.0	20.0	951.58	7.0	0.0	-56.0	-1008.0
1634976684.97995	-1.0	1.0	43.0	0.0	0.0	1.0	72.0	75.0	59.0	70.0	20.0	951.44	7.0	2.0	-47.0	-960.0
1634976685.075644	-1.0	0.0	43.0	0.0	0.0	1.0	72.0	75.0	54.0	60.0	20.0	951.51	7.0	8.0	-46.0	-986.0
1634976685.181834	0.0	1.0	43.0	0.0	0.0	1.0	72.0	75.0	48.0	60.0	20.0	951.55	7.0	5.0	-22.0	-1039.0
1634976685.285815	0.0	1.0	43.0	0.0	0.0	1.0	72.0	75.0	43.0	60.0	20.0	951.35	7.0	0.0	-17.0	-1085.0
1634976685.381386	0.0	1.0	43.0	0.0	0.0	1.0	72.0	75.0	41.0	50.0	20.0	951.38	7.0	-7.0	-22.0	-1074.0
1634976685.480141	0.0	1.0	43.0	0.0	0.0	1.0	72.0	75.0	37.0	50.0	20.0	951.32	8.0	13.0	-17.0	-1046.0
1634976685.582596	0.0	1.0	43.0	0.0	0.0	0.0	72.0	75.0	33.0	50.0	20.0	951.28	8.0	-34.0	-5.0	-1122.0
1634976685.696904	0.0	0.0	43.0	0.0	0.0	0.0	72.0	75.0	30.0	50.0	20.0	951.28	8.0	-2.0	-30.0	-1059.0
1634976685.794044	0.0	0.0	43.0	0.0	0.0	0.0	72.0	75.0	28.0	50.0	20.0	951.18	8.0	-7.0	-22.0	-1023.0
1634976685.898169	0.0	1.0	43.0	0.0	0.0	0.0	72.0	75.0	29.0	50.0	20.0	951.2	8.0	4.0	-43.0	-1025.0
1634976685.995584	0.0	0.0	43.0	0.0	0.0	0.0	72.0	75.0	27.0	50.0	20.0	951.19	8.0	-50.0	-21.0	-1079.0
1634976686.104867	0.0	0.0	43.0	0.0	0.0	0.0	72.0	75.0	26.0	50.0	20.0	951.18	8.0	-27.0	-8.0	-1007.0
1634976686.191772	0.0	0.0	43.0	0.0	0.0	0.0	72.0	75.0	26.0	50.0	20.0	951.23	8.0	-4.0	-41.0	-1049.0
1634976686.302831	0.0	1.0	43.0	0.0	0.0	0.0	72.0	75.0	26.0	50.0	20.0	951.13	8.0	-43.0	-11.0	-1039.0
1634976686.396662	-1.0	1.0	43.0	0.0	0.0	-1.0	72.0	75.0	27.0	50.0	20.0	951.24	8.0	-33.0	-30.0	-1020.0
1634976686.508687	-1.0	1.0	43.0	0.0	0.0	-1.0	72.0	76.0	29.0	50.0	19.0	951.27	9.0	-31.0	-27.0	-1012.0
1634976686.618947	-1.0	0.0	43.0	0.0	0.0	-1.0	72.0	76.0	30.0	50.0	19.0	951.23	9.0	-34.0	-26.0	-1005.0
1634976686.715778	-1.0	1.0	43.0	0.0	0.0	-1.0	72.0	76.0	33.0	50.0	19.0	951.31	9.0	-38.0	-26.0	-1005.0
1634976686.803895	-1.0	1.0	43.0	0.0	0.0	-1.0	72.0	76.0	35.0	50.0	19.0	951.36	9.0	0.0	-37.0	-1004.0
1634976686.854779	-1.0	1.0	43.0	0.0	0.0	-1.0	72.0	76.0	36.0	50.0	19.0	951.4	9.0	-22.0	-31.0	-987.0
1634976686.967398	-1.0	1.0	43.0	0.0	0.0	-1.0	72.0	76.0	39.0	60.0	19.0	951.35	9.0	-12.0	-32.0	-983.0
1634976687.071673	-2.0	1.0	43.0	0.0	0.0	-1.0	72.0	76.0	42.0	60.0	19.0	951.4	9.0	-16.0	-29.0	-966.0
1634976687.17401	-2.0	0.0	43.0	0.0	0.0	-1.0	72.0	76.0	45.0	60.0	19.0	951.49	9.0	-18.0	-33.0	-988.0
1634976687.267826	-1.0	1.0	43.0	0.0	0.0	-1.0	72.0	76.0	49.0	60.0	19.0	951.51	9.0	-20.0	-47.0	-983.0
1634976687.36675	-1.0	1.0	43.0	0.0	0.0	-1.0	72.0	76.0	52.0	70.0	19.0	951.58	9.0	-20.0	-26.0	-968.0
1634976687.476108	-1.0	1.0	43.0	0.0	0.0	-1.0	71.0	75.0	56.0	70.0	19.0	951.57	10.0	-38.0	-25.0	-965.0
1634976687.571558	-1.0	1.0	43.0	0.0	0.0	-1.0	71.0	75.0	59.0	70.0	19.0	951.59	10.0	-32.0	-26.0	-972.0
1634976687.679968	-1.0	1.0	43.0	0.0	0.0	-1.0	71.0	75.0	61.0	70.0	19.0	951.61	10.0	-31.0	-17.0	-970.0
1634976687.78814	-1.0	2.0	43.0	0.0	0.0	0.0	71.0	75.0	63.0	70.0	19.0	951.63	10.0	3.0	-44.0	-958.0
1634976687.884696	-1.0	2.0	43.0	0.0	0.0	0.0	71.0	75.0	66.0	70.0	19.0	951.69	10.0	16.0	-46.0	-950.0
1634976687.986338	0.0	1.0	42.0	0.0	0.0	0.0	71.0	75.0	67.0	80.0	19.0	951.65	10.0	11.0	-46.0	-946.0
1634976688.083582	0.0	2.0	43.0	0.0	0.0	0.0	71.0	75.0	68.0	80.0	19.0	951.63	10.0	16.0	-56.0	-951.0
1634976688.194536	0.0	2.0	43.0	0.0	0.0	0.0	71.0	75.0	70.0	80.0	19.0	951.66	10.0	-5.0	-24.0	-964.0
1634976688.297406	0.0	2.0	43.0	0.0	0.0	0.0	71.0	75.0	72.0	80.0	19.0	951.76	10.0	-25.0	-34.0	-995.0
1634976688.385922	0.0	2.0	43.0	0.0	0.0	0.0	71.0	75.0	73.0	80.0	19.0	951.77	10.0	-8.0	-42.0	-947.0
1634976688.498549	0.0	2.0	43.0	0.0	0.0	0.0	71.0	75.0	75.0	80.0	18.0	951.77	11.0	4.0	-42.0	-980.0
1634976688.603832	0.0	2.0	43.0	0.0	0.0	0.0	71.0	75.0	76.0	80.0	18.0	951.65	11.0	-10.0	-30.0	-987.0
1634976688.7013	0.0	2.0	43.0	0.0	0.0	0.0	71.0	75.0	77.0	80.0	18.0	951.69	11.0	-2.0	-37.0	-976.0
1634976688.808086	0.0	2.0	43.0	0.0	0.0	0.0	71.0	75.0	78.0	80.0	18.0	951.74	11.0	-18.0	-13.0	-960.0
1634976688.909608	0.0	2.0	43.0	0.0	0.0	0.0	71.0	75.0	79.0	80.0	18.0	951.76	11.0	-1.0	-43.0	-958.0
1634976689.009281	0.0	2.0	43.0	0.0	0.0	0.0	71.0	75.0	80.0	80.0	18.0	951.78	11.0	-17.0	2.0	-967.0
1634976689.103012	0.0	2.0	43.0	0.0	0.0	0.0	71.0	75.0	81.0	80.0	18.0	951.74	11.0	12.0	-34.0	-973.0
1634976689.20809	0.0	2.0	43.0	0.0	0.0	0.0	71.0	75.0	82.0	80.0	18.0	951.74	11.0	25.0	-18.0	-944.0
1634976689.317508	0.0	2.0	43.0	0.0	0.0	0.0	71.0	75.0	84.0	80.0	18.0	951.74	11.0	17.0	-39.0	-949.0
1634976689.4148	1.0	2.0	43.0	0.0	0.0	0.0	71.0	75.0	85.0	80.0	18.0	951.72	11.0	4.0	-24.0	-979.0
1634976689.513663	1.0	1.0	43.0	0.0	0.0	0.0	71.0	75.0	86.0	80.0	18.0	951.77	12.0	-10.0	-17.0	-1002.0
1634976689.61065	1.0	2.0	43.0	0.0	0.0	0.0	71.0	75.0	86.0	80.0	18.0	951.8	12.0	24.0	-24.0	-982.0
1634976689.714882	0.0	2.0	43.0	0.0	0.0	0.0	71.0	75.0	87.0	80.0	18.0	951.81	12.0	12.0	-20.0	-990.0
1634976689.824314	1.0	2.0	43.0	0.0	0.0	0.0	71.0	75.0	88.0	80.0	18.0	951.81	12.0	22.0	-28.0	-1003.0
1634976689.930104	1.0	1.0	43.0	0.0	0.0	0.0	71.0	75.0	90.0	80.0	18.0	951.86	12.0	17.0	-7.0	-966.0
1634976690.018637	1.0	1.0	43.0	0.0	0.0	0.0	71.0	75.0	91.0	80.0	18.0	951.72	12.0	31.0	-38.0	-963.0
1634976690.131507	1.0	0.0	43.0	0.0	0.0	0.0	71.0	75.0	92.0	80.0	18.0	951.76	12.0	-9.0	-12.0	-967.0
1634976690.235686	1.0	0.0	43.0	0.0	0.0	0.0	71.0	75.0	92.0	80.0	18.0	951.76	12.0	-2.0	-7.0	-961.0
1634976690.324185	1.0	0.0	43.0	0.0	0.0	0.0	71.0	75.0	92.0	80.0	18.0	951.8	12.0	23.0	-44.0	-962.0
1634976690.435361	1.0	1.0	43.0	0.0	0.0	1.0	71.0	75.0	92.0	80.0	18.0	951.74	12.0	29.0	-50.0	-973.0
1634976690.530926	1.0	2.0	43.0	0.0	0.0	0.0	71.0	75.0	92.0	80.0	17.0	951.83	13.0	16.0	-40.0	-984.0
1634976690.584504	1.0	2.0	43.0	0.0	0.0	0.0	71.0	75.0	91.0	80.0	17.0	951.76	13.0	15.0	-34.0	-982.0
1634976690.683097	1.0	1.0	43.0	0.0	0.0	0.0	71.0	75.0	90.0	80.0	17.0	951.81	13.0	29.0	-58.0	-1010.0
1634976690.79104	0.0	1.0	43.0	0.0	0.0	0.0	71.0	75.0	90.0	80.0	17.0	951.75	13.0	2.0	-33.0	-1006.0
1634976690.895166	0.0	1.0	43.0	0.0	0.0	0.0	71.0	75.0	89.0	80.0	17.0	951.7	13.0	-3.0	-11.0	-990.0
1634976690.990662	0.0	2.0	43.0	0.0	0.0	0.0	71.0	75.0	89.0	80.0	17.0	951.79	13.0	3.0	-35.0	-992.0
1634976691.087765	0.0	2.0	43.0	0.0	0.0	0.0	71.0	75.0	88.0	80.0	17.0	951.82	13.0	7.0	-32.0	-994.0
1634976691.191943	0.0	2.0	43.0	0.0	0.0	0.0	71.0	75.0	88.0	80.0	17.0	951.74	13.0	29.0	-50.0	-1001.0
1634976691.297818	0.0	2.0	43.0	0.0	0.0	0.0	71.0	75.0	87.0	80.0	17.0	951.73	13.0	-1.0	-46.0	-980.0
1634976691.407171	0.0	2.0	43.0	0.0	0.0	0.0	71.0	75.0	87.0	80.0	17.0	951.75	13.0	10.0	-54.0	-995.0
1634976691.497423	0.0	2.0	43.0	0.0	0.0	0.0	71.0	73.0	86.0	80.0	17.0	951.76	14.0	10.0	-42.0	-989.0
1634976691.612589	0.0	2.0	43.0	0.0	0.0	0.0	71.0	73.0	86.0	80.0	17.0	951.72	14.0	20.0	-55.0	-1005.0
1634976691.699315	0.0	2.0	43.0	0.0	0.0	0.0	71.0	73.0	86.0	80.0	17.0	951.79	14.0	-12.0	-27.0	-1000.0
1634976691.813321	0.0	2.0	43.0	0.0	0.0	0.0	71.0	73.0	85.0	80.0	17.0	951.78	14.0	-3.0	-45.0	-994.0
1634976691.911818	0.0	1.0	43.0	0.0	0.0	0.0	71.0	73.0	85.0	80.0	17.0	951.78	14.0	-15.0	-30.0	-981.0
1634976692.017023	0.0	1.0	43.0	0.0	0.0	0.0	71.0	73.0	84.0	80.0	17.0	951.85	14.0	-28.0	-18.0	-974.0
1634976692.115241	0.0	1.0	43.0	0.0	0.0	0.0	71.0	73.0	84.0	80.0	17.0	951.81	14.0	12.0	-39.0	-997.0
1634976692.21849	0.0	1.0	43.0	0.0	0.0	0.0	71.0	73.0	84.0	80.0	17.0	951.79	14.0	0.0	-28.0	-1001.0
1634976692.320741	0.0	2.0	43.0	0.0	0.0	0.0	71.0	73.0	84.0	80.0	17.0	951.84	14.0	47.0	-70.0	-993.0
1634976692.418907	0.0	2.0	43.0	0.0	0.0	0.0	71.0	73.0	84.0	80.0	17.0	951.8	14.0	1.0	3.0	-988.0
1634976692.51608	0.0	2.0	43.0	0.0	0.0	0.0	71.0	73.0	83.0	70.0	16.0	951.79	15.0	4.0	-23.0	-1014.0
1634976692.619191	0.0	2.0	43.0	0.0	0.0	0.0	71.0	73.0	83.0	70.0	16.0	951.8	15.0	0.0	-40.0	-1005.0
1634976692.733177	0.0	2.0	43.0	0.0	0.0	0.0	71.0	73.0	82.0	70.0	16.0	951.8	15.0	16.0	-5.0	-981.0
1634976692.826462	0.0	2.0	43.0	0.0	0.0	0.0	71.0	73.0	82.0	70.0	16.0	951.83	15.0	24.0	-50.0	-1006.0
1634976692.92919	1.0	1.0	43.0	0.0	0.0	0.0	71.0	73.0	82.0	70.0	16.0	951.8	15.0	46.0	-40.0	-1011.0
1634976693.040268	1.0	1.0	43.0	0.0	0.0	0.0	71.0	73.0	83.0	70.0	16.0	951.73	15.0	2.0	-11.0	-997.0
1634976693.138292	1.0	1.0	43.0	0.0	0.0	0.0	71.0	73.0	83.0	70.0	16.0	951.85	15.0	11.0	-16.0	-1006.0
1634976693.230057	1.0	1.0	43.0	0.0	0.0	0.0	71.0	73.0	83.0	70.0	16.0	951.8	15.0	42.0	-38.0	-981.0
1634976693.338855	1.0	1.0	43.0	0.0	0.0	1.0	71.0	73.0	82.0	70.0	16.0	951.74	15.0	32.0	-31.0	-981.0
1634976693.445797	1.0	1.0	43.0	0.0	0.0	2.0	71.0	73.0	81.0	70.0	16.0	951.7	16.0	44.0	-36.0	-951.0
1634976693.541308	1.0	1.0	43.0	0.0	0.0	3.0	70.0	73.0	78.0	70.0	16.0	951.66	16.0	47.0	-55.0	-946.0
1634976693.652422	1.0	1.0	43.0	0.0	0.0	3.0	70.0	73.0	75.0	70.0	16.0	951.65	16.0	47.0	-40.0	-892.0
1634976693.739824	1.0	1.0	43.0	0.0	0.0	4.0	70.0	73.0	71.0	60.0	16.0	951.58	16.0	0.0	-9.0	-929.0
1634976693.847386	1.0	1.0	43.0	0.0	0.0	4.0	70.0	73.0	67.0	60.0	16.0	951.59	16.0	0.0	-6.0	-931.0
1634976693.948055	1.0	1.0	43.0	0.0	0.0	4.0	70.0	73.0	63.0	50.0	16.0	951.6	16.0	22.0	-26.0	-946.0
1634976693.996622	1.0	1.0	43.0	0.0	0.0	4.0	70.0	73.0	58.0	50.0	16.0	951.66	16.0	21.0	-28.0	-969.0
1634976694.107696	1.0	1.0	43.0	0.0	0.0	4.0	70.0	73.0	53.0	50.0	16.0	951.49	16.0	22.0	-39.0	-978.0
1634976694.208385	1.0	1.0	43.0	0.0	0.0	4.0	70.0	73.0	48.0	40.0	16.0	951.44	16.0	11.0	-18.0	-984.0
1634976694.303753	1.0	1.0	43.0	0.0	0.0	4.0	70.0	73.0	43.0	40.0	16.0	951.37	16.0	12.0	-19.0	-986.0
1634976694.410852	1.0	2.0	43.0	0.0	0.0	4.0	70.0	73.0	40.0	30.0	16.0	951.26	17.0	45.0	-39.0	-1019.0
1634976694.517855	1.0	1.0	43.0	0.0	0.0	4.0	71.0	74.0	35.0	30.0	15.0	951.23	17.0	26.0	-30.0	-1009.0
1634976694.611587	1.0	1.0	43.0	0.0	0.0	4.0	71.0	74.0	30.0	20.0	15.0	951.21	17.0	32.0	-25.0	-1029.0
1634976694.712048	1.0	1.0	43.0	0.0	0.0	4.0	71.0	74.0	27.0	20.0	15.0	951.21	17.0	33.0	-30.0	-997.0
1634976694.817457	1.0	2.0	43.0	0.0	0.0	4.0	71.0	74.0	22.0	20.0	15.0	951.03	17.0	12.0	-17.0	-1010.0
1634976694.927937	1.0	2.0	43.0	0.0	0.0	4.0	71.0	74.0	16.0	10.0	15.0	950.97	17.0	23.0	-25.0	-989.0
1634976695.02899	1.0	1.0	43.0	0.0	0.0	4.0	71.0	74.0	11.0	10.0	15.0	950.57	17.0	36.0	-40.0	-1015.0
1634976695.133339	1.0	1.0	43.0	0.0	0.0	3.0	71.0	74.0	10.0	0.0	15.0	949.75	17.0	6.0	-28.0	-1045.0
1634976695.233333	-1.0	0.0	43.0	0.0	0.0	3.0	71.0	74.0	10.0	0.0	15.0	947.43	17.0	73.0	-22.0	-1323.0
1634976695.335546	-20.0	2.0	43.0	2.0	2.0	0.0	71.0	74.0	10.0	0.0	15.0	948.33	17.0	24.0	9.0	-936.0
1634976695.439944	-22.0	1.0	45.0	3.0	3.0	0.0	71.0	74.0	10.0	0.0	15.0	950.18	18.0	-72.0	-29.0	-861.0
1634976695.538677	-7.0	0.0	46.0	5.0	5.0	2.0	71.0	73.0	46.0	0.0	15.0	950.82	18.0	-42.0	-10.0	-774.0
1634976695.641595	11.0	0.0	43.0	5.0	4.0	3.0	71.0	73.0	42.0	0.0	15.0	950.93	18.0	-68.0	-51.0	-910.0
1634976695.744307	10.0	0.0	43.0	3.0	3.0	5.0	71.0	73.0	35.0	0.0	15.0	950.76	18.0	12.0	-52.0	-866.0
1634976695.84564	8.0	0.0	43.0	2.0	2.0	6.0	71.0	73.0	28.0	0.0	15.0	950.78	18.0	-2.0	-51.0	-1012.0
1634976695.937965	7.0	2.0	43.0	2.0	1.0	6.0	71.0	73.0	20.0	-10.0	15.0	950.72	18.0	23.0	-28.0	-1029.0
1634976696.049335	5.0	3.0	43.0	0.0	0.0	6.0	71.0	73.0	14.0	-20.0	15.0	950.44	18.0	-5.0	-12.0	-1055.0
1634976696.138229	2.0	2.0	43.0	0.0	0.0	5.0	71.0	73.0	10.0	-20.0	15.0	948.95	18.0	29.0	-21.0	-1097.0
1634976696.241678	1.0	2.0	43.0	0.0	0.0	4.0	71.0	73.0	10.0	-30.0	15.0	946.14	18.0	-30.0	4.0	-1227.0
1634976696.351803	3.0	5.0	43.0	0.0	0.0	-1.0	71.0	73.0	10.0	-30.0	15.0	948.84	18.0	19.0	-44.0	-805.0
1634976696.448655	7.0	6.0	43.0	0.0	0.0	2.0	71.0	73.0	10.0	-30.0	15.0	949.25	18.0	6.0	-9.0	-366.0
1634976696.563071	0.0	0.0	46.0	1.0	0.0	1.0	70.0	73.0	10.0	-30.0	14.0	949.66	18.0	41.0	28.0	-1283.0
1634976696.653742	0.0	0.0	46.0	1.0	0.0	0.0	70.0	73.0	10.0	-30.0	14.0	949.86	18.0	-10.0	1.0	-994.0
1634976696.749317	0.0	0.0	46.0	1.0	0.0	0.0	70.0	73.0	10.0	0.0	14.0	950.02	18.0	11.0	-12.0	-1001.0
1634976696.864431	0.0	0.0	46.0	1.0	0.0	1.0	70.0	73.0	10.0	0.0	14.0	950.07	18.0	5.0	-14.0	-1000.0
1634976696.960788	0.0	0.0	46.0	1.0	0.0	1.0	70.0	73.0	10.0	0.0	14.0	950.2	18.0	2.0	-10.0	-996.0
1634976697.071036	0.0	0.0	46.0	1.0	0.0	1.0	70.0	73.0	10.0	0.0	14.0	950.21	18.0	5.0	-14.0	-999.0
1634976697.164289	0.0	0.0	46.0	1.0	0.0	1.0	70.0	73.0	10.0	0.0	14.0	950.24	18.0	10.0	-15.0	-997.0
1634976697.259803	0.0	0.0	46.0	1.0	0.0	1.0	70.0	73.0	10.0	0.0	14.0	950.25	18.0	4.0	-14.0	-997.0
1634976697.372719	0.0	0.0	46.0	1.0	1.0	1.0	70.0	73.0	10.0	0.0	14.0	950.29	18.0	3.0	-11.0	-998.0
1634976697.413936	0.0	0.0	46.0	1.0	1.0	1.0	70.0	73.0	10.0	0.0	14.0	950.29	18.0	3.0	-11.0	-998.0
1634976697.474416	0.0	0.0	46.0	1.0	1.0	1.0	70.0	73.0	10.0	0.0	14.0	950.26	18.0	2.0	-12.0	-998.0
1634976697.569811	0.0	0.0	46.0	1.0	1.0	0.0	70.0	73.0	10.0	0.0	14.0	950.28	18.0	3.0	-11.0	-998.0
1634976697.682073	0.0	0.0	46.0	0.0	0.0	0.0	70.0	73.0	10.0	0.0	14.0	950.3	18.0	4.0	-12.0	-1000.0
1634976697.732273	0.0	0.0	46.0	2.0	1.0	0.0	70.0	73.0	10.0	0.0	14.0	950.33	18.0	3.0	-12.0	-1001.0
1634976697.8345	0.0	0.0	46.0	0.0	0.0	0.0	70.0	73.0	10.0	0.0	14.0	950.35	18.0	4.0	-13.0	-1003.0
1634976697.93597	0.0	0.0	46.0	0.0	0.0	0.0	70.0	73.0	10.0	0.0	14.0	950.33	18.0	5.0	-11.0	-1003.0
1634976698.032588	0.0	0.0	46.0	0.0	0.0	0.0	70.0	73.0	10.0	0.0	14.0	950.28	18.0	4.0	-13.0	-1001.0
1634976698.140036	0.0	0.0	46.0	0.0	0.0	0.0	70.0	73.0	10.0	0.0	14.0	950.3	18.0	3.0	-13.0	-1003.0
1634976698.244314	0.0	0.0	46.0	0.0	0.0	0.0	70.0	73.0	10.0	0.0	14.0	950.29	18.0	3.0	-13.0	-1001.0
1634976698.343401	0.0	0.0	46.0	0.0	0.0	0.0	70.0	73.0	10.0	0.0	14.0	950.28	18.0	3.0	-14.0	-1000.0
1634976698.446227	0.0	0.0	46.0	0.0	0.0	0.0	70.0	73.0	10.0	0.0	14.0	950.27	18.0	2.0	-11.0	-1001.0
1634976698.547765	0.0	0.0	46.0	0.0	0.0	0.0	69.0	72.0	10.0	0.0	13.0	950.31	18.0	3.0	-13.0	-1001.0
1634976698.653238	0.0	0.0	46.0	0.0	0.0	0.0	69.0	72.0	10.0	0.0	13.0	950.28	18.0	3.0	-14.0	-1003.0
1634976698.743525	0.0	0.0	46.0	0.0	0.0	0.0	69.0	72.0	10.0	0.0	13.0	950.27	18.0	4.0	-12.0	-1001.0
1634976698.855564	0.0	0.0	46.0	0.0	0.0	0.0	69.0	72.0	10.0	0.0	13.0	950.34	18.0	4.0	-12.0	-1004.0
1634976698.956128	0.0	0.0	46.0	0.0	0.0	0.0	69.0	72.0	10.0	0.0	13.0	950.29	18.0	2.0	-11.0	-1002.0
1634976699.051209	0.0	0.0	46.0	0.0	0.0	0.0	69.0	72.0	10.0	0.0	13.0	950.3	18.0	3.0	-12.0	-1002.0
1634976699.160564	0.0	0.0	46.0	0.0	0.0	0.0	69.0	72.0	10.0	0.0	13.0	950.31	18.0	2.0	-11.0	-1003.0
1634976699.266807	0.0	0.0	46.0	0.0	0.0	0.0	69.0	72.0	10.0	0.0	13.0	950.26	18.0	-6.0	-4.0	-998.0
1634976699.368107	0.0	0.0	46.0	0.0	0.0	0.0	69.0	72.0	10.0	0.0	13.0	950.28	18.0	-3.0	-6.0	-1003.0
1634976699.457879	0.0	0.0	46.0	0.0	0.0	0.0	69.0	72.0	10.0	0.0	13.0	950.34	18.0	3.0	-14.0	-1007.0
1634976699.556526	0.0	0.0	46.0	0.0	0.0	0.0	69.0	73.0	10.0	0.0	13.0	950.27	18.0	2.0	-10.0	-1000.0
1634976699.659381	0.0	0.0	46.0	0.0	0.0	0.0	69.0	73.0	10.0	0.0	13.0	950.31	18.0	0.0	-13.0	-1004.0
1634976699.772631	0.0	0.0	45.0	0.0	0.0	0.0	69.0	73.0	10.0	0.0	13.0	950.27	18.0	-24.0	-137.0	-994.0
1634976699.872207	0.0	0.0	43.0	1.0	0.0	0.0	69.0	73.0	10.0	0.0	13.0	950.27	18.0	-180.0	43.0	-1027.0
1634976699.962665	0.0	0.0	43.0	0.0	0.0	0.0	69.0	73.0	10.0	0.0	13.0	950.26	18.0	2.0	-13.0	-1005.0
1634976700.081338	0.0	0.0	44.0	0.0	0.0	0.0	69.0	73.0	10.0	0.0	13.0	950.26	18.0	97.0	-53.0	-1068.0
1634976700.178703	0.0	-3.0	47.0	0.0	0.0	-3.0	69.0	73.0	10.0	0.0	13.0	950.29	18.0	17.0	-64.0	-1313.0
1634976700.282343	1.0	-6.0	46.0	0.0	0.0	-6.0	69.0	73.0	10.0	0.0	13.0	950.42	18.0	-64.0	264.0	-1368.0
1634976700.388191	2.0	-14.0	38.0	0.0	0.0	-11.0	69.0	73.0	10.0	10.0	13.0	950.53	18.0	27.0	350.0	-1413.0
1634976700.48535	3.0	-21.0	32.0	0.0	-1.0	-14.0	69.0	73.0	37.0	20.0	12.0	950.68	18.0	-196.0	358.0	-1120.0
1634976700.585375	1.0	-27.0	30.0	-3.0	-3.0	-15.0	70.0	73.0	55.0	40.0	12.0	950.76	18.0	-361.0	281.0	-719.0
1634976700.687352	1.0	-28.0	33.0	-5.0	-5.0	-10.0	70.0	73.0	70.0	50.0	12.0	950.91	18.0	-131.0	280.0	-295.0
1634976700.791097	0.0	-23.0	38.0	-6.0	-4.0	-4.0	70.0	73.0	10.0	60.0	12.0	950.87	18.0	206.0	201.0	-224.0
1634976700.889517	-2.0	-15.0	39.0	-4.0	-3.0	1.0	70.0	73.0	10.0	60.0	12.0	950.89	18.0	301.0	278.0	-715.0
1634976700.982578	-1.0	-10.0	42.0	-2.0	0.0	2.0	70.0	73.0	10.0	60.0	12.0	950.86	18.0	298.0	55.0	-896.0
1634976701.034177	0.0	-5.0	42.0	0.0	0.0	1.0	70.0	73.0	10.0	60.0	12.0	950.79	18.0	195.0	93.0	-1182.0
1634976701.14939	1.0	-1.0	44.0	0.0	0.0	0.0	70.0	73.0	10.0	60.0	12.0	950.84	18.0	27.0	74.0	-1054.0
1634976701.241121	0.0	1.0	44.0	0.0	0.0	0.0	70.0	73.0	10.0	0.0	12.0	950.74	18.0	-75.0	92.0	-1176.0
1634976701.342577	0.0	1.0	44.0	0.0	0.0	-2.0	70.0	73.0	10.0	0.0	12.0	950.8	18.0	80.0	-24.0	-1015.0
1634976701.448566	-1.0	1.0	44.0	0.0	0.0	-1.0	70.0	73.0	10.0	0.0	12.0	950.78	18.0	-20.0	-51.0	-1049.0
1634976701.556999	-1.0	1.0	44.0	0.0	0.0	-1.0	70.0	73.0	10.0	0.0	12.0	950.77	18.0	-70.0	-26.0	-1033.0
1634976701.659384	-1.0	1.0	44.0	0.0	0.0	-1.0	70.0	73.0	10.0	0.0	12.0	950.77	18.0	-76.0	-48.0	-1067.0
1634976701.760816	-1.0	1.0	44.0	0.0	0.0	-1.0	70.0	73.0	10.0	0.0	12.0	950.73	18.0	-41.0	-39.0	-1086.0
1634976701.858986	-1.0	1.0	44.0	0.0	0.0	-1.0	70.0	73.0	10.0	0.0	12.0	950.82	18.0	-21.0	-26.0	-1068.0
1634976701.951589	-1.0	1.0	44.0	0.0	0.0	-1.0	70.0	73.0	10.0	0.0	12.0	950.83	18.0	-40.0	-34.0	-1046.0
1634976702.066848	-1.0	1.0	44.0	0.0	0.0	-1.0	70.0	73.0	10.0	0.0	12.0	950.82	18.0	-28.0	-21.0	-1044.0
